Time,header.seq,header.frame_id,child_frame_id,pose.x,pose.y,pose.z,orientation.x,orientation.y,orientation.z,orientation.w,linear.x,linear.y,linear.z,angular.x,angular.y,angular.z
114.817,369,map,base_link,-2.2053214809858446e-10,-6.700852650531886e-10,0.75,-0.0025638787765494037,-0.00038794844249217186,-0.6679259988789306,-0.7442231762335866,0.0,0.0,-1.1
115.067,370,map,base_link,6.00546723461548e-10,-3.8205616448294677e-10,1.071,-0.002090285264715128,-0.000430794104252621,-0.6645429010077445,-0.7472470661328574,0.0,0.0,-1.32
115.317,371,map,base_link,-3.592837138910454e-11,-5.81521608644664e-10,1.441,-0.0017758968767548507,-0.0002976987703239335,-0.6626834862256187,-0.748897425986754,0.01,0.0,-1.47
115.567,372,map,base_link,1.2727574549842302e-10,-6.775182637142052e-10,1.813,-0.0016738326753538292,-0.0002284458885331148,-0.6617108387002049,-0.7497572354057828,0.01,0.0,-1.39
115.818,373,map,base_link,7.115275035829427e-11,-3.344251542358734e-10,2.137,-0.0017291401959706448,-0.00021706763115643483,-0.6612465386504386,-0.7501666335412687,0.01,0.0,-1.2
116.068,374,map,base_link,-2.0164936387345733e-10,-2.4308710599996175e-10,2.397,-0.0018030442504809784,-7.04087915674397e-05,-0.6610824883777549,-0.7503110605837479,0.01,0.0,-0.97
116.318,375,map,base_link,3.5334268844167127e-10,-1.2110890068584013e-10,2.595,-0.0019318937564684752,8.683190594384255e-05,-0.6611032125319224,-0.7502924780555285,0.01,0.0,-0.74
116.568,376,map,base_link,2.1429347185630832e-10,-7.137070934248868e-10,2.734,-0.0020533674196185872,1.897077961474986e-05,-0.6701416745035965,-0.7422303681579359,0.01,0.0,-0.52
116.818,377,map,base_link,-1.4408318982361834e-10,-1.0772271963332969e-10,2.823,-0.03268676072446319,-0.02878578733374773,-0.6421966918010961,-0.7653014851420621,0.08,-0.01,-0.33
117.068,378,map,base_link,0.054534912769255706,-2.8210389579896855e-10,2.874,-0.0779556655797776,-0.0867216966351083,-0.5626006497316737,-0.8184636647147145,0.44,-0.06,-0.2
117.318,379,map,base_link,0.2635854152072512,-0.02219156920133125,2.902,-0.08458839214965594,-0.12003350284019576,-0.4656265299835265,-0.8727134103959608,1.13,-0.14,-0.11
117.568,380,map,base_link,0.6725972652090759,-0.06657471959341299,2.919,-0.042585942948379994,-0.07650328444853477,-0.35936870790819725,-0.9290790153201053,1.77,-0.21,-0.07
117.818,381,map,base_link,1.2088572409059146,-0.13314947015185807,2.936,-0.008170022709762942,-0.011073881313663473,-0.23910458526463974,-0.9708962957942509,2.04,-0.25,-0.06
118.068,382,map,base_link,1.754206362489466,-0.19972425416376094,2.954,0.004149918627919627,0.030589907019090392,-0.10920702848258862,-0.9935395617155607,2.0,-0.26,-0.05
118.318,383,map,base_link,2.2268422675321307,-0.2552032714662926,2.972,0.004705095827225495,0.04538604620826589,-0.010215055797962388,-0.998906212573474,1.79,-0.23,-0.04
118.568,384,map,base_link,2.608586644679242,-0.3106822874400057,2.985,0.002553696156287219,0.04334630959763492,0.04390175452313544,-0.9980917853734683,1.53,-0.2,-0.02
118.819,385,map,base_link,2.9085286533603147,-0.35506551006934295,2.993,0.0008811440923128195,0.03390679374705681,0.07281964837634242,-0.9967682036126698,1.29,-0.17,0.0
119.069,386,map,base_link,3.1630248992104906,-0.38835294264184395,2.996,0.00016196282899455023,0.02404446390464636,0.08792480732753172,-0.995836867052027,1.1,-0.15,0.01
119.319,387,map,base_link,3.372075383512686,-0.42164036644329106,2.996,9.883961678901753e-05,0.01682267312005437,0.09539749692806648,-0.995297094077786,0.97,-0.13,0.01
119.569,388,map,base_link,3.5629475653389635,-0.4438320050282667,2.994,0.0001065880840110001,0.012476130436829096,0.09846211641619368,-0.9950625841820944,0.87,-0.11,0.02
119.819,389,map,base_link,3.744730595182853,-0.46602364370340665,2.992,-0.00010660103682718475,0.011028357674478476,0.09891726668893003,-0.9950345412667913,0.79,-0.09,0.01
120.069,390,map,base_link,3.91742446561732,-0.48821528171644557,2.989,-0.00010988187679646078,0.011157608436119754,0.09804425553940738,-0.995119500188637,0.72,-0.08,0.01
120.319,391,map,base_link,4.081029190052118,-0.5104069188174396,2.988,-0.00022885815184087925,0.012129303813788997,0.09653328514841775,-0.9952558226262198,0.66,-0.07,0.01
120.569,392,map,base_link,4.2355447676694675,-0.5215027723933259,2.987,-0.0002681872766311141,0.013316826682814248,0.09464220148207608,-0.9954222440257755,0.59,-0.06,0.0
120.819,393,map,base_link,4.3718820350106515,-0.543694402843308,2.986,-0.00039857765645782425,0.01427630641928163,0.09256351742403651,-0.9956043508608049,0.52,-0.05,0.0
121.069,394,map,base_link,4.499130155289592,-0.5547902484281233,2.986,-0.0003445845398733092,0.014798799771259603,0.09043054942615242,-0.9957927457645538,0.45,-0.04,0.0
121.319,395,map,base_link,4.5991108187727825,-0.5658860810556565,2.985,-0.00028619546435096924,0.014639365145759954,0.08835426920715755,-0.9959814908888389,0.38,-0.03,0.0
121.569,396,map,base_link,4.690002331061038,-0.5769819105269476,2.985,-0.00047792810750038665,0.014069131337623964,0.08645884927722886,-0.996155960936733,0.31,-0.02,0.0
121.82,397,map,base_link,4.77180469739682,-0.5769819537650032,2.984,-0.0007776183966909999,0.013188682244731105,0.08456212341416935,-0.9963306184464891,0.24,-0.02,0.0
122.07,398,map,base_link,4.83542875304437,-0.5880777698365849,2.984,-0.0009460269868925005,0.012037405839402885,0.08277548019653908,-0.9964950706209388,0.18,-0.01,0.0
122.32,399,map,base_link,4.880874511454763,-0.5880777939767106,2.984,-0.0008518012592009027,0.010756541281278354,0.08116165578395285,-0.9966425421808394,0.13,-0.01,0.0
122.57,400,map,base_link,4.917231112938172,-0.5991735972562027,2.984,-0.0008145368367716163,0.009485144607920496,0.07962958634526413,-0.9967790615477388,0.09,0.0,0.0
122.82,401,map,base_link,4.94449856942383,-0.5991736122375779,2.983,-0.000976069018372312,0.008128276701458052,0.0782048973458192,-0.9969036926595597,0.05,0.0,0.0
123.07,402,map,base_link,4.971766023033089,-0.5991736268529415,2.983,-0.0010519086407046224,0.006926028501391017,0.07679337074380665,-0.9970224179160738,0.02,0.0,0.0
123.32,403,map,base_link,4.98994432855638,-0.5991736368751943,2.982,-0.0011618446526501795,0.005857080278920985,0.0754567878994919,-0.9971311939195868,0.0,0.0,0.0
123.57,404,map,base_link,4.999033479441225,-0.5991736424352763,2.982,-0.0012552056609873644,0.005022540522022581,0.07429053006650332,-0.9972232025418839,-0.01,0.0,0.0
123.82,405,map,base_link,5.008122630803432,-0.5991736471527902,2.982,-0.0014820528090684086,0.004406402013009527,0.07317247623933015,-0.9973084657525852,-0.02,0.0,0.0
124.07,406,map,base_link,5.017211782487956,-0.5991736522296567,2.982,-0.001648834110044895,0.0037243732576963252,0.07210345563434051,-0.997388841964608,-0.04,0.0,0.0
124.32,407,map,base_link,5.0263009359268835,-0.5991736574166511,2.982,-0.0017260194429460601,0.0029795327210546257,0.07111197812599135,-0.9974623951852295,-0.04,0.0,0.0
124.57,408,map,base_link,5.035390086811728,-0.5991736625969868,2.982,-0.0018198671183703896,0.002428813353642514,0.0701640524424002,-0.9975308489937664,-0.05,0.0,0.0
124.821,409,map,base_link,5.035390086811728,-0.5991736625969868,2.982,-0.001874035575040176,0.0020473468953820764,0.06933666601785649,-0.9975894561927174,-0.05,0.0,0.0
125.071,410,map,base_link,5.035390086811728,-0.5991736625969868,2.982,-0.0019763397813880048,0.001780929760026407,0.06855700749751459,-0.9976436533618827,-0.05,0.0,0.0
125.321,411,map,base_link,5.035390086811728,-0.5991736625969868,2.982,-0.002165316740781905,0.0016834435943506034,0.06777514591516881,-0.9976968512615714,-0.05,0.0,0.0
125.571,412,map,base_link,5.035390086811728,-0.5991736625969868,2.982,-0.0022800066981080824,0.0015138489633299244,0.06704280989767458,-0.9977463462583048,-0.05,0.0,0.0
125.821,413,map,base_link,5.035390086811728,-0.5991736625969868,2.982,-0.0024534699248000566,0.0014649104650799147,0.06641623457702284,-0.9977879124880532,-0.05,0.0,0.0
126.071,414,map,base_link,5.035390086811728,-0.5991736625969868,2.982,-0.0025112954450997034,0.001357579963775749,0.06580595304413933,-0.9978283554378389,-0.05,-0.01,0.0
126.321,415,map,base_link,5.0353900930986635,-0.5880778792375974,2.981,-0.0026738760672156076,0.0011443684428454628,0.0651869277931148,-0.9978688316870807,-0.05,-0.01,0.0
126.571,416,map,base_link,5.0353900930986635,-0.5880778792375974,2.981,-0.0028608547067503647,0.000946173322527248,0.06465655944823873,-0.9979030261436764,-0.05,-0.01,0.0
126.822,417,map,base_link,5.026300942136296,-0.5880778742784756,2.98,-0.0029193529945659683,0.0008145578053181985,0.0641926091148401,-0.9979329250048343,-0.05,-0.02,0.0
127.071,418,map,base_link,5.026300942136296,-0.5880778742784756,2.98,-0.002800687000399681,0.000550138825446418,0.06373644435476294,-0.997962684252578,-0.05,-0.02,0.0
127.321,419,map,base_link,5.0263009484232315,-0.5769820916785795,2.98,0.039135535433235676,-0.0038685073680463453,0.02688185422309769,-0.9988647608313277,-0.04,0.04,0.0
127.571,420,map,base_link,5.02630097760804,-0.5104073959355124,2.979,0.1089725156371706,-0.02192336948168894,-0.0674830663990213,-0.9915091489520715,0.01,0.42,0.0
127.822,421,map,base_link,5.044479398543861,-0.29958754027141876,2.976,0.1323735110601397,-0.04238294846576036,-0.17595452241992382,-0.9745362719206179,0.1,1.11,0.01
128.072,422,map,base_link,5.089925397167349,0.12205216694945409,2.972,0.07201661980746998,-0.032016819933548386,-0.29421458040813636,-0.9524842835386383,0.17,1.72,0.0
128.322,423,map,base_link,5.153549765179241,0.6435539050853663,2.974,0.007273921254537758,-0.0029993447080540513,-0.41575611467669277,-0.9094421076186464,0.19,1.97,-0.01
128.572,424,map,base_link,5.217174143317252,1.1761514269438083,2.979,-0.026266442564715317,0.020281066662450754,-0.5319481237204955,-0.8461264361785843,0.18,1.91,-0.02
128.822,425,map,base_link,5.271709345575731,1.642174259264135,2.984,-0.0340874725011499,0.031267580468676816,-0.6087297083892034,-0.7920281085633977,0.16,1.71,-0.01
129.072,426,map,base_link,5.317155345113946,2.030526617177449,2.988,-0.030637874378618247,0.03235093271114423,-0.6493444959215143,-0.7591880290301698,0.14,1.46,-0.01
129.322,427,map,base_link,5.353512157149123,2.3412085069509083,2.99,-0.024097366006812615,0.027899291870331844,-0.6708659698502798,-0.7406617291054742,0.12,1.23,0.0
129.572,428,map,base_link,5.389868920884134,2.596411478430151,2.988,-0.01758711441689589,0.021879429617909257,-0.6823650164527952,-0.7304724281500695,0.09,1.04,0.0
129.822,429,map,base_link,5.417136513422831,2.8072313272974094,2.986,-0.012410888566741106,0.016418856044227194,-0.6881269519744527,-0.7252983448054546,0.08,0.9,0.0
130.072,430,map,base_link,5.44440409169855,2.9958596117809297,2.983,-0.009335355540194977,0.012805738399914833,-0.6905343316122737,-0.7231259925253422,0.06,0.79,0.0
130.322,431,map,base_link,5.471671673095463,3.1844878964571124,2.981,-0.008081494649554346,0.010892650439154501,-0.6909411559664576,-0.722783756459963,0.05,0.71,0.0
130.572,432,map,base_link,5.489850085268635,3.3509246211913344,2.981,-0.008122377247606491,0.010235166350559472,-0.6903152803560568,-0.7233906842533727,0.04,0.64,0.0
130.822,433,map,base_link,5.50802849306432,3.506265564417452,2.981,-0.008791615697264974,0.010327276390300523,-0.6891297361689881,-0.7245110500078319,0.03,0.58,0.0
131.072,434,map,base_link,5.526206892484124,3.650510725238374,2.981,-0.00962903964250683,0.010696405546495867,-0.6877217832377206,-0.725831672885854,0.02,0.51,0.0
131.326,435,map,base_link,5.535296129856549,3.7836601081774544,2.982,-0.010215293443571043,0.010821173874606129,-0.6862154324550632,-0.7272461276874205,0.02,0.45,0.0
131.572,436,map,base_link,5.544385363406374,3.905713708013987,2.983,-0.010326030677786856,0.010678761746432477,-0.6847078296664777,-0.7286662645761953,0.01,0.38,0.0
131.822,437,map,base_link,5.553474580759319,4.0055757448634015,2.983,-0.010240521346813025,0.010333912467518056,-0.6832976450967313,-0.7299949795587095,0.01,0.31,0.0
132.072,438,map,base_link,5.562563785191625,4.083246215563326,2.983,-0.009944789566446352,0.009668418464514487,-0.6819613120465533,-0.7312567208009905,0.0,0.25,0.0
132.322,439,map,base_link,5.562563832986286,4.160916692935101,2.983,-0.00934518795505161,0.008703456226687386,-0.6807061239537013,-0.7324452813171255,0.0,0.19,0.0
132.572,440,map,base_link,5.571653023298433,4.2163955994189335,2.983,-0.008560722471580044,0.007572448604041757,-0.6794740948219244,-0.7336104732886725,0.0,0.13,0.0
132.822,441,map,base_link,5.571653051306182,4.260778728706459,2.984,-0.00764750093658515,0.006450525869547266,-0.6783438350902821,-0.7346764919612165,0.0,0.09,0.0
133.073,442,map,base_link,5.571653071892773,4.294066076514431,2.984,-0.006731113535493189,0.005382919059382941,-0.6772355939763044,-0.7357157511869205,0.0,0.05,0.0
133.323,443,map,base_link,5.571653085380524,4.316257641344258,2.984,-0.0058196711243753575,0.004391107055422608,-0.6762115880860979,-0.7366713906111119,0.0,0.02,0.0
133.573,444,map,base_link,5.571653099268114,4.338449205276454,2.984,-0.00507661205470294,0.0035214725991213457,-0.6752965589263318,-0.7375204300512869,0.0,0.0,0.0
133.823,445,map,base_link,5.57165310581207,4.349544987950311,2.984,-0.004197096405346103,0.002832551330867805,-0.6745137302855472,-0.7382449381411282,0.0,-0.02,0.0
134.073,446,map,base_link,5.57165311331075,4.360640770790316,2.984,-0.00331746497889237,0.002140120260092605,-0.6736558918507547,-0.7390346092614003,0.0,-0.03,0.0
134.323,447,map,base_link,5.571653126398662,4.382832335758282,2.984,-0.0025803313225653927,0.0014930787015531794,-0.6728741431973854,-0.7397509716266966,0.0,-0.04,0.0
134.573,448,map,base_link,5.571653126398662,4.382832335758282,2.983,-0.002291823446980638,0.0010792566675235894,-0.6721767504985453,-0.7403863848285908,0.0,-0.05,0.0
134.823,449,map,base_link,5.571653126398662,4.382832335758282,2.983,-0.0019706146209412904,0.0008129658304689665,-0.6715317009272144,-0.740972759562979,0.0,-0.05,0.0
135.073,450,map,base_link,5.571653126398662,4.382832335758282,2.983,-0.0015691633821594178,0.0005361841306009992,-0.6708617307011856,-0.7415806014948532,0.0,-0.05,0.0
135.323,451,map,base_link,5.571653126398662,4.382832335758282,2.983,-0.0012163225482210238,0.000190342987215615,-0.6702920572171528,-0.7420963834709096,0.0,-0.05,0.0
135.573,452,map,base_link,5.571653126398662,4.382832335758282,2.983,-0.0010417197323670138,-6.789269801487987e-05,-0.6698032099645757,-0.7425379250460756,0.0,-0.05,0.0
135.823,453,map,base_link,5.571653126398662,4.382832335758282,2.983,-0.000951406169026563,-0.00020454356247392633,-0.6692996596171175,-0.7429919371195378,0.0,-0.05,0.0
136.073,454,map,base_link,5.571653126398662,4.382832335758282,2.983,-0.0009300312155271727,-0.0002544623605076352,-0.6688263398497445,-0.7434180502342135,0.0,-0.05,0.0
136.323,455,map,base_link,5.571653126398662,4.382832335758282,2.983,-0.0008736150290712413,-0.0003730814546306167,-0.6683886349912912,-0.7438116228061293,0.0,-0.04,0.0
136.573,456,map,base_link,5.562563970560696,4.382832341774109,2.983,-0.0007695341861535701,-0.0005264398504310861,-0.6680277927169602,-0.7441357395233253,0.01,-0.04,0.0
136.823,457,map,base_link,5.562563970560696,4.382832341774109,2.983,-0.0006904361882960948,-0.0005544607682901758,-0.6676679607618881,-0.7444586691302536,0.01,-0.04,0.0
137.073,458,map,base_link,5.5625639636169,4.371736558478899,2.983,-0.0005050443085774097,-0.0007536968273860223,-0.6673010851733914,-0.7447875123803788,0.01,-0.04,0.0
137.323,459,map,base_link,5.5625639636169,4.371736558478899,2.983,-0.00036171868839019817,-0.0010424344197549375,-0.6669502356250513,-0.745101446576075,0.01,-0.04,0.0
137.573,460,map,base_link,5.562563956595582,4.3606407761017145,2.983,-0.0002656471316909465,-0.001306488732196283,-0.6666044864351763,-0.7454104112388616,0.01,-0.03,0.0
137.823,461,map,base_link,5.562563956595582,4.3606407761017145,2.983,-0.00024376911219963935,-0.0015301587765892814,-0.6663883576631087,-0.7456032161691654,0.01,-0.03,0.0
138.073,462,map,base_link,5.562563956595582,4.3606407761017145,2.983,-0.0001786400929396286,-0.0015403160620474565,-0.666104780592104,-0.7458565658264942,0.01,-0.02,0.0
138.323,463,map,base_link,5.562563956595582,4.3606407761017145,2.983,-0.0001264682389129568,-0.0015018666369313437,-0.6658808063245408,-0.7460566199498324,0.01,-0.02,0.0
138.573,464,map,base_link,5.562563949651787,4.349544993945743,2.983,-0.00020551131005715266,-0.0014735544428749491,-0.6656150490808885,-0.7462937711380496,0.01,-0.01,0.0
138.823,465,map,base_link,5.553474793336459,4.3495449994987485,2.983,0.03285534109201074,0.02528287416387972,-0.6921783759621575,-0.7205348004684655,-0.05,0.0,0.0
139.073,466,map,base_link,5.489850701507451,4.360640820948333,2.982,0.09486285443681912,0.06133261848543412,-0.7531075894184648,-0.6481267680925764,-0.44,0.04,0.0
139.324,467,map,base_link,5.27171093618411,4.371736726655965,2.979,0.1253815562847554,0.06293664369936638,-0.8172370364997612,-0.5589651781610011,-1.12,0.13,0.01
139.574,468,map,base_link,4.853609756121983,4.427215873865122,2.976,0.0754232113543715,0.027691244543526335,-0.8845140783097871,-0.4595425763043205,-1.74,0.21,0.0
139.824,469,map,base_link,4.3264386860161785,4.482695054693309,2.978,0.008627955888952711,0.002454404891547163,-0.9393100749141927,-0.34295206288707525,-1.98,0.23,-0.01
140.074,470,map,base_link,3.7901784558713087,4.5381742159572465,2.983,-0.03181115694240131,-0.004945993014230565,-0.9759730090474554,-0.21550005349870527,-1.92,0.21,-0.01
140.324,471,map,base_link,3.317542310124246,4.5825575317488285,2.988,-0.04574920144371191,-0.003282069585530274,-0.9913167280833108,-0.12323710159159768,-1.72,0.2,-0.01
140.574,472,map,base_link,2.9267085767327194,4.626940803314229,2.992,-0.044717411096612196,-0.0006787052737511568,-0.9963533086474554,-0.07266344921097878,-1.47,0.18,0.0
140.824,473,map,base_link,2.6085880900316383,4.660228249425382,2.993,-0.03741271594692091,0.0004440012621796997,-0.9982523568847986,-0.04574192302799457,-1.24,0.15,0.0
141.074,474,map,base_link,2.354091699345327,4.693515666100426,2.992,-0.028724767633251453,0.00033828656430626554,-0.9990847102321168,-0.03169408567892923,-1.05,0.14,0.01
141.324,475,map,base_link,2.135951930243195,4.715707278076941,2.989,-0.0212345339974432,-0.00034247473580775164,-0.9994648264677817,-0.024880472879226345,-0.91,0.12,0.01
141.574,476,map,base_link,1.9450796332549616,4.726803104423027,2.986,-0.01595288831949471,-0.0008887006798467175,-0.9996236310251652,-0.022300490161243247,-0.8,0.12,0.01
141.824,477,map,base_link,1.772385651520466,4.748994704319305,2.984,-0.012802990240328906,-0.0011189786887786427,-0.9996747485199886,-0.022027902739428895,-0.71,0.11,0.0
142.074,478,map,base_link,1.6178699820045603,4.771186297529887,2.983,-0.011434168073349934,-0.001171803371216118,-0.9996658367915943,-0.02315386423668364,-0.64,0.11,0.0
142.324,479,map,base_link,1.4633543152100095,4.793377889552284,2.983,-0.011207873882684514,-0.0010916496985134256,-0.9996277987132036,-0.02484865999928776,-0.58,0.1,0.0
142.574,480,map,base_link,1.3270169580762639,4.80447369397668,2.982,-0.011728374106235078,-0.0009437729944777772,-0.9995698907619949,-0.02686239035180693,-0.52,0.1,0.0
142.824,481,map,base_link,1.1997687593260433,4.826665275301253,2.982,-0.012339168141314435,-0.0007504926820439965,-0.9995016129977489,-0.02904664017081926,-0.46,0.09,0.0
143.074,482,map,base_link,1.0816097160877691,4.837761072328865,2.983,-0.012710997033743392,-0.0006179606550204054,-0.9994335158692909,-0.03115599518848383,-0.4,0.08,0.0
143.324,483,map,base_link,0.981628987764988,4.848856866629234,2.983,-0.012735399254842648,-0.0005358711130426202,-0.9993672136868001,-0.03320684652072936,-0.34,0.08,0.0
143.576,484,map,base_link,0.8907374160676254,4.859952658919674,2.983,-0.012535115494089128,-0.000567348354821555,-0.9993036621542395,-0.03513886453088216,-0.28,0.07,0.0
143.824,485,map,base_link,0.8180241576088747,4.8710484484344665,2.983,-0.011834795599316135,-0.0005732132045545017,-0.9992439274396404,-0.03702948169698461,-0.22,0.06,0.0
144.076,486,map,base_link,0.7634892153426585,4.882144235788305,2.984,-0.010781618713557128,-0.000614145988449276,-0.9991870903844651,-0.038839901282664735,-0.17,0.06,0.0
144.324,487,map,base_link,0.7180434306565862,4.893240021298364,2.985,-0.009639654607181409,-0.000726069595279552,-0.9991328875507637,-0.04049719615566438,-0.12,0.05,0.0
144.574,488,map,base_link,0.6725976436575221,4.893240024556061,2.985,-0.008440870322054103,-0.0008225267764739065,-0.9990805389316522,-0.042025609881928105,-0.08,0.04,0.0
144.824,489,map,base_link,0.6453301700521155,4.893240026619774,2.985,-0.007331757531429187,-0.0010313049749738961,-0.9990282081487667,-0.043449062873825994,-0.05,0.04,0.0
145.074,490,map,base_link,0.6271518566584584,4.893240027434011,2.985,-0.006463094574047641,-0.00103257246462321,-0.9989727307936003,-0.044840220041933665,-0.02,0.04,0.0
145.325,491,map,base_link,0.6089735411020338,4.904335811419178,2.986,-0.005417652125007351,-0.001071519558558322,-0.9989191743488187,-0.04615174979957287,0.0,0.03,0.0
145.575,492,map,base_link,0.590795228508056,4.904335812336883,2.986,-0.004554574365392168,-0.0012113028180295504,-0.9988731883857529,-0.04722438058792411,0.01,0.03,0.0
145.825,493,map,base_link,0.5817060712502293,4.904335813441563,2.986,-0.00378311891921587,-0.001177148849291217,-0.9988183923057261,-0.04843677862568957,0.02,0.03,0.0
146.075,494,map,base_link,0.5817060712502293,4.904335813441563,2.986,-0.0030418478504616437,-0.0012313109540402936,-0.9987741979502902,-0.04938959955034672,0.03,0.03,0.0
146.325,495,map,base_link,0.5635277549026494,4.904335814400596,2.986,-0.0025535608623714575,-0.0011642201358979787,-0.9987278708739993,-0.05034643838332303,0.04,0.03,0.0
146.575,496,map,base_link,0.5635277549026494,4.904335814400596,2.986,-0.0020710265206108185,-0.0011921720520815418,-0.9986889513262098,-0.05113382514446291,0.04,0.02,0.0
146.825,497,map,base_link,0.5635277549026494,4.904335814400596,2.985,-0.0015872796116584377,-0.0013355211157860072,-0.9986453274894918,-0.05199237261550704,0.05,0.02,0.0
147.075,498,map,base_link,0.5635277549026494,4.904335814400596,2.985,-0.0012216255901979002,-0.001336545595005635,-0.9986086468765463,-0.05270191324973772,0.05,0.02,0.0
147.325,499,map,base_link,0.5635277549026494,4.904335814400596,2.984,-0.0008172340474819342,-0.0013327688889032143,-0.9985701358012611,-0.05343444339984471,0.05,0.02,0.0
147.575,500,map,base_link,0.5635277549026494,4.904335814400596,2.984,-0.0006670601427110033,-0.0013326457134550886,-0.9985343838615477,-0.05410049290355695,0.05,0.02,0.0
147.825,501,map,base_link,0.572616911838159,4.904335814035016,2.983,-0.0005215852670041911,-0.0014149556444597471,-0.9985025205999145,-0.05468493581371975,0.04,0.02,0.0
148.075,502,map,base_link,0.572616911838159,4.904335814035016,2.983,-0.00047741343817235684,-0.0013845573931441243,-0.9984716666107376,-0.055246593133059685,0.04,0.02,0.0
148.325,503,map,base_link,0.572616911838159,4.904335814035016,2.983,-0.00032810684536981483,-0.0011381526615385756,-0.9984421126140972,-0.055784807189014796,0.04,0.02,0.0
148.575,504,map,base_link,0.572616911838159,4.904335814035016,2.983,-0.0001167310650271275,-0.0009373759825748165,-0.9984152007014833,-0.05626894977109853,0.04,0.02,0.0
148.825,505,map,base_link,0.572616911838159,4.904335814035016,2.983,1.3861543217169865e-05,-0.0008070363658026784,-0.9983922405207983,-0.05667700210863508,0.03,0.02,0.0
149.075,506,map,base_link,0.581706071963862,4.915431596246481,2.983,0.00023786847645772675,-0.0006401256642825815,-0.9983667431326648,-0.05712599989844663,0.03,0.02,0.0
149.325,507,map,base_link,0.5817060712502293,4.904335813441563,2.983,0.005273893181806774,0.042335305097466185,-0.9988999193609562,-0.01946430306192476,0.02,-0.05,0.0
149.575,508,map,base_link,0.5817060675147951,4.848856901357985,2.982,0.02402851904197467,0.11155644111298464,-0.9906372487068363,0.07493752193263614,-0.03,-0.45,0.0
149.825,509,map,base_link,0.5635277366401927,4.6269412473525655,2.978,0.044372187879781574,0.13267923697148334,-0.9731130629702459,0.1829707509305593,-0.12,-1.14,0.01
150.075,510,map,base_link,0.518081927141671,4.205301520361005,2.975,0.03349488521521829,0.07091237201303029,-0.9504184495725962,0.3009224133758194,-0.19,-1.74,0.0
150.325,511,map,base_link,0.4635469609070808,3.6727039697311503,2.977,0.004172259173300372,0.006144284986085115,-0.9065199469092926,0.4220976496866261,-0.22,-1.98,-0.01
150.575,512,map,base_link,0.40901200154047235,3.1401064209911893,2.982,-0.019041850890924,-0.02752273137288804,-0.8422544198892895,0.5380403324560159,-0.21,-1.92,-0.02
150.828,513,map,base_link,0.36356620448719434,2.6740835606716638,2.988,-0.029722433018316598,-0.03571994225593615,-0.7882076303007546,0.613652502835581,-0.19,-1.71,-0.01
151.075,514,map,base_link,0.3272095705739506,2.2857311816911836,2.992,-0.03069974549049062,-0.03269564491299884,-0.7563145220013144,0.6526690311639316,-0.17,-1.47,0.0
151.326,515,map,base_link,0.29085294141398865,1.9750492750196775,2.993,-0.026638260402273867,-0.02657811368630469,-0.738743171032032,0.6729357578618899,-0.16,-1.24,0.0
151.576,516,map,base_link,0.2544963162873257,1.719846279522837,2.991,-0.02071811485626626,-0.02029247649207392,-0.7295016808265422,0.6833639387514322,-0.14,-1.05,0.01
151.826,517,map,base_link,0.23631800276846793,1.509026411283727,2.989,-0.015086518800929191,-0.015243355204324155,-0.7250318079858941,0.6883813728459609,-0.12,-0.9,0.01
152.076,518,map,base_link,0.2090505358032122,1.320398109346368,2.986,-0.011007961113993414,-0.011742340354365935,-0.723283927382431,0.6903631671992368,-0.12,-0.79,0.01
152.326,519,map,base_link,0.19087222608725884,1.1428655907459788,2.984,-0.008799980629156805,-0.009678751551712236,-0.7230760903292516,0.6906445176090885,-0.11,-0.71,0.0
152.576,520,map,base_link,0.1636047616505143,0.9875246371902053,2.983,-0.007755874849166454,-0.00866011484143637,-0.7237521748307317,0.6899620556552679,-0.1,-0.64,0.0
152.826,521,map,base_link,0.14542645359439432,0.832183683344309,2.982,-0.007689744288047361,-0.008522313896864255,-0.7249198584569214,0.6887375674474457,-0.1,-0.58,0.0
153.076,522,map,base_link,0.12724814335475654,0.6990342941779885,2.982,-0.008030686747422426,-0.00872140097997401,-0.7263033866524872,0.6872720245815618,-0.09,-0.52,0.0
153.326,523,map,base_link,0.10906983678267435,0.5769806865325502,2.982,-0.008599893877078248,-0.009144810538064974,-0.72777074449795,0.685705591138373,-0.08,-0.46,0.0
153.576,524,map,base_link,0.09089152853371063,0.4549270799779461,2.982,-0.008998509324156358,-0.009430173210360627,-0.7292438537625591,0.6841297394593344,-0.08,-0.4,0.0
153.826,525,map,base_link,0.08180237479194497,0.35506503869764905,2.983,-0.009184238276535762,-0.009699809521970639,-0.730653594006707,0.6826176741248349,-0.07,-0.34,0.0
154.076,526,map,base_link,0.0727132219963802,0.2662987778479404,2.983,-0.008998585411746309,-0.009610494942525189,-0.7320103422979995,0.6811662958604986,-0.06,-0.28,0.0
154.326,527,map,base_link,0.06362406908179219,0.19972408397151908,2.983,-0.008375048729532372,-0.008943789937182197,-0.7333007008289305,0.6797940492120661,-0.05,-0.22,0.0
154.579,528,map,base_link,0.054534914335277795,0.13314938922451924,2.983,-0.007464639042505524,-0.008220745835842383,-0.7345110690907368,0.678505849558462,-0.05,-0.17,0.0
154.826,529,map,base_link,0.04544576274598011,0.08876625942767125,2.983,-0.0065812361252267915,-0.00767130958595379,-0.7356594414911345,0.6772761803616401,-0.04,-0.12,0.0
155.076,530,map,base_link,0.045445762184346705,0.044383129175091796,2.983,-0.005729144165013523,-0.007081410164344222,-0.7366663225530096,0.6761950604325988,-0.03,-0.08,0.0
155.327,531,map,base_link,0.045445761981052435,0.0221915644598889,2.983,-0.004952969642331779,-0.006465654375323116,-0.7376645671784756,0.6751182487050794,-0.03,-0.04,0.0
155.576,532,map,base_link,0.03635661021595937,-0.01109578275175549,2.984,-0.004262170662905225,-0.005724529940549545,-0.7385726063687147,0.6741361648657664,-0.03,-0.02,0.0
155.826,533,map,base_link,0.036356609836869946,-0.022191565641247468,2.985,-0.003510483637269144,-0.004990254537001511,-0.7394101864764923,0.6732275618237025,-0.02,0.0,0.0
156.076,534,map,base_link,0.03635661041250482,-0.03328734760509744,2.985,-0.002890147499071288,-0.004481631848277512,-0.7402285171965322,0.6723342207209398,-0.02,0.02,0.0
156.326,535,map,base_link,0.0363566097318484,-0.05547891202362876,2.985,-0.0021121899900828156,-0.003846428252175913,-0.7409583997064987,0.671536591369027,-0.02,0.03,0.0
156.576,536,map,base_link,0.0363566097318484,-0.05547891202362876,2.986,-0.0014683035834233292,-0.003327500932679668,-0.741620038077357,0.6708103241187254,-0.02,0.04,0.0
156.826,537,map,base_link,0.0363566097318484,-0.05547891202362876,2.986,-0.0010754561492831393,-0.003172693375487727,-0.7422599574669635,0.6701036732864233,-0.02,0.05,0.0
157.077,538,map,base_link,0.0363566097318484,-0.05547891202362876,2.986,-0.0008284561049603108,-0.002995944330797512,-0.7428328925732929,0.669469664502615,-0.02,0.05,0.0
157.327,539,map,base_link,0.036356610152438185,-0.0665746951893984,2.986,-0.00045225327863248455,-0.0026354017672053703,-0.7434108396219421,0.6688297045265682,-0.02,0.06,0.0
157.577,540,map,base_link,0.03635660985087141,-0.07767047747793043,2.985,-0.0001755758459184152,-0.002262189167550114,-0.7439372261931394,0.6682456547987051,-0.02,0.06,0.0
157.827,541,map,base_link,0.036356610152438185,-0.0665746951893984,2.985,5.8319561159678534e-05,-0.0021323850779894752,-0.7443813739708851,0.6677513156991345,-0.02,0.06,0.0
158.077,542,map,base_link,0.036356610152438185,-0.0665746951893984,2.984,0.00020361994804672214,-0.0020057019841112187,-0.744826016547296,0.6672556787115077,-0.02,0.06,0.0
158.327,543,map,base_link,0.036356610152438185,-0.0665746951893984,2.984,0.0004478481781426625,-0.0018001872943492426,-0.7451863349507007,0.666853720811736,-0.02,0.06,0.0
158.577,544,map,base_link,0.036356610152438185,-0.0665746951893984,2.983,0.0005116275521026094,-0.001742917956547457,-0.7455760403682811,0.6664180883672048,-0.02,0.05,0.0
158.827,545,map,base_link,0.036356610152438185,-0.0665746951893984,2.983,0.0005802861178166345,-0.0016976173623382423,-0.7459560104637735,0.6659928016249749,-0.02,0.05,0.0
159.077,546,map,base_link,0.036356610152438185,-0.0665746951893984,2.983,0.0007262788102310627,-0.0015702330702693245,-0.7462363385916677,0.6656788518891802,-0.02,0.05,0.0
159.327,547,map,base_link,0.0363566097318484,-0.05547891202362876,2.983,0.000968168794641649,-0.0012624751721096456,-0.7465423008012249,0.6653360518715624,-0.02,0.05,0.0
159.577,548,map,base_link,0.0363566097318484,-0.05547891202362876,2.983,0.0011213080634361083,-0.0010085842700430206,-0.7468087259680671,0.6650371810988837,-0.02,0.04,0.0
159.83,549,map,base_link,0.03635661011093805,-0.044383130273375704,2.983,0.0017427256130868821,-0.0013856707853567784,-0.721068425986101,0.6928602801935166,-0.02,0.04,0.0
160.077,550,map,base_link,0.03635661011093805,-0.044383130273375704,2.983,-0.0021959566361535914,0.0016684650604934146,0.6517302903595198,-0.7584457941255196,-0.03,0.03,0.0
160.327,551,map,base_link,0.03635661011093805,-0.044383130273375704,2.983,-0.0018434641269673524,0.0012897663903450906,0.5634665519832126,-0.8261358138580004,-0.03,0.03,0.0
160.577,552,map,base_link,0.03635661011093805,-0.044383130273375704,2.983,-0.0013550773280321575,0.0008772134293439447,0.4603408587679982,-0.8877407774856219,-0.03,0.02,0.0
160.827,553,map,base_link,0.03635661011093805,-0.044383130273375704,2.983,-0.0007810411347382864,0.0006634259282698867,0.3445009348472236,-0.9387854151669446,-0.03,0.02,0.0
161.077,554,map,base_link,0.03635661011093805,-0.044383130273375704,2.983,-0.00031110077155266076,0.0005819758743034166,0.2188293763785804,-0.9757629161605565,-0.03,0.02,0.0
161.327,555,map,base_link,0.03635661011093805,-0.044383130273375704,2.983,2.7815913862261534e-05,0.0005291778978641738,0.08609744496010147,-0.9962865798395408,-0.03,0.02,0.0
161.577,556,map,base_link,0.04544576209332685,-0.04438312980346515,2.983,4.1018570179069364e-05,0.0007148356975468026,-0.05054539387502244,-0.9987215079717774,-0.02,0.02,0.0
161.827,557,map,base_link,0.04544576151769153,-0.0332873478396154,2.983,0.00023613836324124272,0.0008211243672693834,-0.18758551825149827,-0.982247903197438,-0.02,0.02,0.0
162.077,558,map,base_link,0.04544576151769153,-0.0332873478396154,2.982,0.00042577177644071335,0.0008503716089909637,-0.3217831087663447,-0.9468129311005357,-0.03,0.02,0.0
162.327,559,map,base_link,0.04544576151769153,-0.0332873478396154,2.982,0.0005950530839708011,0.0008190911186661918,-0.45004994823699884,-0.8930028102382663,-0.03,0.02,0.0
162.577,560,map,base_link,0.04544576151769153,-0.0332873478396154,2.982,0.0006311145903561173,0.0008057426811453323,-0.5686187380747597,-0.8226005611372835,-0.03,0.02,0.0
162.827,561,map,base_link,0.04544576151769153,-0.0332873478396154,2.982,0.0012994531705073265,0.0014056611958382869,-0.6425200406189123,-0.7662664895068372,-0.03,0.02,0.0
163.078,562,map,base_link,0.04544576181925852,-0.02219156555108337,2.982,0.001403929182703634,0.00179178491742697,-0.6776826625691167,-0.7353509552199495,-0.04,0.01,0.0
163.328,563,map,base_link,0.0545349138016471,-0.02219156546091905,2.982,0.0008589171749004837,0.0016524999293205593,-0.6949438371018234,-0.7190616070820806,-0.05,0.01,0.0
163.578,564,map,base_link,0.0545349138016471,-0.02219156546091905,2.982,0.0003277492597973676,0.0013261783131183426,-0.7031915702511384,-0.7109991205052525,-0.05,0.01,0.0
163.828,565,map,base_link,0.05453491330353488,-0.01109578289610913,2.982,-4.4061512255701186e-05,0.0010592378014994853,-0.7065486154973857,-0.7076637125164681,-0.05,0.0,0.0
164.078,566,map,base_link,0.04544576219834817,-0.011095782281844935,2.982,-0.00014324303910165492,0.0009021844668721373,-0.7072352121850682,-0.7069777367004996,-0.05,0.0,0.0
164.328,567,map,base_link,0.05453491330353488,-0.01109578289610913,2.982,-0.00012693235910176702,0.0008437351142343096,-0.7063545082807658,-0.7078577403904479,-0.04,0.0,0.0
164.578,568,map,base_link,0.05453491330353488,-0.01109578289610913,2.982,-0.00015579308607321352,0.000749665084380852,-0.7045774625881822,-0.7096266715277649,-0.04,0.0,0.0
164.828,569,map,base_link,0.05453491330353488,-0.01109578289610913,2.982,1.5281710718466743e-05,0.0008097189046567377,-0.7022934394574412,-0.7118871181702914,-0.04,0.0,0.0
165.078,570,map,base_link,0.05453491330353488,-0.01109578289610913,2.982,8.225218437284217e-05,0.0009363401838406759,-0.6998454567668505,-0.7142936742996093,-0.04,0.0,0.0
165.328,571,map,base_link,0.054534913760147186,-1.651498937604856e-10,2.982,4.7570616453745696e-05,0.0009280915540071032,-0.6974365505917018,-0.7166459336951911,-0.03,0.0,0.0
165.578,572,map,base_link,0.054534913760147186,-1.651498937604856e-10,2.982,-2.741812855993509e-06,0.0008733407376792221,-0.6950647916498883,-0.7189465715038466,-0.03,0.0,0.0
165.828,573,map,base_link,0.054534913760147186,-1.651498937604856e-10,2.982,-3.579397175122444e-05,0.0009182061440749131,-0.6928455336020146,-0.7210854472141341,-0.03,0.0,0.0
166.078,574,map,base_link,0.054534913760147186,-1.651498937604856e-10,2.982,-0.0001393377025652833,0.0009426796894868801,-0.6907090109753576,-0.7231321830049129,-0.03,-0.01,0.0
166.328,575,map,base_link,0.054534913760147186,-1.651498937604856e-10,2.982,-0.0003123354120863318,0.0008344821458699338,-0.6886878539515381,-0.7250574086965553,-0.03,-0.01,0.0
166.578,576,map,base_link,0.054534913760147186,-1.651498937604856e-10,2.982,-0.00034225041645009413,0.0006535796816373138,-0.686803784970858,-0.7268424978273875,-0.03,-0.01,0.0
166.828,577,map,base_link,0.04544576170023573,-4.765277061835604e-10,2.982,-0.0004891762179778826,0.0006202092350514437,-0.6850376221590228,-0.7285072630206542,-0.03,-0.01,0.0
167.078,578,map,base_link,0.04544576170023573,-4.765277061835604e-10,2.982,-0.0006903979718969173,0.0004984449003031621,-0.6834091759871892,-0.7300350492132776,-0.03,-0.01,0.0
167.328,579,map,base_link,0.04544576207932516,0.011095782792710507,2.982,-0.0008967352949489363,0.00026577241004886585,-0.6818559354202002,-0.731485890884493,-0.03,-0.01,0.0
167.578,580,map,base_link,0.03635661009693658,0.01109578232279973,2.982,-0.0009805457054725272,5.639090013086556e-05,-0.6803965925066192,-0.732843443209781,-0.03,-0.01,0.0
167.828,581,map,base_link,0.03635661009693658,0.01109578232279973,2.982,-0.001007133155524377,-0.00011925327684951797,-0.6790384806397196,-0.7341019774336289,-0.02,-0.01,0.0
168.078,582,map,base_link,0.027267458192070437,0.01109578321334137,2.982,-0.0010527133662717372,-0.00020822049956235002,-0.6777993499326449,-0.7352461422337936,-0.02,-0.01,0.0
168.328,583,map,base_link,0.027267458192070437,0.01109578321334137,2.982,-0.0009257584229935039,-0.0001484140541992556,-0.6766118168810192,-0.7363393037191324,-0.01,-0.02,0.0
168.578,584,map,base_link,0.027267458192070437,0.01109578321334137,2.982,-0.0007686569374566951,-4.769779013381935e-05,-0.6755054418626945,-0.7373545991619769,-0.01,-0.01,0.0
168.828,585,map,base_link,0.027267458192070437,0.01109578321334137,2.982,-0.0007868089390260438,1.834449530749954e-05,-0.6744706537629604,-0.7383012378478975,-0.01,-0.01,0.0
169.08,586,map,base_link,0.027267458192070437,0.01109578321334137,2.982,-0.000667723926230425,-6.932858647561289e-05,-0.6735131713285241,-0.739174916636989,-0.01,-0.01,0.0
169.329,587,map,base_link,0.018178306609521355,0.011095782985038438,2.982,-0.0007428890668974541,-7.877089431529846e-05,-0.6725955737152675,-0.7400098892106854,-0.01,-0.01,0.0
169.579,588,map,base_link,0.018178306609521355,0.011095782985038438,2.982,-0.0008454335504165428,-9.359084030415792e-05,-0.6717904519552509,-0.740740754342993,0.0,-0.01,0.0
169.829,589,map,base_link,0.018178306609521355,0.011095782985038438,2.982,-0.0010143751356331365,-0.00010461805106262023,-0.6710010640423478,-0.7414556845504555,0.0,-0.01,0.0
170.079,590,map,base_link,0.018178306609521355,0.011095782985038438,2.982,-0.001383170013920681,-9.051178897108637e-05,-0.6702687429983156,-0.7421171678433174,0.0,-0.01,0.0
170.329,591,map,base_link,0.009089151673209894,0.011095782280179378,2.982,-0.0015501574146993475,-7.256043043912015e-05,-0.6696063018943642,-0.7427146102038973,0.0,-0.01,0.0
170.579,592,map,base_link,0.009089151673209894,0.011095782280179378,2.982,-0.001512862918672045,3.3299826976397624e-06,-0.6689752710807821,-0.7432831209687832,0.0,-0.02,0.0
170.829,593,map,base_link,0.009089151673209894,0.011095782280179378,2.982,-0.0014643526279263866,-5.96340858574007e-05,-0.6683964129717576,-0.7438037962000763,0.0,-0.02,0.0
171.079,594,map,base_link,0.009089151673209894,0.011095782280179378,2.982,-0.001216727308326886,-3.097823124511665e-05,-0.6678587821129247,-0.7442870184073126,0.0,-0.02,0.0
171.329,595,map,base_link,5.680231840443639e-10,0.011095782514697339,2.982,-0.0010832555629774246,-7.320876643074696e-05,-0.6673508387738822,-0.7447426932744339,0.0,-0.02,0.0
171.579,596,map,base_link,5.680231840443639e-10,0.011095782514697339,2.982,-0.0010393852886865355,-0.0002037418936383103,-0.6668809354038615,-0.7451635365222409,0.0,-0.02,0.0
171.829,597,map,base_link,5.680231840443639e-10,0.011095782514697339,2.982,-0.0009969906385259159,-0.00028083256277696686,-0.6664637506588921,-0.7455367168694111,0.0,-0.02,0.0
172.079,598,map,base_link,5.680231840443639e-10,0.011095782514697339,2.982,-0.0008363560837832541,-0.00030849024498178927,-0.6660591175161119,-0.7458984229209283,0.0,-0.02,0.0
172.329,599,map,base_link,5.680231840443639e-10,0.011095782514697339,2.982,-0.0006250698761664976,-0.0005357752178707752,-0.6657257468814388,-0.7461960547816614,0.0,-0.02,0.0
172.579,600,map,base_link,5.680231840443639e-10,0.011095782514697339,2.982,-0.0006132260215426289,-0.0006080394657145835,-0.6653864445786584,-0.7464985824586851,0.0,-0.02,0.0
172.829,601,map,base_link,5.680231840443639e-10,0.011095782514697339,2.982,-0.000554540640794169,-0.0006099151215077385,-0.6650651597548849,-0.7467848778386127,0.0,-0.01,0.0
173.079,602,map,base_link,5.680231840443639e-10,0.011095782514697339,2.982,-0.0006328268419492897,-0.0006264560991529652,-0.6647457131631599,-0.7470691694308809,0.0,-0.01,0.0
173.329,603,map,base_link,5.680231840443639e-10,0.011095782514697339,2.982,-0.000779461525755462,-0.0006441373570316458,-0.6644737647036958,-0.7473109082218007,0.0,-0.01,0.0
173.579,604,map,base_link,5.680231840443639e-10,0.011095782514697339,2.982,-0.0008455973899401537,-0.0005946718947987858,-0.6642433887630611,-0.7475156532240357,0.01,-0.01,0.0
173.829,605,map,base_link,5.680231840443639e-10,0.011095782514697339,2.982,-0.0008608324859585291,-0.00044498701743052457,-0.6640070792967728,-0.7477256579774125,0.01,-0.01,0.0
174.079,606,map,base_link,5.680231840443639e-10,0.011095782514697339,2.982,-0.0008615328033310162,-0.0003010987557060219,-0.6638171901759943,-0.7478943141431256,0.01,-0.01,0.0
174.329,607,map,base_link,5.680231840443639e-10,0.011095782514697339,2.982,-0.0007977138872343507,-0.0002540165150389417,-0.6636243624368475,-0.7480655083002101,0.01,-0.01,0.0
174.579,608,map,base_link,5.680231840443639e-10,0.011095782514697339,2.982,-0.0009169165109638519,-0.0002174924934216244,-0.6633842608348558,-0.7482783134888509,0.01,-0.01,0.0
174.829,609,map,base_link,5.680231840443639e-10,0.011095782514697339,2.982,-0.0008357041900249349,-0.0001163655219351811,-0.6632725499021889,-0.7483774532973455,0.01,-0.01,0.0
175.08,610,map,base_link,5.680231840443639e-10,0.011095782514697339,2.981,-0.0010682583828830491,-0.00016255655122071177,-0.66315137419255,-0.7484845270985419,0.01,-0.01,0.0
175.33,611,map,base_link,5.680231840443639e-10,0.011095782514697339,2.98,-0.0009927937693470794,-0.00033322597996505033,-0.6629729481900686,-0.748642620540099,0.01,-0.01,0.0
175.58,612,map,base_link,1.915818614861564e-10,7.35991267930558e-11,2.978,-0.000981551203993034,-0.00037483021673403647,-0.6627934348122235,-0.7488015483620191,0.01,-0.01,0.0
175.83,613,map,base_link,1.915818614861564e-10,7.35991267930558e-11,2.977,-0.001077192361320061,-0.0004446954090690776,-0.6627385321843191,-0.7488499715302018,0.01,-0.01,0.0
176.08,614,map,base_link,1.915818614861564e-10,7.35991267930558e-11,2.976,-0.0011029525455537367,-0.0005844860461665154,-0.662638329486361,-0.7489385062655471,0.01,-0.01,0.0
176.33,615,map,base_link,-0.009089152190646654,-2.581730385031733e-10,2.975,-0.0009988391784716178,-0.0005617551104446825,-0.6625391110253049,-0.7490264435340651,0.01,-0.01,0.0
176.58,616,map,base_link,-0.009089152190646654,-2.581730385031733e-10,2.975,-0.0009190603397229484,-0.0004121764887871026,-0.6624492975279618,-0.749106076362583,0.01,-0.01,0.0
176.83,617,map,base_link,-0.009089152190646654,-2.581730385031733e-10,2.975,-0.0009182206978233258,-0.0003192588432282747,-0.6623239129330922,-0.749216984125119,0.01,-0.01,0.0
177.08,618,map,base_link,-0.009089152190646654,-2.581730385031733e-10,2.974,-0.0008987733535339577,-0.00024580451998318083,-0.662281597616819,-0.7492544409242502,0.01,-0.01,0.0
177.33,619,map,base_link,-0.009089152190646654,-2.581730385031733e-10,2.974,-0.0008839367296346918,-0.00016469375741643528,-0.6622126341910161,-0.7493154333454104,0.01,-0.01,0.0
177.58,620,map,base_link,-0.009089151811557006,0.011095783011065619,2.974,-0.0009011230908989404,-0.00015210424509627798,-0.6621841186257156,-0.7493406153955343,0.01,-0.01,0.0
177.83,621,map,base_link,-0.009089151811557006,0.011095783011065619,2.973,-0.0008880217287062063,-0.0001783860560693204,-0.6621923166047714,-0.7493333806960895,0.01,-0.01,0.0
178.08,622,map,base_link,-0.009089151811557006,0.011095783011065619,2.973,-0.0009032099950263111,-0.00021916020267603663,-0.6621381879982285,-0.749381182159609,0.01,-0.01,0.0
178.334,623,map,base_link,-0.009089151811557006,0.011095783011065619,2.973,-0.0008901067584195494,-0.00021260041951413238,-0.6621440383503902,-0.7493760304333581,0.01,-0.01,0.0
178.58,624,map,base_link,-0.009089151811557006,0.011095783011065619,2.974,-0.0009093571798571644,-0.0002212003168507355,-0.6621364734421759,-0.749382689069809,0.01,-0.01,0.0
178.83,625,map,base_link,-0.009089151811557006,0.011095783011065619,2.974,-0.0008013149726655835,-0.00017479189678991884,-0.6621642527438242,-0.7493582786159902,0.01,-0.01,0.0
179.08,626,map,base_link,-0.009089151811557006,0.011095783011065619,2.974,-0.0007778051464556184,-0.00014517430034827964,-0.6621685929139856,-0.7493544745325064,0.01,-0.01,0.0
179.33,627,map,base_link,-0.009089151811557006,0.011095783011065619,2.974,-0.0007413131992270457,-0.00013505749269650784,-0.6621193966718477,-0.7493979828936842,0.01,-0.01,0.0
179.58,628,map,base_link,-0.009089151811557006,0.011095783011065619,2.974,-0.0007833945239940782,-8.499848333388804e-05,-0.6620838037140112,-0.7494293935574345,0.01,-0.01,0.0
179.83,629,map,base_link,-0.009089151886431557,0.011095782858499437,2.965,-0.0008498964574026761,-0.00010371319147146133,-0.6619951636265992,-0.7495076185433858,0.0,-0.01,0.1
180.08,630,map,base_link,-0.009089151780793614,0.01109578300688474,2.907,-0.000903647850335389,-0.00013388843206623983,-0.6619347242965186,-0.7495609289877255,0.0,-0.01,0.33
180.33,631,map,base_link,-0.009089151894483116,0.011095782834866785,2.795,-0.0009201949394485373,-0.0001704986472588795,-0.6619568070229922,-0.7495413996620933,0.0,-0.01,0.46
180.58,632,map,base_link,-0.009089151758082004,0.01109578221957852,2.663,-0.000945210567990859,-0.00017893229407747347,-0.661957654573884,-0.7495406180529904,0.0,-0.01,0.51
180.83,633,map,base_link,-0.009089151598282719,-5.95200555508768e-10,2.529,-0.0008707759108815151,-0.00033526844650486087,-0.6619685295354183,-0.7495310502234699,0.0,-0.01,0.51
181.081,634,map,base_link,-0.00908915138435884,-2.2978263736206372e-10,2.398,-0.0008466655953523081,-0.00034104560820202834,-0.6619644822428946,-0.7495346496955022,0.0,-0.01,0.5
181.331,635,map,base_link,-0.009089150695720916,1.5006240694503958e-10,2.273,-0.000839782548745883,-0.0003324307764813573,-0.6619698422253851,-0.7495299275140042,0.0,-0.01,0.49
181.581,636,map,base_link,-0.009089150406922597,2.8829949538788924e-10,2.151,-0.0008135801403210459,-0.00035595845644216236,-0.6620188859634797,-0.7494866283054061,0.0,-0.01,0.49
181.831,637,map,base_link,-0.00908915059548665,3.434622586340197e-10,2.03,-0.0009423576457418308,-0.00028129341478199115,-0.6620090525641288,-0.7494951948873501,0.0,-0.01,0.49
182.081,638,map,base_link,-0.009089150459085538,-2.718262281931061e-10,1.908,-0.0009406238052559766,-0.0002114699727385046,-0.6619969175211865,-0.7495059384019283,0.0,-0.01,0.49
182.331,639,map,base_link,-0.009089150247809763,-3.5480229865214596e-10,1.785,-0.0009191295488656766,-0.00015032207033915091,-0.6619477662560549,-0.7495493895353172,0.0,-0.01,0.49
182.581,640,map,base_link,-0.00908915003653421,-4.3777836911118584e-10,1.661,-0.0008876306348604175,-0.00016375474388974806,-0.6619275354958846,-0.7495672905407387,0.0,-0.01,0.49
182.831,641,map,base_link,-0.009089149822610332,-7.236067300908644e-11,1.536,-0.0008333073710545977,-0.00016396114374456284,-0.6619285572241377,-0.749566450587765,0.0,-0.01,0.49
183.081,642,map,base_link,-0.009089149611334724,-1.5533674346812631e-10,1.411,-0.0008344665769080571,-0.00024712431986412606,-0.6619738622706438,-0.7495264159891826,0.0,-0.01,0.49
183.331,643,map,base_link,-0.009089149397410956,2.1008095263397308e-10,1.286,-0.0008301131383959681,-0.0002779197016631858,-0.6620262759549194,-0.7494801155588303,0.0,-0.01,0.49
183.581,644,map,base_link,-0.009089149186135292,1.271048821749332e-10,1.161,-0.000890125548037821,-0.00026742517180070225,-0.6620493035111983,-0.7494597093110633,0.0,-0.01,0.49
183.831,645,map,base_link,-0.009089149303052435,0.011095779597328659,1.036,-0.0010204739889480157,-0.00021769558427836924,-0.6621032263139899,-0.749411922073619,0.0,-0.01,0.49
184.081,646,map,base_link,-0.009089149014254061,0.011095779355819624,0.91,-0.0011101556102797259,-0.0001775265466858426,-0.6621436408576609,-0.7493760971038556,0.0,-0.01,0.49
184.331,647,map,base_link,-0.009089148955375714,0.011095778519317756,0.785,-0.0010733967622880887,-0.00016933886893709426,-0.6621996339639277,-0.7493266737023168,0.01,-0.01,0.49
184.581,648,map,base_link,-0.009089148741451863,0.011095778884735508,0.659,-0.001056596078148145,-0.00010616993291618759,-0.6622359533192301,-0.7492946112605129,0.01,-0.01,0.49
184.831,649,map,base_link,-0.009089148530176255,0.011095778422013036,0.533,-0.0010061226650252613,-9.557422148609359e-05,-0.6622763334303055,-0.7492589917784517,0.01,-0.01,0.49
185.081,650,map,base_link,-0.00908914839377517,0.011095777806724605,0.407,-0.0010042845249194734,-0.00014010617993106118,-0.662281359920657,-0.7492545442534843,0.0,-0.01,0.49
185.331,651,map,base_link,-0.00908914810497681,0.011095778324708316,0.281,-0.0009613139627234225,-0.0001892849553351463,-0.6622969718376043,-0.7492407898275497,0.0,-0.01,0.49
185.581,652,map,base_link,-0.009089147968575712,0.011095777709419892,0.156,-0.0008569368727792947,-0.00022640475201032693,-0.6622958831621798,-0.7492418685221165,0.0,-0.02,0.49
185.831,653,map,base_link,-0.009089148012686976,0.011095777172926733,0.078,-0.000843540350769163,-0.0002651338202699627,-0.662287849923173,-0.7492489719631749,0.01,-0.01,0.0
186.081,654,map,base_link,-0.00908914778806335,0.011095778010370972,0.103,-0.0008440843361993596,-0.0002667031503230537,-0.6622913772720036,-0.7492458528295074,0.01,-0.01,0.0
186.331,655,map,base_link,-0.009089148115676616,0.011095777472935477,0.12,-0.0008421597113969162,-0.0002670515535042026,-0.6622969202547939,-0.7492409551482775,0.01,-0.01,0.0
186.581,656,map,base_link,-0.009089148115676616,0.011095777472935477,0.126,-0.000838816943312463,-0.000266003972457183,-0.6622989692772545,-0.7492391480177131,0.01,-0.01,0.0
186.832,657,map,base_link,-0.009089148115676616,0.011095777472935477,0.126,-0.0008371588327360508,-0.00026389674013836906,-0.6623013565688693,-0.7492370403354568,0.01,-0.01,0.0
187.082,658,map,base_link,-0.009089148115676616,0.011095777472935477,0.123,-0.0008369556643268149,-0.000261434135018852,-0.6623053377964802,-0.7492335221302495,0.01,-0.01,0.0
187.332,659,map,base_link,-0.00908914779071153,0.011095777561977115,0.119,-0.0008398686034968002,-0.00025840019220469025,-0.6623103241823887,-0.7492291120421636,0.01,-0.01,0.0
187.582,660,map,base_link,-0.00908914779071153,0.011095777561977115,0.115,-0.0008389193083032732,-0.0002553997987554561,-0.6623117963622469,-0.7492278127410582,0.01,-0.01,0.0
187.832,661,map,base_link,-0.00908914779071153,0.011095777561977115,0.11,-0.0008400897591680185,-0.00025112498975679565,-0.6623138134331692,-0.7492260297941132,0.01,-0.01,0.0
188.082,662,map,base_link,-0.00908914778806335,0.011095778010370972,0.101,-0.0008457700471910704,-0.00024973207502579164,-0.6622997024423619,-0.7492384977106266,0.01,-0.01,0.0
188.33,663,map,base_link,-0.009089147937812434,0.011095777325492696,0.089,-0.0008533151573599987,-0.0002515078743734239,-0.6622681951382131,-0.7492663386976657,0.01,-0.01,0.0
188.582,664,map,base_link,-0.009089148012686976,0.011095777172926733,0.079,-0.000862392836549321,-0.00025575799672450644,-0.662229495129043,-0.7493005315943498,0.01,-0.01,0.0
188.832,665,map,base_link,-0.009089148012686976,0.011095777172926733,0.07,-0.0008687235774976963,-0.00025565309799787544,-0.6621939830026369,-0.7493319083263054,0.01,-0.01,0.0
189.082,666,map,base_link,2.1874778204089562e-10,0.01109577775281391,0.063,-0.0008764408126878195,-0.00025640411495558987,-0.662156710373638,-0.7493648357212888,0.01,-0.01,0.0
189.332,667,map,base_link,6.635052229864158e-11,0.011095776999288121,0.056,-0.0008832018679685522,-0.0002586548476351215,-0.6621207502993612,-0.7493966006562487,0.01,-0.01,0.0
189.582,668,map,base_link,6.635052229864158e-11,0.011095776999288121,0.05,-0.0008880671850150031,-0.0002598952084553812,-0.6620838174945414,-0.749429224412159,0.01,-0.01,0.0
189.832,669,map,base_link,6.899869911536349e-11,0.011095777447681976,0.045,-0.0008926060447575717,-0.0002621651470994801,-0.6620469691518127,-0.749461770313058,0.01,-0.01,0.0
190.082,670,map,base_link,6.899869911536349e-11,0.011095777447681976,0.041,-0.0008974760535451033,-0.0002619380930308193,-0.6620125550436842,-0.7494921633277439,0.01,-0.01,0.0
190.332,671,map,base_link,7.164687506472367e-11,0.01109577751632949,0.037,-0.0009033457053018318,-0.00026318557691591297,-0.6619779127568711,-0.7495227533050248,0.01,-0.01,0.0
190.582,672,map,base_link,7.164687506472367e-11,0.01109577751632949,0.034,-0.0009072346675288342,-0.00026655310491238,-0.6619431786333947,-0.7495534231363487,0.01,-0.01,0.0
190.832,673,map,base_link,7.164687506472367e-11,0.01109577751632949,0.031,-0.0009105271517487241,-0.0002689903013739764,-0.6619121936843586,-0.7495807804609745,0.01,-0.01,0.0
191.082,674,map,base_link,3.966119654918998e-10,0.011095777605371133,0.028,-0.0009155807479841467,-0.0002701375029453234,-0.6618794601708486,-0.7496096777267284,0.01,-0.01,0.0
191.332,675,map,base_link,3.966119654918998e-10,0.011095777605371133,0.025,-0.0009172660677542329,-0.000273399187316712,-0.6618477267869618,-0.749637692770832,0.01,-0.01,0.0
191.582,676,map,base_link,3.966119654918998e-10,0.011095777605371133,0.023,-0.0009201543388149875,-0.00027554549714540425,-0.6618158140548897,-0.7496658626731882,0.01,-0.01,0.0
191.832,677,map,base_link,3.966119654918998e-10,0.011095777605371133,0.021,-0.0009211289572130438,-0.000275922414184827,-0.6617867551281754,-0.7496915139743718,0.01,-0.01,0.0
192.082,678,map,base_link,3.217374248964955e-10,0.011095777452805166,0.019,-0.0009271736080287597,-0.0002781837655290184,-0.6617571303955531,-0.7497176557435046,0.01,-0.01,0.0
192.332,679,map,base_link,3.217374248964955e-10,0.011095777452805166,0.018,-0.0009341397406138105,-0.0002781386536445151,-0.661728516846702,-0.7497429026097535,0.01,-0.01,0.0
192.582,680,map,base_link,3.217374248964955e-10,0.011095777452805166,0.016,-0.0009356465525800517,-0.0002767047097077002,-0.6616995591690883,-0.749768458522674,0.01,-0.01,0.0
192.833,681,map,base_link,3.217374248964955e-10,0.011095777452805166,0.015,-0.0009366321134864156,-0.00027661277579800025,-0.6616727673597631,-0.7497921012788339,0.01,-0.01,0.0
193.083,682,map,base_link,3.217374248964955e-10,0.011095777452805166,0.013,-0.0009425625830994569,-0.00027428353566549027,-0.6616460318894399,-0.7498156872387222,0.01,-0.01,0.0
193.333,683,map,base_link,3.217374248964955e-10,0.011095777452805166,0.012,-0.0009479820651147518,-0.000277104781752881,-0.6616201758105607,-0.7498384942794994,0.01,-0.01,0.0
193.583,684,map,base_link,3.217374248964955e-10,0.011095777452805166,0.011,-0.0009500365073643602,-0.0002777642006819189,-0.6615922330848368,-0.7498631457802836,0.01,-0.01,0.0
193.833,685,map,base_link,3.217374248964955e-10,0.011095777452805166,0.01,-0.0009526861069188244,-0.00027665982461714785,-0.661567173256602,-0.7498852519671207,0.01,-0.01,0.0
194.083,686,map,base_link,3.243855999784939e-10,0.011095777521452679,0.009,-0.0009581350451934607,-0.0002787621232942217,-0.6615432706546781,-0.7499063310310328,0.01,-0.01,0.0
194.333,687,map,base_link,3.243855999784939e-10,0.011095777521452679,0.009,-0.0009607399320284173,-0.00027926466792044523,-0.6615202340435524,-0.7499266490404192,0.01,-0.01,0.0
194.583,688,map,base_link,3.243855999784939e-10,0.011095777521452679,0.008,-0.0009580306528044859,-0.0002798180459893938,-0.6614970232873774,-0.7499471261769514,0.01,-0.01,0.0
194.833,689,map,base_link,3.243855999784939e-10,0.011095777521452679,0.007,-0.000961171921384055,-0.0002811113419274626,-0.6614736777440423,-0.7499677131561875,0.01,-0.01,0.0
195.083,690,map,base_link,3.243855999784939e-10,0.011095777521452679,0.007,-0.0009656477305035292,-0.00027986588417464384,-0.6614488967824292,-0.7499895640239634,0.01,-0.01,0.0
195.333,691,map,base_link,3.243855999784939e-10,0.011095777521452679,0.006,-0.0009683471007683982,-0.00028005978707275656,-0.6614269027271031,-0.7500089574260026,0.01,-0.01,0.0
195.583,692,map,base_link,3.243855999784939e-10,0.011095777521452679,0.006,-0.0009671580228001375,-0.0002800633167471175,-0.6614028962497323,-0.7500301293963886,0.01,-0.01,0.0
195.833,693,map,base_link,3.243855999784939e-10,0.011095777521452679,0.005,-0.0009647273823406167,-0.00027991306545129517,-0.6613830970982028,-0.7500475917050482,0.01,-0.01,0.0
196.083,694,map,base_link,3.243855999784939e-10,0.011095777521452679,0.005,-0.0009642527869413774,-0.0002796020656411157,-0.661362671764798,-0.7500656027544365,0.01,-0.01,0.0
196.333,695,map,base_link,3.243855999784939e-10,0.011095777521452679,0.005,-0.0009680041642217217,-0.00027858836318614676,-0.6613416764739268,-0.7500841101603991,0.01,-0.01,0.0
196.583,696,map,base_link,3.243855999784939e-10,0.011095777521452679,0.004,-0.0009676769260051062,-0.00027879730859183005,-0.6613209089917554,-0.7501024204758615,0.01,-0.01,0.0
196.833,697,map,base_link,3.243855999784939e-10,0.011095777521452679,0.004,-0.0009685280690002313,-0.00027846545959364324,-0.6613002866371381,-0.7501206005063497,0.01,-0.01,0.0
197.083,698,map,base_link,3.243855999784939e-10,0.011095777521452679,0.004,-0.000968371624081966,-0.0002792705775387214,-0.6612818316979286,-0.7501368697315007,0.01,-0.01,0.0
197.333,699,map,base_link,3.243855999784939e-10,0.011095777521452679,0.004,-0.0009703989263971722,-0.0002800170123330511,-0.6612633653258739,-0.7501531454271827,0.01,-0.01,0.0
197.583,700,map,base_link,3.243855999784939e-10,0.011095777521452679,0.004,-0.0009688172278807716,-0.0002808682127611601,-0.6612427241040568,-0.750171341978399,0.01,-0.01,0.0
197.833,701,map,base_link,3.243855999784939e-10,0.011095777521452679,0.004,-0.0009697527810552009,-0.0002791386685180235,-0.6612240735761791,-0.7501877806152744,0.01,-0.01,0.0
198.083,702,map,base_link,3.243855999784939e-10,0.011095777521452679,0.004,-0.0009711408673463694,-0.00028025756999983944,-0.6612032749280138,-0.7502061100561495,0.01,-0.01,0.0
198.333,703,map,base_link,3.243855999784939e-10,0.011095777521452679,0.004,-0.0009742828813328916,-0.00028175455291575767,-0.661183655087873,-0.7502233971503951,0.01,-0.01,0.0
198.583,704,map,base_link,3.243855999784939e-10,0.011095777521452679,0.004,-0.0009776699909836031,-0.00028269539316167874,-0.6611642195393205,-0.7502405207969407,0.01,-0.01,0.0
198.834,705,map,base_link,3.243855999784939e-10,0.011095777521452679,0.004,-0.0009798097337097506,-0.00028177494817481865,-0.6611473277714724,-0.7502554042167278,0.01,-0.01,0.0
199.084,706,map,base_link,3.243855999784939e-10,0.011095777521452679,0.004,-0.0009802843597268463,-0.000280404408915763,-0.6611308103223358,-0.7502699594535778,0.01,-0.01,0.0
199.334,707,map,base_link,3.243855999784939e-10,0.011095777521452679,0.004,-0.0009805938573570659,-0.0002826721318591364,-0.6611145311407332,-0.7502843029457044,0.01,-0.01,0.0
199.584,708,map,base_link,3.243855999784939e-10,0.011095777521452679,0.004,-0.000978769181055402,-0.00028095948516755436,-0.6610991423103493,-0.7502978655901791,0.01,-0.01,0.0
199.834,709,map,base_link,3.243855999784939e-10,0.011095777521452679,0.004,-0.0009796280171706037,-0.00027933203040840537,-0.6610829371256048,-0.750312143406961,0.01,-0.01,0.0
200.084,710,map,base_link,3.243855999784939e-10,0.011095777521452679,0.004,-0.0009833876734781193,-0.00027753497769689606,-0.6610662678712652,-0.7503268257271472,0.01,-0.01,0.0
200.334,711,map,base_link,3.243855999784939e-10,0.011095777521452679,0.004,-0.0009857511077394163,-0.00027856121676868734,-0.6610472208887269,-0.7503436029271473,0.01,-0.01,0.0
200.584,712,map,base_link,3.243855999784939e-10,0.011095777521452679,0.004,-0.000984071805022376,-0.00028205533594187916,-0.6610289156024062,-0.750359730252748,0.01,-0.01,0.0
200.834,713,map,base_link,3.243855999784939e-10,0.011095777521452679,0.004,-0.0009860161462882655,-0.0002830129823542407,-0.6610127246530417,-0.7503739904358179,0.01,-0.01,0.0
