Time,header.seq,header.frame_id,child_frame_id,pose.x,pose.y,pose.z,orientation.x,orientation.y,orientation.z,orientation.w,linear.x,linear.y,linear.z,angular.x,angular.y,angular.z
114.817,368,map,base_link,9.862760608214671e-11,-3.939091830496011e-10,0.785,-0.0015721543949711455,-0.002151182413204934,-0.9951137495643637,-0.09869917007116374,0.0,0.0,-1.15
115.067,369,map,base_link,3.723011343659266e-10,1.5145362741719737e-10,1.115,-0.0012271248406885878,-0.0019315070325534478,-0.9940646677565282,-0.10876672176411023,0.0,0.0,-1.36
115.317,370,map,base_link,-3.399808212734001e-10,-2.9369118248467885e-10,1.49,-0.001034799756004795,-0.0016398826735170486,-0.9934336500361878,-0.11439328192712817,0.0,0.01,-1.47
115.567,371,map,base_link,-8.260048200980918e-11,-4.158349220517721e-10,1.855,-0.0010182969564650486,-0.0014574608793906873,-0.993085717631526,-0.11737800609726817,0.0,0.01,-1.37
115.817,372,map,base_link,2.0601231831562927e-10,-9.336731388032149e-11,2.168,-0.0010441087045318725,-0.0013819372286309867,-0.9929202823333585,-0.1187700004948759,0.0,0.01,-1.17
116.067,373,map,base_link,-2.7671753777269714e-11,-2.5916002677206507e-10,2.419,-0.0010608015797701116,-0.001270464376839859,-0.9928560656052767,-0.11930672072890869,0.0,0.01,-0.94
116.317,374,map,base_link,2.472382298890352e-10,1.0273337736066424e-10,2.618,-0.001104571118322222,-0.0011964596432567764,-0.9928412897090197,-0.11942998725570125,0.0,0.01,-0.81
116.567,375,map,base_link,1.984761244244737e-10,-6.642242311727387e-11,2.823,-0.0011365795756676502,-0.001204763460844807,-0.9939924844662886,-0.10943581477928738,0.0,0.01,-0.96
116.817,376,map,base_link,-1.2766898649374525e-10,-2.305338142605251e-10,3.098,-0.0011201430341232523,-0.0011392141518865063,-0.9934310797624815,-0.1144208776082799,0.0,0.01,-1.24
117.067,377,map,base_link,1.2971157481445061e-10,2.7068791652595792e-11,3.457,-0.0011436347243828017,-0.001244233505467483,-0.9931809747694452,-0.116570559484869,0.0,0.01,-1.53
117.318,378,map,base_link,4.1708791975736403e-10,1.532596272113551e-10,3.895,-0.0012620768644158295,-0.0014103285036188762,-0.9930648906105225,-0.11755229122484667,0.0,0.01,-1.81
117.568,379,map,base_link,-3.7395242458160283e-10,-3.296296569033075e-10,4.402,-0.001328470134520085,-0.0016797624703679826,-0.9930162364946213,-0.11795833002888345,0.0,0.01,-2.07
117.818,380,map,base_link,4.6485038041055304e-12,-2.1651125337029953e-11,4.958,-0.004450988363447606,-0.042963469652473836,-0.9873276647245506,-0.1527036720173242,0.02,0.08,-2.19
118.068,381,map,base_link,0.009089155543726024,0.055478933883601034,5.506,0.0010673830118001226,-0.11611481184341763,-0.9625691077147198,-0.2449018661369532,0.1,0.44,-2.07
118.318,382,map,base_link,0.04544578478818018,0.255203117410042,6.0,0.019592431151282418,-0.1489390793267398,-0.9241011950374279,-0.3513833641783329,0.25,1.08,-1.85
118.568,383,map,base_link,0.13633736859312195,0.6435557302848771,6.427,0.022674833326428556,-0.09262370108844623,-0.8787908940680719,-0.4675823632616354,0.38,1.7,-1.62
118.818,384,map,base_link,0.2544964520808448,1.1539620648353024,6.795,0.0036636090127637596,-0.021197190001547905,-0.8124402460579386,-0.5826474952236183,0.45,1.98,-1.4
119.068,385,map,base_link,0.37265556037759495,1.6865600239864378,7.11,-0.01696079694718436,0.02019150702986978,-0.7253039877916588,-0.6879235129753134,0.46,1.97,-1.19
119.318,386,map,base_link,0.4817255236893345,2.1525832720061246,7.375,-0.027882031975461942,0.03436484189319439,-0.6553631370562957,-0.7540164510952703,0.43,1.79,-0.98
119.568,387,map,base_link,0.5817063349604497,2.5298402137385407,7.585,-0.029352982378149425,0.03410687948394442,-0.6170663047917608,-0.7856235095056773,0.38,1.55,-0.74
119.818,388,map,base_link,0.663508827228223,2.8294266177098355,7.738,-0.025160601903146656,0.028207547931764113,-0.5973404509172602,-0.801096538532974,0.33,1.33,-0.51
120.068,389,map,base_link,0.727132994538513,3.084629846551851,7.837,-0.019057656428197012,0.021499013480269048,-0.5878803620160901,-0.8084375536222146,0.28,1.14,-0.31
120.322,390,map,base_link,0.7816679935928055,3.2954499011161325,7.895,-0.013550978641011442,0.015881650730569553,-0.583951114572677,-0.8115203262625473,0.24,0.99,-0.17
120.569,391,map,base_link,0.8362029910885393,3.4840783590114865,7.927,-0.009603008977056461,0.011967597685683735,-0.5829986228432569,-0.8123282369751074,0.21,0.87,-0.09
120.819,392,map,base_link,0.8725596629848518,3.6616110238642565,7.946,-0.007366605197856964,0.009570611080868112,-0.5836382447108432,-0.8119239717130192,0.18,0.78,-0.04
121.069,393,map,base_link,0.9180054966405109,3.8169521004410374,7.959,-0.006603502316407426,0.008627246387614395,-0.585233142222087,-0.8107922875939231,0.16,0.71,-0.01
121.319,394,map,base_link,0.9543621676732519,3.9722931787084015,7.969,-0.006853710688258731,0.008636246699200047,-0.587304438363898,-0.8092910098171229,0.14,0.65,0.0
121.569,395,map,base_link,0.9816296762830192,4.1165384665931875,7.977,-0.0074816563443740065,0.00914714225464016,-0.5895696848499695,-0.8076310675753042,0.12,0.59,0.0
121.819,396,map,base_link,1.0088971823713706,4.249687963592994,7.983,-0.008005869325703208,0.009814516361587087,-0.5918862852009729,-0.8059219606859713,0.1,0.52,0.0
122.069,397,map,base_link,1.0361646871065586,4.360645872130553,7.987,-0.008465561928618874,0.010187427781761151,-0.5941476776184142,-0.804246907210136,0.08,0.46,0.01
122.319,398,map,base_link,1.0634321927053634,4.471603787422544,7.99,-0.008803396517238089,0.010343478064386099,-0.5963282156925296,-0.802625798140239,0.07,0.39,0.01
122.569,399,map,base_link,1.0816105328062484,4.560370114058415,7.991,-0.008735119689262674,0.010012353755744602,-0.5983830549614504,-0.8010999750288883,0.05,0.32,0.01
122.819,400,map,base_link,1.0997888695085174,4.638040649864371,7.991,-0.00837140165512461,0.009536590028688082,-0.6003032793476506,-0.7996717738481269,0.04,0.26,0.01
123.069,401,map,base_link,1.108878044407986,4.704615395538471,7.99,-0.007704683939936684,0.008818493059494196,-0.6020718071066995,-0.7983560678749918,0.03,0.2,0.01
123.32,402,map,base_link,1.1179672114018087,4.7489985522396365,7.989,-0.007012177493066384,0.007961018108667894,-0.6038028947123358,-0.7970630564105221,0.02,0.15,0.01
123.57,403,map,base_link,1.127056380936129,4.793381715363891,7.987,-0.006205683968410158,0.006993130142919605,-0.6054426476013123,-0.7958340191791262,0.01,0.11,0.01
123.82,404,map,base_link,1.136145548826235,4.826669087168356,7.985,-0.0056230301445934746,0.006067827130506195,-0.6069054420008838,-0.7947309906349562,0.0,0.07,0.01
124.07,405,map,base_link,1.1361455514822576,4.848860669282431,7.984,-0.005100199507830416,0.005255423240612868,-0.608203909088542,-0.793747046269124,0.0,0.04,0.01
124.32,406,map,base_link,1.1452347179607156,4.871052251190241,7.982,-0.004531942345113922,0.0042670575039124555,-0.6095611531618075,-0.7927146108625011,0.0,0.01,0.01
124.57,407,map,base_link,1.1452347195274077,4.882148042668563,7.981,-0.003974748324934133,0.003255885245464776,-0.6107717978814986,-0.7917900046727185,0.0,0.0,0.01
124.82,408,map,base_link,1.1452347187983989,4.893243825244499,7.979,-0.003636226344086795,0.0026657234478455636,-0.6119132586069895,-0.7909120277992043,-0.01,-0.02,0.0
125.07,409,map,base_link,1.1452347187983989,4.893243825244499,7.977,-0.0032409921257834018,0.0020218515930043282,-0.6129449493371715,-0.7901163820401579,-0.01,-0.03,0.0
125.321,410,map,base_link,1.1452347215319416,4.915435407579789,7.976,-0.0028722968201841926,0.0014872566932822987,-0.6139282493713292,-0.7893552068633993,-0.01,-0.04,0.0
125.57,411,map,base_link,1.1452347215319416,4.915435407579789,7.974,-0.0024030100330565346,0.0010592996770893278,-0.6148326895136788,-0.7886531983909983,0.0,-0.04,0.0
125.82,412,map,base_link,1.1452347215319416,4.915435407579789,7.973,-0.002248513153070658,0.0008308735585305282,-0.6156789095109721,-0.7879934861539848,0.0,-0.05,0.0
126.07,413,map,base_link,1.1452347215319416,4.915435407579789,7.972,-0.0020702160188906383,0.0005324015873444254,-0.6164140507179345,-0.7874192967102677,0.0,-0.05,0.0
126.321,414,map,base_link,1.1452347215319416,4.915435407579789,7.97,-0.0018228769341462469,0.00035548229854133684,-0.6171639893715362,-0.7868323588764182,0.0,-0.05,0.0
126.571,415,map,base_link,1.145234720268486,4.915435400204007,7.969,-0.0018378776704778572,0.00039091683995758487,-0.617838811176461,-0.786302532613084,0.0,-0.05,0.0
126.821,416,map,base_link,1.1452347218351777,4.9265311913025815,7.969,-0.001979558141573535,0.0004529701540829212,-0.6184996035386275,-0.7857824868181806,0.0,-0.05,0.0
127.071,417,map,base_link,1.1452347218351777,4.9265311913025815,7.968,-0.0019549270509336687,0.00039543221192338886,-0.6190258905914384,-0.7853680466323214,0.0,-0.05,0.0
127.321,418,map,base_link,1.1452347218351777,4.9265311913025815,7.968,-0.0017774818244636029,0.00025003933226993896,-0.6195455896406454,-0.7849586233652835,0.0,-0.05,0.0
127.571,419,map,base_link,1.1452347218351777,4.9265311913025815,7.967,-0.001654379758406275,0.00010297315852481982,-0.6200103025439406,-0.7845919176001719,0.0,-0.05,0.0
127.821,420,map,base_link,1.1361455580902624,4.926531192489556,7.966,0.03309959069417881,0.025157759087442007,-0.6487027732961694,-0.7599053994882748,-0.07,-0.03,0.0
128.071,421,map,base_link,1.0725214075551426,4.926531199880882,7.965,0.09720559899427524,0.057750296085080075,-0.7139850419342512,-0.6909712980438445,-0.45,0.05,0.0
128.321,422,map,base_link,0.8543814643640295,4.9709143868947345,7.961,0.12769550539022764,0.05792434475264231,-0.7829883189570076,-0.6060263365275396,-1.12,0.21,0.01
128.571,423,map,base_link,0.445369064660488,5.059680737591954,7.958,0.07563145919182272,0.0250940078001436,-0.8561496315070254,-0.5105467477356275,-1.72,0.35,0.0
128.821,424,map,base_link,-0.08180248288407466,5.18173445060064,7.959,0.007626509592779305,0.00312817290765944,-0.9177597510761937,-0.3970504882130913,-1.96,0.4,-0.01
129.071,425,map,base_link,-0.6089740441021307,5.2926923489879325,7.964,-0.032886927400609486,-0.00225201807468005,-0.9618658515351863,-0.27152801341892707,-1.91,0.38,-0.02
129.321,426,map,base_link,-1.0725214629845414,5.3925544257877736,7.969,-0.046475763829566474,9.494727476625409e-05,-0.9826453483588857,-0.1795775980185656,-1.71,0.34,-0.02
129.571,427,map,base_link,-1.454266403557686,5.4702249185122,7.973,-0.044762476112399543,0.002521059497335538,-0.9907499452728534,-0.1280800957726691,-1.46,0.3,-0.01
129.821,428,map,base_link,-1.763298026552763,5.5367996095996865,7.975,-0.036785653411708814,0.0031933757527645833,-0.9942934372986865,-0.10008585613930754,-1.23,0.25,0.0
130.071,429,map,base_link,-2.0177946621292557,5.592278512406259,7.973,-0.027770826456534434,0.0024726309472578576,-0.9959716114006496,-0.08522450691035355,-1.04,0.21,0.0
130.322,430,map,base_link,-2.22684547291008,5.63666162672377,7.971,-0.020575131217861187,0.0014151976421122698,-0.9967608856589723,-0.0777328631361478,-0.9,0.18,0.0
130.572,431,map,base_link,-2.4177179518790033,5.681044733639791,7.968,-0.015705634261328698,0.00042913552152342696,-0.9970819140799078,-0.0747047890693821,-0.79,0.16,0.0
130.822,432,map,base_link,-2.5904120976881977,5.714332058293122,7.966,-0.013026723857236812,-0.0003008350104501805,-0.9971431348075719,-0.07440284046978457,-0.71,0.15,0.0
131.072,433,map,base_link,-2.7540170835060795,5.74761938369954,7.966,-0.012370589278319083,-0.0004891263977708813,-0.9971002752874667,-0.07508508705417055,-0.64,0.14,0.0
131.326,434,map,base_link,-2.9085329051016844,5.780906707622313,7.966,-0.01271591003473281,-0.0005905337175287608,-0.9969749769621158,-0.07667367353469806,-0.58,0.13,0.0
131.572,435,map,base_link,-3.0539595606430883,5.814194033210497,7.966,-0.013590818871423015,-0.0006176448833014608,-0.9968159170579989,-0.07856803202972018,-0.52,0.12,0.0
131.822,436,map,base_link,-3.181207884133175,5.836385569982386,7.967,-0.014357161817965609,-0.0005790249728274485,-0.9966485404336096,-0.08053088529358932,-0.45,0.11,0.0
132.072,437,map,base_link,-3.2993670426135377,5.858577110415768,7.968,-0.014696032607191366,-0.0006358844268709217,-0.9964774445365534,-0.08256103685458482,-0.38,0.1,0.0
132.322,438,map,base_link,-3.3993478701972486,5.880768655838596,7.968,-0.014490214168458802,-0.00046424290704277755,-0.9963232906356057,-0.08443766167364875,-0.32,0.09,0.0
132.572,439,map,base_link,-3.4811503672841475,5.902960206389011,7.969,-0.013940593258879681,-0.00039851126014040183,-0.9961770051127344,-0.08623732099844467,-0.26,0.08,0.0
132.822,440,map,base_link,-3.553863697019368,5.914055968764204,7.969,-0.013065998966657291,-0.00031521190067055103,-0.9960336179988208,-0.08801256801525686,-0.2,0.07,0.0
133.072,441,map,base_link,-3.617487862332415,5.936247525388242,7.969,-0.01184834695971518,-0.0003214655207312755,-0.9959012899643185,-0.08966679419744888,-0.14,0.06,0.0
133.322,442,map,base_link,-3.6629336937744514,5.947343298728484,7.969,-0.010431039200507268,-0.0003372702009353104,-0.9957828835911781,-0.09114564398174646,-0.1,0.05,0.0
133.572,443,map,base_link,-3.6992903565102457,5.94734328354177,7.969,-0.008990066487921736,-0.0005140408966427602,-0.9956622159274814,-0.09260489317998594,-0.06,0.04,0.0
133.822,444,map,base_link,-3.717468696547483,5.958439076783693,7.97,-0.007799923379680768,-0.000684224532951253,-0.9955440216455705,-0.09397230441903254,-0.03,0.03,0.0
134.072,445,map,base_link,-3.744736194118509,5.958439065321154,7.97,-0.006667751575126349,-0.000864094210257073,-0.9954348723151102,-0.09520614165655816,0.0,0.03,0.0
134.322,446,map,base_link,-3.7538253637019525,5.9695348527639345,7.971,-0.005613448801438891,-0.0009354034705538132,-0.9953253288952909,-0.09641111902878102,0.01,0.02,0.0
134.572,447,map,base_link,-3.7720036969854114,5.969534845460379,7.971,-0.004640839274690137,-0.0010163693729019654,-0.9952243037330066,-0.09749879416319296,0.03,0.02,0.0
134.822,448,map,base_link,-3.7720036969854114,5.969534845460379,7.972,-0.004133964212275351,-0.0010573204154003333,-0.9951210100784142,-0.09856960847009216,0.04,0.02,0.0
135.072,449,map,base_link,-3.78109286175034,5.969534841218321,7.972,-0.00350321666423205,-0.0011778445189474344,-0.9950214869791594,-0.09959207099501,0.05,0.01,0.0
135.322,450,map,base_link,-3.7901820264377473,5.969534837956966,7.972,-0.0027617037572449966,-0.0011994805700018174,-0.9949430661891997,-0.10039536483699446,0.05,0.01,0.0
135.572,451,map,base_link,-3.7901820264377473,5.969534837956966,7.972,-0.002231145928147511,-0.001231415366373812,-0.9948566208590008,-0.10126109587128201,0.05,0.01,0.0
135.822,452,map,base_link,-3.7901820264377473,5.969534837956966,7.972,-0.0019395615353656251,-0.0012778890734766067,-0.9947767962157823,-0.10204768890685512,0.06,0.01,0.0
136.072,453,map,base_link,-3.7901820264377473,5.969534837956966,7.972,-0.0016445980960534522,-0.0013181661722552831,-0.9946980881488707,-0.10281668720604697,0.06,0.01,0.0
136.323,454,map,base_link,-3.7901820264377473,5.969534837956966,7.972,-0.001402498119456396,-0.0013285956339770912,-0.9946322998503525,-0.10345460805137963,0.06,0.01,0.0
136.573,455,map,base_link,-3.7901820264377473,5.969534837956966,7.972,-0.0011064272594582397,-0.001220620283261877,-0.9945611983529904,-0.10414081157503768,0.05,0.01,0.0
136.823,456,map,base_link,-3.7901820264377473,5.969534837956966,7.972,-0.0010795298838596045,-0.001316383623006163,-0.9944944156022951,-0.10477575619023838,0.05,0.01,0.0
137.073,457,map,base_link,-3.7901820264377473,5.969534837956966,7.972,-0.0010247219374020517,-0.0014016273636232497,-0.9944412634823482,-0.10527848246111582,0.05,0.01,0.0
137.323,458,map,base_link,-3.7901820264377473,5.969534837956966,7.972,-0.000840127752386843,-0.0012996298048378865,-0.9943816488292934,-0.10584300458351387,0.05,0.01,0.0
137.573,459,map,base_link,-3.78109286175034,5.969534841218321,7.972,-0.0007071231454660915,-0.0012896227391229662,-0.9943281054558388,-0.10634592399640991,0.04,0.01,0.0
137.823,460,map,base_link,-3.78109286175034,5.969534841218321,7.972,-0.0005051191404512055,-0.0012636195514422216,-0.9942746623015002,-0.10684588913720972,0.04,0.01,0.0
138.073,461,map,base_link,-3.78109286175034,5.969534841218321,7.972,-0.00036860835134304155,-0.0013247736576857546,-0.9942339401393662,-0.1072239776243667,0.04,0.01,0.0
138.323,462,map,base_link,-3.7720036969854114,5.969534845460379,7.972,-0.00033594073105266953,-0.0013498409569555098,-0.9941914760300289,-0.10761679266010687,0.04,0.02,0.0
138.573,463,map,base_link,-3.7720036969854114,5.969534845460379,7.972,-0.00017396922383883966,-0.001243691179671657,-0.9941465016420192,-0.10803312566011053,0.03,0.02,0.0
138.823,464,map,base_link,-3.7720036969854114,5.969534845460379,7.972,-0.00010164050912406152,-0.0012114948772760624,-0.9941070154028957,-0.10839632777966246,0.03,0.02,0.0
139.073,465,map,base_link,-3.7629145291890382,5.969534849778857,7.972,4.348534882289533e-05,-0.0011774968988824432,-0.9940564292691003,-0.10885966672208647,0.03,0.02,0.0
139.323,466,map,base_link,-3.7629145291890382,5.969534849778857,7.972,0.00016230976684714752,-0.0012475066112811134,-0.9940185242581974,-0.10920435345877971,0.02,0.02,0.0
139.573,467,map,base_link,-3.7629145291890382,5.969534849778857,7.973,0.00022121547971073224,-0.0012853449686454986,-0.9939945957965514,-0.10942139863515582,0.02,0.02,0.0
139.823,468,map,base_link,-3.7538253592832778,5.958439061596979,7.973,0.0002764887503194104,-0.001448616532659474,-0.9939658078332527,-0.10968043545911693,0.02,0.02,0.0
140.073,469,map,base_link,-3.7538253592832778,5.958439061596979,7.974,0.000254524883571744,-0.001385040789097598,-0.9939466748886723,-0.10985456001845423,0.01,0.02,0.0
140.325,470,map,base_link,-3.7538253592832778,5.958439061596979,7.974,0.007201239552832199,0.04157983414471555,-0.9964994894212118,-0.07216666214163603,0.0,-0.05,0.0
140.573,471,map,base_link,-3.76291450147747,5.902960102742461,7.973,0.029581751126819426,0.10995492356100044,-0.9932389751230766,0.022609137122539483,-0.09,-0.43,0.0
140.823,472,map,base_link,-3.8083602282735947,5.681044253218555,7.969,0.05078964045846598,0.1302913391205672,-0.9813888648177269,0.13160727709379388,-0.25,-1.11,0.01
141.073,473,map,base_link,-3.9083408745245127,5.281595730310662,7.966,0.03634471333828654,0.06949060397160989,-0.9648198741331389,0.25094367545274576,-0.39,-1.71,0.0
141.323,474,map,base_link,-4.026499781646713,4.760093496625061,7.967,0.0037084246644904554,0.00649885240091025,-0.9271564756342674,0.37459962919552237,-0.43,-1.94,-0.01
141.573,475,map,base_link,-4.135569517114237,4.227495481260457,7.972,-0.020760898655993575,-0.025747669299809112,-0.8688100282924291,0.4940396515980593,-0.41,-1.89,-0.02
141.823,476,map,base_link,-4.235550103360552,3.7725679983790625,7.978,-0.031786152380153296,-0.03316384100283701,-0.8186777560202775,0.5724129033874126,-0.37,-1.68,-0.01
142.073,477,map,base_link,-4.317352398928364,3.3953110657630363,7.982,-0.03270669599978009,-0.030215706136634952,-0.7889505197290958,0.6128412196961236,-0.33,-1.44,0.0
142.324,478,map,base_link,-4.380976389722611,3.0846288821979515,7.983,-0.02816485717828378,-0.024241688041745386,-0.7725846443712627,0.6338233576184635,-0.28,-1.22,0.0
142.574,479,map,base_link,-4.444600406665762,2.8405214461911017,7.982,-0.021728514289702818,-0.018421430577701653,-0.7639658165416366,0.6446276085602476,-0.25,-1.03,0.01
142.824,480,map,base_link,-4.4900461126227516,2.6297013911905647,7.98,-0.015922518536182713,-0.013910807445545806,-0.7598043175690637,0.6498079422745515,-0.22,-0.89,0.01
143.074,481,map,base_link,-4.535491821585413,2.441072915106069,7.977,-0.0116828190107028,-0.010738976151593556,-0.7582369947860593,0.6517858895902733,-0.19,-0.78,0.01
143.324,482,map,base_link,-4.571848385584802,2.2746360284791667,7.975,-0.00942134800784099,-0.008963006654302427,-0.7580591722249662,0.65205612804346,-0.18,-0.7,0.0
143.576,483,map,base_link,-4.608204952815576,2.119294934988249,7.974,-0.008481032715454999,-0.008042484975292072,-0.7586725364426226,0.6513673103305225,-0.16,-0.64,0.0
143.824,484,map,base_link,-4.644561525742068,1.9750496309587549,7.973,-0.00846779212424827,-0.007909921714474225,-0.7597622849013838,0.6500976850262119,-0.15,-0.58,0.0
144.074,485,map,base_link,-4.680918097146722,1.8308043265352398,7.973,-0.009027242119431024,-0.008242948854405371,-0.7610868744925416,0.6485347578727566,-0.14,-0.52,0.0
144.324,486,map,base_link,-4.717274677013348,1.7087506052769226,7.973,-0.009433787438213152,-0.008509781098079991,-0.7625059960985053,0.6468563930224849,-0.12,-0.46,0.0
144.574,487,map,base_link,-4.7445421025313195,1.5977926792212185,7.974,-0.00999589976520515,-0.009056898553504894,-0.7638483412539474,0.6452548071421617,-0.11,-0.4,0.0
144.824,488,map,base_link,-4.762720370913986,1.4979305486453662,7.974,-0.01007935431763839,-0.009209807427502213,-0.7651843159314355,0.6436664887317259,-0.09,-0.33,0.0
145.074,489,map,base_link,-4.78998780777033,1.40916420498163,7.974,-0.009855492093281858,-0.008900246704686475,-0.7664689186233166,0.6421441050641195,-0.08,-0.27,0.0
145.324,490,map,base_link,-4.808166092644434,1.342589448187411,7.974,-0.009333914171833902,-0.008454297854918557,-0.7676701138999407,0.6407214676588145,-0.07,-0.22,0.0
145.574,491,map,base_link,-4.817255219860975,1.2760146963392591,7.974,-0.008470141474598363,-0.007912987396959887,-0.7688472936458166,0.6393273655861752,-0.05,-0.16,0.0
145.824,492,map,base_link,-4.826344356583963,1.2316315273739082,7.974,-0.007510318575739239,-0.0074506272481776655,-0.7698484157153661,0.6381390914910641,-0.04,-0.12,0.0
146.074,493,map,base_link,-4.835433492907113,1.1872483567514323,7.974,-0.006608644124465059,-0.006783715233330314,-0.7708473353362244,0.6369495212617023,-0.03,-0.07,0.0
146.324,494,map,base_link,-4.844522641213271,1.1650567703788681,7.974,-0.005672664430977414,-0.006094632434448106,-0.771718471965707,0.6359098020636709,-0.02,-0.04,0.0
146.574,495,map,base_link,-4.84452262335504,1.131769395760787,7.974,-0.004730592047167135,-0.005476112728198924,-0.7726125263544992,0.6348366071741528,-0.02,-0.01,0.0
146.824,496,map,base_link,-4.844522617247253,1.1206736052967639,7.974,-0.003824216496640513,-0.0048963854730967446,-0.7734448991138452,0.6338330922350611,-0.01,0.0,0.0
147.074,497,map,base_link,-4.853611771106316,1.1095778096925115,7.975,-0.0032014126274791483,-0.004460072029406476,-0.7741937701674917,0.6329248493688066,-0.01,0.02,0.0
147.324,498,map,base_link,-4.853611759123306,1.0873862277210788,7.975,-0.00256455393526045,-0.0037495766041289154,-0.7748705991236673,0.6321035661599544,-0.01,0.03,0.0
147.574,499,map,base_link,-4.853611759123306,1.0873862277210788,7.975,-0.0019426119150815222,-0.003146380926509307,-0.7755316397242791,0.6312978713195411,-0.01,0.04,0.0
147.825,500,map,base_link,-4.853611759123306,1.0873862277210788,7.976,-0.0014164428939633178,-0.002775024397190908,-0.7761482159382449,0.6305428136336205,0.0,0.05,0.0
148.074,501,map,base_link,-4.853611759123306,1.0873862277210788,7.977,-0.0011068240688931789,-0.0026381130800260293,-0.7767111602256137,0.6298504496154929,0.0,0.05,0.0
148.325,502,map,base_link,-4.853611752770722,1.0762904359169978,7.977,-0.0008015718689293113,-0.0025186872431429046,-0.777254320768326,0.6291810030063515,0.0,0.06,0.0
148.575,503,map,base_link,-4.853611752770722,1.0762904359169978,7.977,-0.000564845209363602,-0.002374357187168231,-0.777714045555669,0.6286134795908147,0.0,0.06,0.0
148.825,504,map,base_link,-4.853611752770722,1.0762904359169978,7.977,-0.00036719041259952165,-0.00231926410352812,-0.7781580351547243,0.6280641356655845,0.0,0.06,0.0
149.075,505,map,base_link,-4.853611752770722,1.0762904359169978,7.977,-0.00023642674764911008,-0.002216397965282434,-0.7785649463253261,0.6275600816144178,0.0,0.06,0.0
149.325,506,map,base_link,-4.853611752770722,1.0762904359169978,7.976,-0.0001161027451062742,-0.0020361601172525527,-0.7789669476445764,0.6270616676607026,-0.01,0.06,0.0
149.576,507,map,base_link,-4.853611752770722,1.0762904359169978,7.975,0.00020691556475526697,-0.002057642726698898,-0.7793224412208382,0.6266197059636341,-0.01,0.06,0.0
149.825,508,map,base_link,-4.853611752770722,1.0762904359169978,7.975,0.0004945613281288531,-0.00211119699222079,-0.7796727930346915,0.6261833869225817,-0.01,0.06,0.0
150.075,509,map,base_link,-4.853611752770722,1.0762904359169978,7.974,0.0007609666084198492,-0.0020083710610431385,-0.779946482997746,0.6258425289439418,-0.01,0.05,0.0
150.325,510,map,base_link,-4.844522599711339,1.0873862321772734,7.974,0.0008844851741415211,-0.0018674269666799246,-0.7802293923790861,0.625490068402579,-0.01,0.05,0.0
150.575,511,map,base_link,-4.844522599711339,1.0873862321772734,7.974,0.0009774514336203975,-0.001560345131800013,-0.7805117923120198,0.6251383462671627,-0.01,0.05,0.0
150.825,512,map,base_link,-4.844522599711339,1.0873862321772734,7.974,0.0011591193273723407,-0.0014167359522876746,-0.7807911559515739,0.6247894205965971,-0.02,0.04,0.0
151.075,513,map,base_link,-4.844522605264244,1.0984820229455847,7.974,0.0012122436973936608,-0.0012407952831988115,-0.7809966785556749,0.6245327685376383,-0.02,0.04,0.0
151.325,514,map,base_link,-4.835433445052597,1.098482027505248,7.974,-0.024135302825845324,0.033989257596221636,-0.7562858202006479,0.6529119203146744,0.05,0.02,0.0
151.575,515,map,base_link,-4.771809316443269,1.0873862713499327,7.973,0.05684500009444218,-0.09826494720186675,0.687086528531331,-0.7176522475589705,0.43,-0.07,0.01
151.825,516,map,base_link,-4.562758592552788,1.0430032135405405,7.969,0.056377473594849424,-0.127890661117113,0.6017998746840367,-0.7863221159934187,1.1,-0.23,0.01
152.075,517,map,base_link,-4.153746324982306,0.9542370820675972,7.966,0.023665853963648804,-0.07483295983439266,0.5059851825849323,-0.858963881943291,1.7,-0.37,0.0
152.325,518,map,base_link,-3.6265749746400457,0.8432793993581393,7.967,0.0020325884312208113,-0.007426928147308446,0.3922810327278434,-0.9198131879270599,1.94,-0.41,-0.01
152.575,519,map,base_link,-3.0994036415902744,0.7323216849432939,7.972,-0.003488071297719643,0.03261231480413211,0.2670411245233348,-0.9631268390482384,1.89,-0.4,-0.02
152.825,520,map,base_link,-2.6358564423505286,0.6324597114303643,7.978,-0.0007668394851354845,0.04595019008635291,0.17633904418185498,-0.9832560874387006,1.69,-0.36,-0.01
153.075,521,map,base_link,-2.2541116968653143,0.5436934870811356,7.982,0.0025430935052809713,0.045021547796670607,0.1265736309852289,-0.9909317377340532,1.45,-0.32,0.0
153.325,522,map,base_link,-1.945080240501646,0.47711881183679905,7.983,0.0038310491228143676,0.03820271511329302,0.10005452459481007,-0.9942409002493799,1.22,-0.27,0.0
153.575,523,map,base_link,-1.6905837476640841,0.41054411630690124,7.982,0.0038657798246641427,0.029884004333612442,0.08617809646290181,-0.9958239491603756,1.03,-0.23,0.01
153.825,524,map,base_link,-1.472443897638331,0.3550651979954851,7.979,0.0035905148302038986,0.022394170607704583,0.07940395441913245,-0.9965844777783022,0.89,-0.2,0.01
154.076,525,map,base_link,-1.2906606928056985,0.29958627048035735,7.977,0.003225637589347395,0.01690269482337963,0.07674536900399864,-0.9969022231424152,0.78,-0.17,0.01
154.326,526,map,base_link,-1.1270558104404569,0.25520312629269126,7.975,0.0029162134578047632,0.013775936760505467,0.07627992351944207,-0.9969870072038587,0.69,-0.15,0.0
154.576,527,map,base_link,-0.9634509295848219,0.21081998125484036,7.973,0.002962630677547435,0.012245199253941809,0.0771810113771006,-0.9969374952310237,0.63,-0.13,0.0
154.826,528,map,base_link,-0.8180243712088098,0.17753262154815053,7.973,0.0031035069454365912,0.011820823653199123,0.07874547412053179,-0.9968198366196032,0.56,-0.11,0.0
155.076,529,map,base_link,-0.6907761326685398,0.13314946745123324,7.973,0.003223288586947429,0.01219950234301059,0.0806693768091456,-0.9966610427815931,0.51,-0.09,0.0
155.326,530,map,base_link,-0.563527895205413,0.09986210320406386,7.973,0.003222595919941671,0.012789332182351369,0.08273476381590189,-0.9964843233659991,0.45,-0.07,0.0
155.576,531,map,base_link,-0.4544579779126239,0.07767052714044143,7.973,0.0031768202499993657,0.01291654226043983,0.0848825849401127,-0.9963021717947913,0.39,-0.06,0.0
155.826,532,map,base_link,-0.35447722267563675,0.055478948409767526,7.974,0.002951619780758505,0.013040548639199328,0.0869698131897968,-0.996121219343103,0.33,-0.04,0.0
156.078,533,map,base_link,-0.27267478517727906,0.03328736993963588,7.974,0.0025111126893350402,0.012818188950804289,0.08892008127556317,-0.9959531151068459,0.27,-0.02,0.0
156.326,534,map,base_link,-0.19996151010194074,0.022191579778662707,7.974,0.00197837857927875,0.012186838426034257,0.09078694202921644,-0.9957938030256861,0.22,-0.01,0.0
156.576,535,map,base_link,-0.1363373918191968,0.011095790417720242,7.974,0.0016922000398948347,0.011163636616851278,0.09254808007401116,-0.9956441947559008,0.17,0.0,0.0
156.826,536,map,base_link,-0.0908915950286846,-9.198313222213983e-10,7.974,0.0012057713267868769,0.010195725674466598,0.09416746036382762,-0.9955034317882112,0.12,0.01,0.0
157.077,537,map,base_link,-0.054534955875344515,-1.8447066096882736e-10,7.974,0.0007630883158054821,0.009146844239465437,0.09574734456961592,-0.9953633502116443,0.08,0.01,0.0
157.326,538,map,base_link,-0.01817831850903051,-0.011095791316293013,7.974,0.0006074235023511164,0.008030367019986604,0.09726383863694316,-0.9952260496670191,0.05,0.02,0.0
157.576,539,map,base_link,2.927880160541463e-11,-0.011095791093619134,7.974,0.00032250916870450535,0.00692041421352264,0.09857306287364509,-0.9951057004814401,0.02,0.02,0.0
157.826,540,map,base_link,0.018178318090226853,-0.011095791713513936,7.974,9.075556644709873e-05,0.005877546240267611,0.09981662720058271,-0.9949884859373604,0.0,0.02,0.0
158.076,541,map,base_link,0.027267479913463788,-0.011095790849342091,7.974,-0.00011134229352153842,0.0050551395768641495,0.10101507511349878,-0.9948720459267946,-0.01,0.03,0.0
158.326,542,map,base_link,0.04544579749705013,-0.011095791172564429,7.974,-0.00033033099164820603,0.004222374041888099,0.10205908417202436,-0.9947693228969487,-0.03,0.03,0.0
158.576,543,map,base_link,0.04544579749705013,-0.011095791172564429,7.974,-0.0004386479741536058,0.0035973105563981756,0.10312649996339568,-0.994661646968463,-0.04,0.03,0.0
158.826,544,map,base_link,0.05453495636636507,-0.011095791302835778,7.974,-0.0005343347382640935,0.0030803706789460936,0.10412327827696227,-0.9945594847588183,-0.04,0.02,0.0
159.076,545,map,base_link,0.05453495636636507,-0.011095791302835778,7.974,-0.0005775903343644305,0.0025812482205185513,0.10499696633029398,-0.9944690244590151,-0.05,0.02,0.0
159.326,546,map,base_link,0.06362411851192018,-0.01109579155750895,7.974,-0.0006402731842606757,0.0020143584768307124,0.10579288967747447,-0.9943859396149296,-0.05,0.02,0.0
159.576,547,map,base_link,0.06362411851192018,-0.01109579155750895,7.974,-0.000940612362851059,0.0014958452240577773,0.10653541431660785,-0.9943073383978605,-0.05,0.02,0.0
159.826,548,map,base_link,0.06362411851192018,-0.01109579155750895,7.974,-0.001237174471900488,0.0012043935346715492,0.10725381988969718,-0.9942301730256471,-0.05,0.02,0.0
160.077,549,map,base_link,0.0636241181447037,-2.0155299651491987e-10,7.974,-0.0014054079215390296,0.0010577801592831,0.10796399445078153,-0.9941532486653857,-0.05,0.01,0.0
160.327,550,map,base_link,0.054534956398987866,-4.6476422710384213e-10,7.974,-0.001504787331243154,0.0009680674237592935,0.10854025763407238,-0.9940904440408227,-0.05,0.01,0.0
160.577,551,map,base_link,0.054534956398987866,-4.6476422710384213e-10,7.974,-0.0015023073568115276,0.000839520891007289,0.10912060761585629,-0.9940270274347802,-0.05,0.01,0.0
160.827,552,map,base_link,0.05453495675392839,0.011095791532940158,7.974,-0.0014755991129691694,0.0008711746198895449,0.10967909167500905,-0.9939655731016966,-0.04,0.0,0.0
161.077,553,map,base_link,0.05453495675392839,0.011095791532940158,7.974,-0.0015301909178163228,0.0008769343613316401,0.11017597817940888,-0.9939105308497799,-0.04,0.0,0.0
161.327,554,map,base_link,0.05453495675392839,0.011095791532940158,7.974,-0.0015841424823479517,0.0007733037556544113,0.11058968620222459,-0.9938645852426731,-0.04,0.0,0.0
161.577,555,map,base_link,0.05453495675392839,0.011095791532940158,7.974,-0.0015676275665408945,0.0006697220879896645,0.11101449352201681,-0.9938173253894237,-0.04,0.0,0.0
161.827,556,map,base_link,0.05453495675392839,0.011095791532940158,7.974,-0.0009342999887655688,0.0004900214488743902,0.15018107578808687,-0.9886579446085706,-0.04,0.0,0.0
162.077,557,map,base_link,0.04544579743987498,0.02219158165871482,7.974,-0.0005961031658764216,6.505078957273735e-06,0.24435495139570962,-0.9696856719303941,-0.04,0.0,0.0
162.327,558,map,base_link,0.04544579743987498,0.02219158165871482,7.974,-0.001321399878678282,-0.0005782650437136151,0.35073024595891705,-0.9364754209702982,-0.03,0.0,0.0
162.577,559,map,base_link,0.04544579743987498,0.02219158165871482,7.974,-0.0020956823383608434,-0.0008468693493297468,0.4609228932602585,-0.8874373089950829,-0.02,0.0,0.0
162.827,560,map,base_link,0.045445797949859035,0.03328737409884619,7.975,-0.002392241782051903,-0.0010199530634285904,0.5697363661353365,-0.8218234055914363,-0.02,-0.01,0.0
163.077,561,map,base_link,0.045445797949859035,0.03328737409884619,7.975,-0.0023123447314651715,-0.001092531215818383,0.6727200523626262,-0.7398926885613958,-0.02,-0.01,0.0
163.327,562,map,base_link,0.03635663855828408,0.04438316400340714,7.975,0.0019218060672205012,0.0009396672939737141,-0.7661410278143046,0.6426689265760853,-0.02,-0.02,0.0
163.577,563,map,base_link,0.03635663855828408,0.04438316400340714,7.974,0.0013491525657664688,0.000683075776921685,-0.8468565297474782,0.5318192655582306,-0.02,-0.03,0.0
163.827,564,map,base_link,0.03635663855828408,0.04438316400340714,7.974,0.0010043608884708214,0.0004881967094940987,-0.912235552807362,0.409664556823537,-0.02,-0.03,0.0
164.077,565,map,base_link,0.027267479411550166,0.033287373876172754,7.973,0.0006201103178117458,0.0002872932467948708,-0.960298275994075,0.2789744684529242,-0.02,-0.03,0.0
164.327,566,map,base_link,0.027267479411550166,0.033287373876172754,7.972,0.00013150344464659826,0.00017235632911202445,-0.989765187281239,0.1427053854844793,-0.02,-0.03,0.0
164.577,567,map,base_link,0.01817831846551421,0.03328737371642987,7.972,-0.00020349667076358203,5.006687616570594e-05,-0.999987342066077,0.005027105532570686,-0.02,-0.03,0.0
164.827,568,map,base_link,0.01817831846551421,0.03328737371642987,7.971,-0.0005246809409291232,-0.0005665688138561409,-0.996145906857649,-0.08770824340072719,-0.01,-0.02,0.0
165.077,569,map,base_link,0.009089159273881542,0.03328737420605332,7.972,-0.0008623535611595386,-0.0007230440078651076,-0.9909377455872526,-0.1343172286944303,-0.01,-0.02,0.0
165.327,570,map,base_link,0.009089159151460358,0.04438316422195099,7.972,-0.0010469792716880622,-0.00013982481816088936,-0.9874091097301576,-0.158183862341652,0.0,-0.01,0.0
165.577,571,map,base_link,0.009089159151460358,0.04438316422195099,7.972,-0.0008569693983267425,0.0006163090533276544,-0.9854771780995246,-0.16980464425803826,0.0,-0.01,0.0
165.827,572,map,base_link,0.009089159151460358,0.04438316422195099,7.973,-0.0005307238373381567,0.0010613990899955529,-0.9846141342630247,-0.17473865735335875,0.0,-0.01,0.0
166.078,573,map,base_link,0.009089159151460358,0.04438316422195099,7.973,-0.0002298046924275316,0.0012470370833982986,-0.9843941507752293,-0.1759731457007893,0.0,-0.02,0.0
166.328,574,map,base_link,0.009089159151460358,0.04438316422195099,7.973,2.6644831742130262e-05,0.0011944582727673667,-0.9845836629372557,-0.17491021478616992,0.0,-0.02,0.0
166.578,575,map,base_link,0.009089159151460358,0.04438316422195099,7.973,0.0002202493523187948,0.0009550648099912816,-0.9849755116698964,-0.17269128742370743,0.0,-0.03,0.0
166.828,576,map,base_link,0.009089159151460358,0.04438316422195099,7.973,0.0002885534954480465,0.0007538347857799205,-0.9855128332699867,-0.16959895026255123,0.0,-0.03,0.0
167.078,577,map,base_link,0.009089159151460358,0.04438316422195099,7.973,0.00024287261754612143,0.0004454679602051378,-0.9860785826754546,-0.16627919701500388,0.0,-0.03,0.0
167.328,578,map,base_link,0.009089159273881542,0.03328737420605332,7.973,0.00028566326662290563,0.00024069311219195456,-0.9866399819896619,-0.1629153350755035,0.0,-0.03,0.0
167.578,579,map,base_link,0.009089159273881542,0.03328737420605332,7.973,0.0002728619707062385,1.4456273594950203e-05,-0.9871646499184028,-0.15970560193317673,0.0,-0.03,0.0
167.828,580,map,base_link,0.009089159273881542,0.03328737420605332,7.974,0.00025034886358298204,-9.075893569970819e-05,-0.9876528302025231,-0.1566582780487782,0.0,-0.03,0.0
168.078,581,map,base_link,0.009089159273881542,0.03328737420605332,7.974,0.00012094249918544933,-0.00015709224485264066,-0.9881076845717525,-0.15376333888540705,0.0,-0.02,0.0
168.328,582,map,base_link,0.009089159273881542,0.03328737420605332,7.974,0.0001996677203459388,-0.00022652140089575193,-0.9885153547540042,-0.15112015827288355,0.0,-0.02,0.0
168.578,583,map,base_link,0.009089158841418143,0.02219158198713478,7.974,0.0002883297252950116,-0.00025044485662171763,-0.988910182831494,-0.14851432400790304,0.0,-0.02,0.0
168.828,584,map,base_link,0.009089158841418143,0.02219158198713478,7.974,0.00027769313632693664,-0.0003511658076279446,-0.9892616346998657,-0.14615477303203983,0.0,-0.02,0.0
169.078,585,map,base_link,0.009089158841418143,0.02219158198713478,7.973,0.00030315057527411943,-0.0005003554143501854,-0.9895903285704892,-0.14391191522573504,0.0,-0.02,0.0
169.328,586,map,base_link,0.009089158841418143,0.02219158198713478,7.973,0.0002610329535392057,-0.0005828814364253408,-0.9898949405684201,-0.1418012649734559,0.0,-0.01,0.0
169.578,587,map,base_link,0.009089158841418143,0.02219158198713478,7.973,0.00011044831018306464,-0.0009716305621361735,-0.9901667115653461,-0.13988898113536485,0.0,-0.01,0.0
169.828,588,map,base_link,0.009089158886317339,0.011095791750023842,7.973,0.00012257761611218808,-0.0011693904960128868,-0.9904222726010159,-0.13806643124393025,0.0,-0.01,0.0
170.078,589,map,base_link,0.009089158886317339,0.011095791750023842,7.973,0.00013717859951321073,-0.0013147486532424906,-0.9906631949592015,-0.13632566438949756,0.0,0.0,0.0
170.328,590,map,base_link,0.009089158886317339,0.011095791750023842,7.974,6.407732343064746e-05,-0.0012929867982510823,-0.9908811848604681,-0.13473233304871918,0.0,0.0,0.0
170.578,591,map,base_link,0.009089158886317339,0.011095791750023842,7.974,-4.75548713027918e-06,-0.001260108944835177,-0.9910821393326785,-0.13324640782622887,0.0,0.0,0.0
170.828,592,map,base_link,0.00908915893121609,-6.072919944699606e-12,7.973,-0.00019128439816993816,-0.0012952509242881148,-0.9912678290100407,-0.13185741126323852,0.0,0.0,0.0
171.078,593,map,base_link,0.00908915893121609,-6.072919944699606e-12,7.973,-0.00021208932276308576,-0.0013112893548097877,-0.9914408796862968,-0.13054967493337227,0.0,0.0,0.0
171.328,594,map,base_link,0.00908915893121609,-6.072919944699606e-12,7.973,-0.00025080557592790606,-0.0013229573717767583,-0.9916015982134208,-0.12932307335098736,0.0,0.0,0.0
171.578,595,map,base_link,0.00908915893121609,-6.072919944699606e-12,7.973,-0.0003135957819788908,-0.0012425018752538009,-0.991752145311867,-0.12816411399485006,0.0,0.01,0.0
171.828,596,map,base_link,0.00908915893121609,-6.072919944699606e-12,7.973,-0.0003263350855123418,-0.0011910428611696825,-0.9918870489246268,-0.12711631326430817,0.0,0.01,0.0
172.079,597,map,base_link,0.00908915893121609,-6.072919944699606e-12,7.973,-0.000289607630839885,-0.0010998055007670625,-0.9920152730338736,-0.12611266638530083,0.0,0.01,0.0
172.329,598,map,base_link,6.190159496100023e-11,-2.5554847127295943e-10,7.973,-0.00021849373662167422,-0.001015260061770708,-0.992130391742108,-0.12520466161108024,0.0,0.01,0.0
172.579,599,map,base_link,6.190159496100023e-11,-2.5554847127295943e-10,7.973,-0.0003299054000370027,-0.000908114012056832,-0.9922409331022477,-0.12432617249698064,0.0,0.01,0.0
172.83,600,map,base_link,6.190159496100023e-11,-2.5554847127295943e-10,7.973,-0.0003895683540914025,-0.0009442506775079267,-0.9923450965487418,-0.1234915623952651,0.0,0.01,0.0
173.079,601,map,base_link,6.190159496100023e-11,-2.5554847127295943e-10,7.973,-0.0004027889495413446,-0.0009684372758303642,-0.9924377327124946,-0.12274463971509386,0.0,0.01,0.0
173.329,602,map,base_link,6.190159496100023e-11,-2.5554847127295943e-10,7.973,-0.0005425087803883421,-0.0009728423431438274,-0.9925168465542149,-0.12210269680918517,0.0,0.01,0.0
173.579,603,map,base_link,6.190159496100023e-11,-2.5554847127295943e-10,7.973,-0.000540035502139861,-0.0010210688174019202,-0.9925988093338978,-0.1214342187731895,0.0,0.01,0.0
173.829,604,map,base_link,6.190159496100023e-11,-2.5554847127295943e-10,7.972,-0.0005112388923381935,-0.0010164024152443055,-0.9926735643919822,-0.12082177005094175,0.0,0.01,0.0
174.079,605,map,base_link,6.190159496100023e-11,-2.5554847127295943e-10,7.972,-0.0005587528948067846,-0.0009588227326430687,-0.9927445789958449,-0.12023713789230267,0.01,0.01,0.0
174.329,606,map,base_link,-0.009089158330051639,-4.22022417012613e-11,7.972,-0.0006363498562983901,-0.0011133141701122158,-0.9928083844456073,-0.11970742401757051,0.01,0.01,0.0
174.579,607,map,base_link,-0.009089158330051639,-4.22022417012613e-11,7.972,-0.0006691810670819538,-0.0012967067096784468,-0.9928680524576576,-0.11920948434309481,0.01,0.01,0.0
174.829,608,map,base_link,-0.009089158330051639,-4.22022417012613e-11,7.972,-0.0006809519006399476,-0.00132029107891803,-0.9929289862507779,-0.11870055349061598,0.01,0.01,0.0
175.079,609,map,base_link,-0.009089158330051639,-4.22022417012613e-11,7.971,-0.0007311982047014889,-0.0013207875535546604,-0.9929770375968034,-0.11829760637857656,0.01,0.01,0.0
175.329,610,map,base_link,-0.009089158362674432,-0.011095791260019805,7.971,-0.0005874390033207263,-0.001240463932654492,-0.9930176923989855,-0.1179575294215795,0.01,0.01,0.0
175.579,611,map,base_link,-0.009089158362674432,-0.011095791260019805,7.971,-0.00047343918505394274,-0.001174608250785368,-0.9930582582564058,-0.11761671590190159,0.01,0.01,0.0
175.829,612,map,base_link,-0.009089158362674432,-0.011095791260019805,7.972,-0.00030049459065147836,-0.0011895581035436282,-0.9930981987872678,-0.11727941942218068,0.01,0.01,0.0
176.079,613,map,base_link,-0.009089158362674432,-0.011095791260019805,7.972,-0.00036520272111313315,-0.001080389672909687,-0.9931385984842211,-0.11693769104067497,0.01,0.02,0.0
176.329,614,map,base_link,-0.009089158362674432,-0.011095791260019805,7.973,-0.00030350166757542725,-0.0010477992581439596,-0.9931792343690902,-0.11659253158534744,0.01,0.02,0.0
176.579,615,map,base_link,-0.009089158362674432,-0.011095791260019805,7.973,-0.00028033196128105,-0.0009355555160537489,-0.9932156039969406,-0.116283318351602,0.01,0.02,0.0
176.829,616,map,base_link,-0.009089158362674432,-0.011095791260019805,7.973,-0.00034576546461141005,-0.0009348857076028059,-0.9932490689305535,-0.11599695471668758,0.01,0.01,0.0
177.079,617,map,base_link,-0.009089158362674432,-0.011095791260019805,7.973,-0.0003963522424581336,-0.0009373182935275931,-0.9932744664911561,-0.11577909377787349,0.01,0.01,0.0
177.329,618,map,base_link,-0.009089158362674432,-0.011095791260019805,7.973,-0.00040955184390132444,-0.0009725267009690614,-0.9932972047548838,-0.1155835173596888,0.01,0.01,0.0
177.579,619,map,base_link,-0.009089158362674432,-0.011095791260019805,7.973,-0.0003587094743992996,-0.0010022231263887662,-0.9933153236070518,-0.1154276169888992,0.01,0.01,0.0
177.829,620,map,base_link,-0.009089158362674432,-0.011095791260019805,7.973,-0.0002318208928710174,-0.0010941242744093443,-0.9933349946173053,-0.11525770091314347,0.01,0.01,0.0
178.08,621,map,base_link,-0.009089158362674432,-0.011095791260019805,7.973,1.364498958955596e-05,-0.0012235575629830104,-0.9933592169255205,-0.11504768085372652,0.01,0.01,0.0
178.33,622,map,base_link,-0.009089158362674432,-0.011095791260019805,7.973,0.0001443257360785408,-0.0013231506117931415,-0.9933802648581589,-0.11486460652818392,0.01,0.01,0.0
178.58,623,map,base_link,-0.009089158362674432,-0.011095791260019805,7.973,0.00017926274825487396,-0.001447607898111706,-0.9933958545310624,-0.11472815041105211,0.01,0.02,0.0
178.83,624,map,base_link,-0.009089158362674432,-0.011095791260019805,7.971,0.00013919399870566634,-0.0014961331749271491,-0.9934141076912897,-0.11456942371537326,0.01,0.02,0.0
179.08,625,map,base_link,-0.009089158593885482,-0.011095791413004985,7.969,9.763469778313524e-06,-0.0013831542084494083,-0.9934252467078509,-0.11447430276073295,0.01,0.02,0.0
179.33,626,map,base_link,-0.009089158548986731,-0.02219158278935529,7.967,-0.0001322919232232415,-0.001216225548139731,-0.9934420829337166,-0.11432992237634798,0.01,0.02,0.0
179.58,627,map,base_link,-0.009089158548986731,-0.02219158278935529,7.966,-0.0002635655278572419,-0.0011056310942073135,-0.9934471973613522,-0.11428636912585138,0.01,0.02,0.0
179.83,628,map,base_link,-0.009089158548986731,-0.02219158278935529,7.965,-0.0002609454968753375,-0.00101385978402345,-0.9934630545168747,-0.11414930269514156,0.01,0.02,0.0
180.08,629,map,base_link,-0.009089158548986731,-0.02219158278935529,7.964,-0.0003708076189492762,-0.0008594607037525791,-0.9934785556070229,-0.11401527695002955,0.01,0.02,0.0
180.33,630,map,base_link,-0.009089158593885482,-0.011095791413004985,7.964,-0.00043976684481882955,-0.0005797047854123491,-0.9934794674028096,-0.11400885227259339,0.01,0.02,0.0
180.58,631,map,base_link,-0.009089158593885482,-0.011095791413004985,7.964,-0.00039496090575975883,-0.0004123066812176366,-0.9934842886928759,-0.11396772406911587,0.01,0.02,0.0
180.83,632,map,base_link,-0.009089158593885482,-0.011095791413004985,7.964,-0.00037748223056598585,-0.00041930514841791356,-0.993498481427944,-0.11384396817893844,0.01,0.02,0.0
181.08,633,map,base_link,-0.009089158593885482,-0.011095791413004985,7.963,-0.0003528345171361786,-0.0004951148384286242,-0.9935077021650686,-0.11376324585640946,0.01,0.01,0.0
181.33,634,map,base_link,-0.009089158593885482,-0.011095791413004985,7.963,-0.0002669938096352283,-0.0005606630122705911,-0.9935173015308447,-0.11367931179489527,0.01,0.01,0.0
181.58,635,map,base_link,-0.009089158593885482,-0.011095791413004985,7.963,-0.0001680724872492013,-0.0006742814429187945,-0.9935259779284856,-0.11360302934966604,0.01,0.01,0.0
181.83,636,map,base_link,-0.009089158593885482,-0.011095791413004985,7.962,-0.000295704059470324,-0.0007423275215088746,-0.993533554421836,-0.11353606364002838,0.01,0.01,0.0
182.08,637,map,base_link,-0.009089158593885482,-0.011095791413004985,7.962,-0.0003865443587449222,-0.0006974410005249589,-0.993545616581062,-0.11343047179689736,0.01,0.01,0.0
182.33,638,map,base_link,-0.009089158593885482,-0.011095791413004985,7.962,-0.0004420817560820356,-0.0006679035485271162,-0.9935648519099121,-0.11326183610468721,0.01,0.01,0.0
182.58,639,map,base_link,-0.009089158593885482,-0.011095791413004985,7.962,-0.00045043275910245723,-0.000787460776541707,-0.9935692143010327,-0.11322276011952614,0.01,0.01,0.0
182.83,640,map,base_link,-0.009089158593885482,-0.011095791413004985,7.963,-0.0003854518561550731,-0.0009038340885925512,-0.9935637936056674,-0.11326968944391685,0.01,0.01,0.0
183.08,641,map,base_link,-0.009089158593885482,-0.011095791413004985,7.963,-0.00032496444940121466,-0.0009192972044210578,-0.9935625927552069,-0.11328028764223524,0.01,0.01,0.0
183.33,642,map,base_link,-0.009089158270213726,-0.011095790881955114,7.955,-0.0002839442144153989,-0.0009261705716748697,-0.9935641203060195,-0.11326694321063246,0.01,0.01,0.1
183.58,643,map,base_link,-0.009089158392670438,-0.011095791128608035,7.896,-0.0002532819470300382,-0.0009972074042361053,-0.9935728918677927,-0.11318944284304827,0.01,0.01,0.33
183.831,644,map,base_link,-0.009089158006533538,-0.011095790467827271,7.785,-0.00024368099823597947,-0.0010276932285362649,-0.9935703997349586,-0.11321106499239925,0.01,0.01,0.46
184.081,645,map,base_link,-0.009089158005296749,-0.011095790651296955,7.653,-0.00022956113594233338,-0.00105505386602538,-0.9935709735767986,-0.1132058065148489,0.01,0.01,0.51
184.331,646,map,base_link,-0.009089158080228366,-0.011095790545324391,7.518,-0.00023463630469521403,-0.0009775460576273687,-0.9935737298104295,-0.11318229888150122,0.01,0.01,0.51
184.581,647,map,base_link,-0.009089157601630315,-0.011095790265972294,7.388,-0.0005290306677297066,-0.0009491383239015973,-0.9935736856980446,-0.11318193473959626,0.01,0.01,0.5
184.831,648,map,base_link,-0.00908915736918292,-0.011095789536964329,7.263,-0.0007158872192174062,-0.0009229890081292765,-0.9935642687138521,-0.11326376089415613,0.01,0.01,0.49
185.081,649,map,base_link,-0.009089157214256627,-0.011095789788661659,7.141,-0.0007628764774375179,-0.0009152242635948421,-0.9935679792746273,-0.11323096283332162,0.01,0.01,0.49
185.331,650,map,base_link,-0.009089157213020727,-0.011095789972130898,7.019,-0.0007390929730991526,-0.0008704384390551235,-0.9935667961160672,-0.1132418550455358,0.01,0.01,0.49
185.581,651,map,base_link,-0.009089156980572444,-0.011095789622868946,6.898,-0.0006483647232041357,-0.0008596231974035602,-0.9935722152836476,-0.11319493666895813,0.01,0.01,0.49
185.831,652,map,base_link,-0.009089156825647038,-0.011095789494820263,6.775,-0.0005388481650316671,-0.0009576362014950072,-0.9935751579727057,-0.11316889164020838,0.01,0.01,0.49
186.081,653,map,base_link,-0.009089156515677654,-0.01109578854459814,6.651,-0.0004691188237360129,-0.0009456819012914624,-0.9935851547148691,-0.11308150133200612,0.01,0.01,0.49
186.331,654,map,base_link,-0.009089156114601149,-0.011095788866206213,6.526,-0.0003813689230762619,-0.0009609721100724834,-0.9935816553672923,-0.11311244497375,0.02,0.01,0.49
186.581,655,map,base_link,-0.00908915635951546,-0.011095788600018697,6.402,-0.000238403640033302,-0.0011353569973785664,-0.9935803013013774,-0.1131231143226562,0.01,0.01,0.49
186.831,656,map,base_link,-0.00908915588091741,-0.0110957883206666,6.276,-0.00020706746177743217,-0.0011787689022165354,-0.9935731317101455,-0.1131856862444846,0.01,0.01,0.49
187.081,657,map,base_link,-0.009089155648469571,-0.011095787971404647,6.151,-0.00021645949085663822,-0.0012017180897285309,-0.9935662408024152,-0.1132459012798202,0.01,0.01,0.49
187.331,658,map,base_link,-0.009089155569711238,-0.01109578755391416,6.026,-0.000205252817197927,-0.0012193735772719637,-0.9935636887284134,-0.1132681219043935,0.01,0.01,0.49
187.581,659,map,base_link,-0.009089155414785832,-0.011095787805611934,5.901,-0.0002904866341583325,-0.0011161308107692327,-0.9935636372637489,-0.11326945120710435,0.01,0.01,0.49
187.831,660,map,base_link,-0.009089155336027055,-0.011095787388121003,5.775,-0.00029948356319275694,-0.0010646624841509048,-0.9935608824072115,-0.11329408525423279,0.01,0.01,0.49
188.081,661,map,base_link,-0.009089154703739943,-0.011095786797250984,5.65,-0.0003054844383378617,-0.0009965486353739552,-0.9935625644283825,-0.11327993704346578,0.01,0.01,0.49
188.33,662,map,base_link,-0.009089154702503377,-0.011095786980720668,5.524,-0.00013485179713276058,-0.0008940215577356592,-0.9935604846720529,-0.11329936380528638,0.01,0.01,0.49
188.581,663,map,base_link,-0.009089154623745266,-0.011095786563230181,5.399,4.4830740964221663e-05,-0.0008712746947010008,-0.9935609342904276,-0.11329566947833342,0.01,0.01,0.49
188.831,664,map,base_link,-0.009089154468819416,-0.01109578681492751,5.273,7.912909623048272e-05,-0.0008233989356099736,-0.9935602481061753,-0.11330202617770974,0.01,0.01,0.49
189.081,665,map,base_link,-0.009089154390061305,-0.011095786397437024,5.147,5.430142713510098e-05,-0.0008464736471078881,-0.993561143862242,-0.11329401546804008,0.01,0.01,0.49
189.331,666,map,base_link,-0.009089154157613688,-0.011095785668428615,5.022,-2.47682611851687e-05,-0.0009154189403997192,-0.9935637105146953,-0.11327097837914124,0.01,0.01,0.49
189.581,667,map,base_link,-0.009089154156377122,-0.011095785851897855,4.897,-0.00015445757784655813,-0.0008941408756718781,-0.9935655071384399,-0.11325528543818913,0.01,0.01,0.49
189.832,668,map,base_link,-0.009089153923929727,-0.011095785502635458,4.77,-0.00028436613789799953,-0.0008635972980639252,-0.9935665313007529,-0.11324628565474737,0.01,0.01,0.49
190.082,669,map,base_link,-0.009089153522853444,-0.011095785824243531,4.645,-0.00030437855548923063,-0.0008822522433890429,-0.9935699400855158,-0.1132161788047033,0.01,0.01,0.49
190.332,670,map,base_link,-0.009089153690245544,-0.011095785336842745,4.52,-0.0003275475317795699,-0.000941567608706894,-0.9935725745328519,-0.11319251432499028,0.01,0.01,0.49
190.582,671,map,base_link,-0.009089153689008977,-0.011095785140565528,4.394,-0.0003063347027835385,-0.0009208514205616319,-0.9935704723778492,-0.11321119472282215,0.01,0.01,0.49
190.832,672,map,base_link,-0.00908915321041115,-0.011095784861213653,4.269,-0.0003116730049345077,-0.00090910980991077,-0.993566695729631,-0.11324441494481996,0.01,0.01,0.49
191.082,673,map,base_link,-0.009089152977963533,-0.0110957845119517,4.143,-0.00029591215044243516,-0.0009356773203459389,-0.9935650681026258,-0.11325852016592924,0.01,0.01,0.49
191.332,674,map,base_link,-0.009089152899205422,-0.011095784094460992,4.018,-0.00031237825679963894,-0.000907652693960271,-0.9935710160982281,-0.11320651286894479,0.01,0.01,0.49
191.582,675,map,base_link,-0.009089152744279572,-0.011095784346158766,3.893,-0.0003352900721031364,-0.0008551186252225561,-0.9935681816363282,-0.1132317305024721,0.01,0.01,0.49
191.832,676,map,base_link,-0.00908915266552146,-0.011095783928668057,3.767,-0.0003501396356337738,-0.0008942223351885742,-0.9935737116069081,-0.11318284928523137,0.01,0.01,0.49
192.082,677,map,base_link,-0.009089152033233905,-0.011095783337798037,3.642,-0.0003641403123022972,-0.0008799090818221075,-0.9935767896788635,-0.113155893232673,0.01,0.01,0.49
192.332,678,map,base_link,-0.009089152031997338,-0.011095783521267721,3.517,-0.0003585200001779936,-0.0008385028290815839,-0.9935715975736413,-0.11320180595457535,0.01,0.01,0.49
192.582,679,map,base_link,-0.009089151877071489,-0.011095783772965273,3.391,-0.0003602003176992311,-0.0008567804292054046,-0.9935689638422569,-0.11322477764363831,0.01,0.01,0.48
192.832,680,map,base_link,-0.009089151798313377,-0.011095783355474564,3.266,-0.00036504519390358084,-0.0008878051957333651,-0.9935702522054455,-0.11321321688013497,0.01,0.01,0.48
193.082,681,map,base_link,-0.00908915156586576,-0.011095782626466155,3.141,-0.00047832918123056495,-0.0009653801554267812,-0.9935683662942358,-0.11322870988293277,0.01,0.01,0.48
193.332,682,map,base_link,-0.00908915108726771,-0.01109578234711428,3.015,-0.0006313137591706497,-0.0009900828699726351,-0.9935668804163886,-0.1132407846956815,0.01,0.01,0.48
193.582,683,map,base_link,-0.0090891513321818,-0.011095782460673442,2.89,-0.0007405217019505292,-0.0007990781730649834,-0.9935679637627199,-0.11323212656346454,0.01,0.01,0.48
193.832,684,map,base_link,-0.009089151253423577,-0.011095782043182734,2.765,-0.0007315271459693863,-0.0006781015956797249,-0.9935670652529102,-0.11324085786932231,0.01,0.01,0.48
194.082,685,map,base_link,-0.009089150621136133,-0.01109578183205917,2.639,-0.000710998100139542,-0.0006140240684134857,-0.9935652656649332,-0.11325714246931845,0.01,0.01,0.48
194.332,686,map,base_link,-0.009089150619899677,-0.01109578201552841,2.514,-0.0006809122294809572,-0.0005780751114168234,-0.9935652962801631,-0.11325724795973685,0.01,0.01,0.48
194.582,687,map,base_link,-0.009089150141301627,-0.011095781736176313,2.389,-0.000499667948999056,-0.0007067834143721116,-0.9935640959478674,-0.11326799209151239,0.01,0.01,0.48
194.832,688,map,base_link,-0.009089150386215605,-0.011095781469989241,2.264,-0.00043931871645982155,-0.0007307093103641867,-0.9935645411323393,-0.11326418528137172,0.02,0.01,0.48
195.082,689,map,base_link,-0.009089150307457494,-0.011095781052498754,2.139,-0.0004041893606880995,-0.0008034649688918048,-0.9935583270561996,-0.113318320726572,0.02,0.01,0.48
195.332,690,map,base_link,-0.009089149675169939,-0.01109578084137508,2.014,-0.00032314898534129504,-0.000826304067720013,-0.9935619770569064,-0.11328640934857293,0.01,0.01,0.48
195.582,691,map,base_link,-0.009089149596411938,-0.011095780423884372,1.889,-0.00029283713081690494,-0.0008569707229683585,-0.9935552578988107,-0.11334517788253023,0.01,0.01,0.48
195.833,692,map,base_link,-0.009089149441486088,-0.01109578029583591,1.764,-0.00032072893497560903,-0.0008929162331622859,-0.9935601185795497,-0.11330220916531941,0.01,0.01,0.48
196.083,693,map,base_link,-0.009089149362727866,-0.011095779878345202,1.639,-0.0003049177886167703,-0.0008958596507603484,-0.9935576675288602,-0.11332372106156358,0.01,0.01,0.48
196.333,694,map,base_link,-0.00908914913028025,-0.011095779529083027,1.514,-0.0003080753244821832,-0.000913398825029059,-0.9935583402852395,-0.11331767400463533,0.01,0.01,0.48
196.583,695,map,base_link,-0.009089148729203966,-0.011095779850690879,1.389,-0.00034130766162205977,-0.000951836453417884,-0.9935587168657226,-0.11331396055466697,0.01,0.01,0.48
196.833,696,map,base_link,-0.009089148974117944,-0.011095779964250152,1.264,-0.00037225904349225564,-0.0009085477231706071,-0.9935593632872897,-0.11330855037637161,0.01,0.01,0.48
197.083,697,map,base_link,-0.009089148895359778,-0.011095779546759443,1.139,-0.00036534042001324827,-0.000867745997894294,-0.9935555298846361,-0.11334250120286088,0.01,0.01,0.48
197.333,698,map,base_link,-0.009089148263072278,-0.01109577895588959,1.014,-0.0002952140094929648,-0.0008125708691938885,-0.9935567394534116,-0.11333251106357994,0.01,0.01,0.48
197.583,699,map,base_link,-0.009089148184314111,-0.011095778538398993,0.889,-9.33457877843904e-05,-0.0008289045511995638,-0.9935596974803816,-0.11330680361964784,0.01,0.01,0.48
197.833,700,map,base_link,-0.009089148029388261,-0.01109577879009671,0.764,2.195612943501192e-05,-0.0007834731321510395,-0.9935579385148312,-0.11332258601858158,0.01,0.01,0.48
198.083,701,map,base_link,-0.009089147950630094,-0.011095778372606113,0.639,3.090482993963856e-05,-0.0008236352507509531,-0.9935489921546868,-0.11340070924941986,0.01,0.01,0.48
198.333,702,map,base_link,-0.009089147795704217,-0.011095778244557514,0.514,2.6408411781646025e-06,-0.0008212443888167246,-0.9935550385151933,-0.11334774365532169,0.01,0.01,0.48
198.583,703,map,base_link,-0.009089147716946078,-0.011095777827066944,0.389,-9.496262526560267e-05,-0.0008497103163234239,-0.9935566809498972,-0.11333309628834054,0.01,0.01,0.48
198.833,704,map,base_link,-0.009089147484498461,-0.01109577747780481,0.264,-0.0002084478460724202,-0.0008766517336696213,-0.993552577838728,-0.11336870424085832,0.01,0.01,0.48
199.083,705,map,base_link,-0.00908914708342217,-0.011095777799412607,0.138,-0.0002720741035985758,-0.0009214739966373062,-0.9935484339073917,-0.11340452522507727,0.01,0.01,0.48
199.333,706,map,base_link,-0.009089147390801074,-0.011095777283209395,0.112,-0.00027750381115138636,-0.000882816269521657,-0.9935523399525359,-0.11337059319730852,0.01,0.01,0.01
199.583,707,map,base_link,-0.00908914708342217,-0.011095777799412607,0.138,-0.0002830624675324133,-0.000880970588823792,-0.9935529757692675,-0.11336502152998673,0.01,0.01,0.0
199.833,708,map,base_link,9.12245209927498e-11,-1.9795869804495325e-10,0.146,-0.00028708098573967966,-0.0008782497789926747,-0.9935534976892607,-0.11336045823508939,0.01,0.01,0.0
200.083,709,map,base_link,9.12245209927498e-11,-1.9795869804495325e-10,0.146,-0.00029042753485754557,-0.0008751148847416903,-0.9935537632917628,-0.11335814604412531,0.01,0.01,0.0
200.333,710,map,base_link,9.12245209927498e-11,-1.9795869804495325e-10,0.142,-0.0002909063252388117,-0.0008717643013867559,-0.9935539349938951,-0.11335666570016861,0.01,0.01,0.0
200.583,711,map,base_link,-6.246492212369503e-11,-1.2973027513352164e-10,0.137,-0.00028817260509295887,-0.0008680375535776013,-0.9935539319254815,-0.11335672817601428,0.01,0.01,0.0
