Time,header.seq,header.stamp.secs,header.stamp.nsecs,header.frame_id,orientation.x,orientation.y,orientation.z,orientation.w,orientation_covariance_0,orientation_covariance_1,orientation_covariance_2,orientation_covariance_3,orientation_covariance_4,orientation_covariance_5,orientation_covariance_6,orientation_covariance_7,orientation_covariance_8,angular_velocity.x,angular_velocity.y,angular_velocity.z,angular_velocity_covariance_0,angular_velocity_covariance_1,angular_velocity_covariance_2,angular_velocity_covariance_3,angular_velocity_covariance_4,angular_velocity_covariance_5,angular_velocity_covariance_6,angular_velocity_covariance_7,angular_velocity_covariance_8,linear_acceleration.x,linear_acceleration.y,linear_acceleration.z,linear_acceleration_covariance_0,linear_acceleration_covariance_1,linear_acceleration_covariance_2,linear_acceleration_covariance_3,linear_acceleration_covariance_4,linear_acceleration_covariance_5,linear_acceleration_covariance_6,linear_acceleration_covariance_7,linear_acceleration_covariance_8
114.817,368,114,824221702,base_link,-0.0015721543949711455,-0.002151182413204934,-0.9951137495643637,-0.09869917007116374,1.0,0.0,0.0,0.0,1.0,0.0,0.0,0.0,1.0,0.0009294184856116772,0.003473187563940869,-0.11371462047100067,1.2184696791468346e-07,0.0,0.0,0.0,1.2184696791468346e-07,0.0,0.0,0.0,1.2184696791468346e-07,0.0,1.2970457135487062e-15,10.591182,8.999999999999999e-08,0.0,0.0,0.0,8.999999999999999e-08,0.0,0.0,0.0,8.999999999999999e-08
115.067,369,115,74283256,base_link,-0.0012271248406885878,-0.0019315070325534478,-0.9940646677565282,-0.10876672176411023,1.0,0.0,0.0,0.0,1.0,0.0,0.0,0.0,1.0,-0.0005695417639799416,0.0024207853712141436,-0.06440312415361404,1.2184696791468346e-07,0.0,0.0,0.0,1.2184696791468346e-07,0.0,0.0,0.0,1.2184696791468346e-07,0.0,1.3018495865618495e-15,10.6304086,8.999999999999999e-08,0.0,0.0,0.0,8.999999999999999e-08,0.0,0.0,0.0,8.999999999999999e-08
115.317,370,115,324369106,base_link,-0.001034799756004795,-0.0016398826735170486,-0.9934336500361878,-0.11439328192712817,1.0,0.0,0.0,0.0,1.0,0.0,0.0,0.0,1.0,-0.003371697850525379,0.0005800466751679735,-0.03559376299381256,1.2184696791468346e-07,0.0,0.0,0.0,1.2184696791468346e-07,0.0,0.0,0.0,1.2184696791468346e-07,0.0,1.306653459574993e-15,10.6696352,8.999999999999999e-08,0.0,0.0,0.0,8.999999999999999e-08,0.0,0.0,0.0,8.999999999999999e-08
115.567,371,115,574429148,base_link,-0.0010182969564650486,-0.0014574608793906873,-0.993085717631526,-0.11737800609726817,1.0,0.0,0.0,0.0,1.0,0.0,0.0,0.0,1.0,0.0006523538613691926,-0.0006785184377804421,-0.018778394907712936,1.2184696791468346e-07,0.0,0.0,0.0,1.2184696791468346e-07,0.0,0.0,0.0,1.2184696791468346e-07,0.0,1.1961643802726959e-15,9.7674234,8.999999999999999e-08,0.0,0.0,0.0,8.999999999999999e-08,0.0,0.0,0.0,8.999999999999999e-08
115.817,372,115,824512933,base_link,-0.0010441087045318725,-0.0013819372286309867,-0.9929202823333585,-0.1187700004948759,1.0,0.0,0.0,0.0,1.0,0.0,0.0,0.0,1.0,-0.0007143337861634791,9.346287697552637e-06,-0.008148511871695518,1.2184696791468346e-07,0.0,0.0,0.0,1.2184696791468346e-07,0.0,0.0,0.0,1.2184696791468346e-07,0.0,1.119302412062402e-15,9.1397978,8.999999999999999e-08,0.0,0.0,0.0,8.999999999999999e-08,0.0,0.0,0.0,8.999999999999999e-08
116.067,373,116,74566603,base_link,-0.0010608015797701116,-0.001270464376839859,-0.9928560656052767,-0.11930672072890869,1.0,0.0,0.0,0.0,1.0,0.0,0.0,0.0,1.0,-0.0031853343825787306,-0.00011233438272029209,-0.003920826595276594,1.2184696791468346e-07,0.0,0.0,0.0,1.2184696791468346e-07,0.0,0.0,0.0,1.2184696791468346e-07,0.0,1.0952830469966852e-15,8.9436648,8.999999999999999e-08,0.0,0.0,0.0,8.999999999999999e-08,0.0,0.0,0.0,8.999999999999999e-08
116.317,374,116,324649838,base_link,-0.001104571118322222,-0.0011964596432567764,-0.9928412897090197,-0.11942998725570125,1.0,0.0,0.0,0.0,1.0,0.0,0.0,0.0,1.0,-0.001516349846497178,-0.0005986000178381802,-0.0009337925584986805,1.2184696791468346e-07,0.0,0.0,0.0,1.2184696791468346e-07,0.0,0.0,0.0,1.2184696791468346e-07,0.0,1.090479173983542e-15,8.9044382,8.999999999999999e-08,0.0,0.0,0.0,8.999999999999999e-08,0.0,0.0,0.0,8.999999999999999e-08
116.567,375,116,573703143,base_link,-0.0011365795756676502,-0.001204763460844807,-0.9939924844662886,-0.10943581477928738,1.0,0.0,0.0,0.0,1.0,0.0,0.0,0.0,1.0,-0.0019309483468532562,-0.0005509520415216752,-0.05515115335583687,1.2184696791468346e-07,0.0,0.0,0.0,1.2184696791468346e-07,0.0,0.0,0.0,1.2184696791468346e-07,0.0,1.202169221539125e-15,9.81645665,8.999999999999999e-08,0.0,0.0,0.0,8.999999999999999e-08,0.0,0.0,0.0,8.999999999999999e-08
116.817,376,116,823782836,base_link,-0.0011201430341232523,-0.0011392141518865063,-0.9934310797624815,-0.1144208776082799,1.0,0.0,0.0,0.0,1.0,0.0,0.0,0.0,1.0,0.0026353951543569565,-7.099460344761935e-05,-0.026504812762141228,1.2184696791468346e-07,0.0,0.0,0.0,1.2184696791468346e-07,0.0,0.0,0.0,1.2184696791468346e-07,0.0,1.3186631421078516e-15,10.7677017,8.999999999999999e-08,0.0,0.0,0.0,8.999999999999999e-08,0.0,0.0,0.0,8.999999999999999e-08
117.067,377,117,73839913,base_link,-0.0011436347243828017,-0.001244233505467483,-0.9931809747694452,-0.116570559484869,1.0,0.0,0.0,0.0,1.0,0.0,0.0,0.0,1.0,-0.00030013552168384194,0.0012791829649358977,-0.009276025928556919,1.2184696791468346e-07,0.0,0.0,0.0,1.2184696791468346e-07,0.0,0.0,0.0,1.2184696791468346e-07,0.0,1.3414815389202825e-15,10.95402805,8.999999999999999e-08,0.0,0.0,0.0,8.999999999999999e-08,0.0,0.0,0.0,8.999999999999999e-08
117.318,378,117,324919081,base_link,-0.0012620768644158295,-0.0014103285036188762,-0.9930648906105225,-0.11755229122484667,1.0,0.0,0.0,0.0,1.0,0.0,0.0,0.0,1.0,0.004120933823287487,0.00020061561372131036,-0.005909718573093414,1.2184696791468346e-07,0.0,0.0,0.0,1.2184696791468346e-07,0.0,0.0,0.0,1.2184696791468346e-07,0.0,1.3390796024137108e-15,10.93441475,8.999999999999999e-08,0.0,0.0,0.0,8.999999999999999e-08,0.0,0.0,0.0,8.999999999999999e-08
117.568,379,117,574971683,base_link,-0.001328470134520085,-0.0016797624703679826,-0.9930162364946213,-0.11795833002888345,1.0,0.0,0.0,0.0,1.0,0.0,0.0,0.0,1.0,0.006918945349752903,-0.0008023792179301385,-0.003212990239262581,1.2184696791468346e-07,0.0,0.0,0.0,1.2184696791468346e-07,0.0,0.0,0.0,1.2184696791468346e-07,0.0,1.329471856387424e-15,10.85596155,8.999999999999999e-08,0.0,0.0,0.0,8.999999999999999e-08,0.0,0.0,0.0,8.999999999999999e-08
117.818,380,117,825051832,base_link,-0.004450988363447606,-0.042963469652473836,-0.9873276647245506,-0.1527036720173242,1.0,0.0,0.0,0.0,1.0,0.0,0.0,0.0,1.0,0.5150396227836609,0.03559407219290726,-0.606666624546051,1.2184696791468346e-07,0.0,0.0,0.0,1.2184696791468346e-07,0.0,0.0,0.0,1.2184696791468346e-07,0.0,1.3174621738545654e-15,10.75789505,8.999999999999999e-08,0.0,0.0,0.0,8.999999999999999e-08,0.0,0.0,0.0,8.999999999999999e-08
118.068,381,118,75104095,base_link,0.0010673830118001226,-0.11611481184341763,-0.9625691077147198,-0.2449018661369532,1.0,0.0,0.0,0.0,1.0,0.0,0.0,0.0,1.0,0.5869528651237488,0.1538148373365401,-0.8476935625076294,1.2184696791468346e-07,0.0,0.0,0.0,1.2184696791468346e-07,0.0,0.0,0.0,1.2184696791468346e-07,0.0,1.1985663167792674e-15,9.7870367,8.999999999999999e-08,0.0,0.0,0.0,8.999999999999999e-08,0.0,0.0,0.0,8.999999999999999e-08
118.318,382,118,325182241,base_link,0.019592431151282418,-0.1489390793267398,-0.9241011950374279,-0.3513833641783329,1.0,0.0,0.0,0.0,1.0,0.0,0.0,0.0,1.0,-0.030076414346694946,-0.015866769477725147,-0.9544468522071838,1.2184696791468346e-07,0.0,0.0,0.0,1.2184696791468346e-07,0.0,0.0,0.0,1.2184696791468346e-07,0.0,1.140919840621547e-15,9.3163175,8.999999999999999e-08,0.0,0.0,0.0,8.999999999999999e-08,0.0,0.0,0.0,8.999999999999999e-08
118.568,383,118,575234173,base_link,0.022674833326428556,-0.09262370108844623,-0.8787908940680719,-0.4675823632616354,1.0,0.0,0.0,0.0,1.0,0.0,0.0,0.0,1.0,-0.4653281569480896,-0.4496459960937501,-1.0374054908752441,1.2184696791468346e-07,0.0,0.0,0.0,1.2184696791468346e-07,0.0,0.0,0.0,1.2184696791468346e-07,0.0,1.1397188723682611e-15,9.30651085,8.999999999999999e-08,0.0,0.0,0.0,8.999999999999999e-08,0.0,0.0,0.0,8.999999999999999e-08
118.818,384,118,825314829,base_link,0.0036636090127637596,-0.021197190001547905,-0.8124402460579386,-0.5826474952236183,1.0,0.0,0.0,0.0,1.0,0.0,0.0,0.0,1.0,-0.2640727460384369,-0.4388042390346528,-1.0874909162521362,1.2184696791468346e-07,0.0,0.0,0.0,1.2184696791468346e-07,0.0,0.0,0.0,1.2184696791468346e-07,0.0,0.019613300000001114,9.100571200000001,8.999999999999999e-08,0.0,0.0,0.0,8.999999999999999e-08,0.0,0.0,0.0,8.999999999999999e-08
119.068,385,119,75369437,base_link,-0.01696079694718436,0.02019150702986978,-0.7253039877916588,-0.6879235129753134,1.0,0.0,0.0,0.0,1.0,0.0,0.0,0.0,1.0,-0.09228499233722687,-0.24930365383625044,-1.0577538013458252,1.2184696791468346e-07,0.0,0.0,0.0,1.2184696791468346e-07,0.0,0.0,0.0,1.2184696791468346e-07,0.0,0.029419950000001104,8.99269805,8.999999999999999e-08,0.0,0.0,0.0,8.999999999999999e-08,0.0,0.0,0.0,8.999999999999999e-08
119.318,386,119,325449615,base_link,-0.027882031975461942,0.03436484189319439,-0.6553631370562957,-0.7540164510952703,1.0,0.0,0.0,0.0,1.0,0.0,0.0,0.0,1.0,-0.017948083579540253,-0.07143355906009681,-0.5593944191932678,1.2184696791468346e-07,0.0,0.0,0.0,1.2184696791468346e-07,0.0,0.0,0.0,1.2184696791468346e-07,-0.00980665,0.019613300000001103,9.0025047,8.999999999999999e-08,0.0,0.0,0.0,8.999999999999999e-08,0.0,0.0,0.0,8.999999999999999e-08
119.568,387,119,574506909,base_link,-0.029352982378149425,0.03410687948394442,-0.6170663047917608,-0.7856235095056773,1.0,0.0,0.0,0.0,1.0,0.0,0.0,0.0,1.0,-0.0032935193739831448,0.03581959009170529,-0.28601065278053284,1.2184696791468346e-07,0.0,0.0,0.0,1.2184696791468346e-07,0.0,0.0,0.0,1.2184696791468346e-07,-0.00980665,0.019613300000001097,8.95347145,8.999999999999999e-08,0.0,0.0,0.0,8.999999999999999e-08,0.0,0.0,0.0,8.999999999999999e-08
119.818,388,119,824585120,base_link,-0.025160601903146656,0.028207547931764113,-0.5973404509172602,-0.801096538532974,1.0,0.0,0.0,0.0,1.0,0.0,0.0,0.0,1.0,-0.011356922797858715,0.0817163363099098,-0.14203937351703644,1.2184696791468346e-07,0.0,0.0,0.0,1.2184696791468346e-07,0.0,0.0,0.0,1.2184696791468346e-07,-0.00980665,0.00980665000000109,8.89463155,8.999999999999999e-08,0.0,0.0,0.0,8.999999999999999e-08,0.0,0.0,0.0,8.999999999999999e-08
120.068,389,120,74636105,base_link,-0.019057656428197012,0.021499013480269048,-0.5878803620160901,-0.8084375536222146,1.0,0.0,0.0,0.0,1.0,0.0,0.0,0.0,1.0,-0.012997640296816826,0.07643046975135802,-0.06681175529956819,1.2184696791468346e-07,0.0,0.0,0.0,1.2184696791468346e-07,0.0,0.0,0.0,1.2184696791468346e-07,-0.00980665,0.009806650000001098,8.95347145,8.999999999999999e-08,0.0,0.0,0.0,8.999999999999999e-08,0.0,0.0,0.0,8.999999999999999e-08
120.319,390,120,325716861,base_link,-0.013550978641011442,0.015881650730569553,-0.583951114572677,-0.8115203262625473,1.0,0.0,0.0,0.0,1.0,0.0,0.0,0.0,1.0,-0.007777802180498838,0.05070733278989792,-0.023594638332724578,1.2184696791468346e-07,0.0,0.0,0.0,1.2184696791468346e-07,0.0,0.0,0.0,1.2184696791468346e-07,-0.00980665,1.1205033803156879e-15,9.14960445,8.999999999999999e-08,0.0,0.0,0.0,8.999999999999999e-08,0.0,0.0,0.0,8.999999999999999e-08
120.569,391,120,575767550,base_link,-0.009603008977056461,0.011967597685683735,-0.5829986228432569,-0.8123282369751074,1.0,0.0,0.0,0.0,1.0,0.0,0.0,0.0,1.0,-0.007570616435259581,0.037712108343839645,-0.004248853772878651,1.2184696791468346e-07,0.0,0.0,0.0,1.2184696791468346e-07,0.0,0.0,0.0,1.2184696791468346e-07,-0.00980665,1.1493266183945482e-15,9.38496405,8.999999999999999e-08,0.0,0.0,0.0,8.999999999999999e-08,0.0,0.0,0.0,8.999999999999999e-08
120.819,392,120,825841865,base_link,-0.007366605197856964,0.009570611080868112,-0.5836382447108432,-0.8119239717130192,1.0,0.0,0.0,0.0,1.0,0.0,0.0,0.0,1.0,-0.00020311784464865923,0.02195582166314125,0.0110944639891386,1.2184696791468346e-07,0.0,0.0,0.0,1.2184696791468346e-07,0.0,0.0,0.0,1.2184696791468346e-07,-0.00980665,1.1697430787004075e-15,9.551677100000001,8.999999999999999e-08,0.0,0.0,0.0,8.999999999999999e-08,0.0,0.0,0.0,8.999999999999999e-08
121.069,393,121,75896391,base_link,-0.006603502316407426,0.008627246387614395,-0.585233142222087,-0.8107922875939231,1.0,0.0,0.0,0.0,1.0,0.0,0.0,0.0,1.0,-0.0008420933736488223,0.004834839608520271,0.017468007281422615,1.2184696791468346e-07,0.0,0.0,0.0,1.2184696791468346e-07,0.0,0.0,0.0,1.2184696791468346e-07,0.0,1.1841546977398374e-15,9.6693569,8.999999999999999e-08,0.0,0.0,0.0,8.999999999999999e-08,0.0,0.0,0.0,8.999999999999999e-08
121.319,394,121,325973274,base_link,-0.006853710688258731,0.008636246699200047,-0.587304438363898,-0.8092910098171229,1.0,0.0,0.0,0.0,1.0,0.0,0.0,0.0,1.0,0.0033765435218811035,-0.005175388418138025,0.022459421306848526,1.2184696791468346e-07,0.0,0.0,0.0,1.2184696791468346e-07,0.0,0.0,0.0,1.2184696791468346e-07,0.0,1.1925614755128384e-15,9.73800345,8.999999999999999e-08,0.0,0.0,0.0,8.999999999999999e-08,0.0,0.0,0.0,8.999999999999999e-08
121.569,395,121,576024885,base_link,-0.0074816563443740065,0.00914714225464016,-0.5895696848499695,-0.8076310675753042,1.0,0.0,0.0,0.0,1.0,0.0,0.0,0.0,1.0,0.0038869353011250496,-0.007545980624854562,0.02124788798391819,1.2184696791468346e-07,0.0,0.0,0.0,1.2184696791468346e-07,0.0,0.0,0.0,1.2184696791468346e-07,0.0,1.1961643802726959e-15,9.7674234,8.999999999999999e-08,0.0,0.0,0.0,8.999999999999999e-08,0.0,0.0,0.0,8.999999999999999e-08
121.819,396,121,826107346,base_link,-0.008005869325703208,0.009814516361587087,-0.5918862852009729,-0.8059219606859713,1.0,0.0,0.0,0.0,1.0,0.0,0.0,0.0,1.0,-0.0024007451720535755,-0.004215655382722614,0.022852210327982903,1.2184696791468346e-07,0.0,0.0,0.0,1.2184696791468346e-07,0.0,0.0,0.0,1.2184696791468346e-07,0.0,1.1973653485259817e-15,9.77723005,8.999999999999999e-08,0.0,0.0,0.0,8.999999999999999e-08,0.0,0.0,0.0,8.999999999999999e-08
122.069,397,122,76164308,base_link,-0.008465561928618874,0.010187427781761151,-0.5941476776184142,-0.804246907210136,1.0,0.0,0.0,0.0,1.0,0.0,0.0,0.0,1.0,0.0011915185023099184,-0.003937911242246625,0.02096666395664215,1.2184696791468346e-07,0.0,0.0,0.0,1.2184696791468346e-07,0.0,0.0,0.0,1.2184696791468346e-07,0.0,1.1985663167792674e-15,9.7870367,8.999999999999999e-08,0.0,0.0,0.0,8.999999999999999e-08,0.0,0.0,0.0,8.999999999999999e-08
122.319,398,122,326243360,base_link,-0.008803396517238089,0.010343478064386099,-0.5963282156925296,-0.802625798140239,1.0,0.0,0.0,0.0,1.0,0.0,0.0,0.0,1.0,0.0033297045156359673,-0.0005977969849482155,0.019538821652531624,1.2184696791468346e-07,0.0,0.0,0.0,1.2184696791468346e-07,0.0,0.0,0.0,1.2184696791468346e-07,0.0,1.1997672850325534e-15,9.79684335,8.999999999999999e-08,0.0,0.0,0.0,8.999999999999999e-08,0.0,0.0,0.0,8.999999999999999e-08
122.569,399,122,575292928,base_link,-0.008735119689262674,0.010012353755744602,-0.5983830549614504,-0.8010999750288883,1.0,0.0,0.0,0.0,1.0,0.0,0.0,0.0,1.0,0.0027149999514222145,0.00515577429905534,0.016927635297179222,1.2184696791468346e-07,0.0,0.0,0.0,1.2184696791468346e-07,0.0,0.0,0.0,1.2184696791468346e-07,0.0,1.1997672850325534e-15,9.79684335,8.999999999999999e-08,0.0,0.0,0.0,8.999999999999999e-08,0.0,0.0,0.0,8.999999999999999e-08
122.819,400,122,825376081,base_link,-0.00837140165512461,0.009536590028688082,-0.6003032793476506,-0.7996717738481269,1.0,0.0,0.0,0.0,1.0,0.0,0.0,0.0,1.0,-0.003227026667445898,0.006328346673399213,0.018458032980561256,1.2184696791468346e-07,0.0,0.0,0.0,1.2184696791468346e-07,0.0,0.0,0.0,1.2184696791468346e-07,0.0,1.1997672850325534e-15,9.79684335,8.999999999999999e-08,0.0,0.0,0.0,8.999999999999999e-08,0.0,0.0,0.0,8.999999999999999e-08
123.069,401,123,75432514,base_link,-0.007704683939936684,0.008818493059494196,-0.6020718071066995,-0.7983560678749918,1.0,0.0,0.0,0.0,1.0,0.0,0.0,0.0,1.0,-0.002523528877645731,0.008545964956283571,0.017348594963550568,1.2184696791468346e-07,0.0,0.0,0.0,1.2184696791468346e-07,0.0,0.0,0.0,1.2184696791468346e-07,0.0,1.2009682532858392e-15,9.80665,8.999999999999999e-08,0.0,0.0,0.0,8.999999999999999e-08,0.0,0.0,0.0,8.999999999999999e-08
123.32,402,123,326512282,base_link,-0.007012177493066384,0.007961018108667894,-0.6038028947123358,-0.7970630564105221,1.0,0.0,0.0,0.0,1.0,0.0,0.0,0.0,1.0,-0.00018357497174292803,0.00925431586802006,0.014381786808371542,1.2184696791468346e-07,0.0,0.0,0.0,1.2184696791468346e-07,0.0,0.0,0.0,1.2184696791468346e-07,0.0,1.202169221539125e-15,9.81645665,8.999999999999999e-08,0.0,0.0,0.0,8.999999999999999e-08,0.0,0.0,0.0,8.999999999999999e-08
123.57,403,123,576561329,base_link,-0.006205683968410158,0.006993130142919605,-0.6054426476013123,-0.7958340191791262,1.0,0.0,0.0,0.0,1.0,0.0,0.0,0.0,1.0,0.0002570857759565115,0.009554886259138586,0.014793177135288714,1.2184696791468346e-07,0.0,0.0,0.0,1.2184696791468346e-07,0.0,0.0,0.0,1.2184696791468346e-07,0.0,1.202169221539125e-15,9.81645665,8.999999999999999e-08,0.0,0.0,0.0,8.999999999999999e-08,0.0,0.0,0.0,8.999999999999999e-08
123.82,404,123,826634716,base_link,-0.0056230301445934746,0.006067827130506195,-0.6069054420008838,-0.7947309906349562,1.0,0.0,0.0,0.0,1.0,0.0,0.0,0.0,1.0,0.001518861623480916,0.005968262907117607,0.012732642702758312,1.2184696791468346e-07,0.0,0.0,0.0,1.2184696791468346e-07,0.0,0.0,0.0,1.2184696791468346e-07,0.0,1.2009682532858392e-15,9.80665,8.999999999999999e-08,0.0,0.0,0.0,8.999999999999999e-08,0.0,0.0,0.0,8.999999999999999e-08
124.07,405,124,76687647,base_link,-0.005100199507830416,0.005255423240612868,-0.608203909088542,-0.793747046269124,1.0,0.0,0.0,0.0,1.0,0.0,0.0,0.0,1.0,0.003186402376741171,0.006042027845978739,0.012441461905837059,1.2184696791468346e-07,0.0,0.0,0.0,1.2184696791468346e-07,0.0,0.0,0.0,1.2184696791468346e-07,0.0,1.202169221539125e-15,9.81645665,8.999999999999999e-08,0.0,0.0,0.0,8.999999999999999e-08,0.0,0.0,0.0,8.999999999999999e-08
124.32,406,124,326760670,base_link,-0.004531942345113922,0.0042670575039124555,-0.6095611531618075,-0.7927146108625011,1.0,0.0,0.0,0.0,1.0,0.0,0.0,0.0,1.0,0.0025549987331032753,0.011503781192004682,0.01366586610674858,1.2184696791468346e-07,0.0,0.0,0.0,1.2184696791468346e-07,0.0,0.0,0.0,1.2184696791468346e-07,0.0,1.202169221539125e-15,9.81645665,8.999999999999999e-08,0.0,0.0,0.0,8.999999999999999e-08,0.0,0.0,0.0,8.999999999999999e-08
124.57,407,124,576809229,base_link,-0.003974748324934133,0.003255885245464776,-0.6107717978814986,-0.7917900046727185,1.0,0.0,0.0,0.0,1.0,0.0,0.0,0.0,1.0,0.00414861086755991,0.006120456848293544,0.010533392429351807,1.2184696791468346e-07,0.0,0.0,0.0,1.2184696791468346e-07,0.0,0.0,0.0,1.2184696791468346e-07,0.0,1.202169221539125e-15,9.81645665,8.999999999999999e-08,0.0,0.0,0.0,8.999999999999999e-08,0.0,0.0,0.0,8.999999999999999e-08
124.82,408,124,826883395,base_link,-0.003636226344086795,0.0026657234478455636,-0.6119132586069895,-0.7909120277992043,1.0,0.0,0.0,0.0,1.0,0.0,0.0,0.0,1.0,0.003311446402221918,0.00331932818517089,0.010016021318733692,1.2184696791468346e-07,0.0,0.0,0.0,1.2184696791468346e-07,0.0,0.0,0.0,1.2184696791468346e-07,0.0,1.202169221539125e-15,9.81645665,8.999999999999999e-08,0.0,0.0,0.0,8.999999999999999e-08,0.0,0.0,0.0,8.999999999999999e-08
125.07,409,125,76933224,base_link,-0.0032409921257834018,0.0020218515930043282,-0.6129449493371715,-0.7901163820401579,1.0,0.0,0.0,0.0,1.0,0.0,0.0,0.0,1.0,-0.0021595503203570843,0.004707594402134419,0.009775130078196526,1.2184696791468346e-07,0.0,0.0,0.0,1.2184696791468346e-07,0.0,0.0,0.0,1.2184696791468346e-07,0.0,1.202169221539125e-15,9.81645665,8.999999999999999e-08,0.0,0.0,0.0,8.999999999999999e-08,0.0,0.0,0.0,8.999999999999999e-08
125.32,410,125,327007046,base_link,-0.0028722968201841926,0.0014872566932822987,-0.6139282493713292,-0.7893552068633993,1.0,0.0,0.0,0.0,1.0,0.0,0.0,0.0,1.0,-0.0007566505810245872,0.006616644095629455,0.011273395270109177,1.2184696791468346e-07,0.0,0.0,0.0,1.2184696791468346e-07,0.0,0.0,0.0,1.2184696791468346e-07,0.0,1.2009682532858392e-15,9.80665,8.999999999999999e-08,0.0,0.0,0.0,8.999999999999999e-08,0.0,0.0,0.0,8.999999999999999e-08
125.57,411,125,576059649,base_link,-0.0024030100330565346,0.0010592996770893278,-0.6148326895136788,-0.7886531983909983,1.0,0.0,0.0,0.0,1.0,0.0,0.0,0.0,1.0,-0.0005096149398013949,0.0016252049244940292,0.008170056156814098,1.2184696791468346e-07,0.0,0.0,0.0,1.2184696791468346e-07,0.0,0.0,0.0,1.2184696791468346e-07,0.0,1.202169221539125e-15,9.81645665,8.999999999999999e-08,0.0,0.0,0.0,8.999999999999999e-08,0.0,0.0,0.0,8.999999999999999e-08
125.82,412,125,826134642,base_link,-0.002248513153070658,0.0008308735585305282,-0.6156789095109721,-0.7879934861539848,1.0,0.0,0.0,0.0,1.0,0.0,0.0,0.0,1.0,-0.0008547838078811765,-4.3118605390189655e-05,0.011618697084486485,1.2184696791468346e-07,0.0,0.0,0.0,1.2184696791468346e-07,0.0,0.0,0.0,1.2184696791468346e-07,0.0,1.202169221539125e-15,9.81645665,8.999999999999999e-08,0.0,0.0,0.0,8.999999999999999e-08,0.0,0.0,0.0,8.999999999999999e-08
126.07,413,126,76189655,base_link,-0.0020702160188906383,0.0005324015873444254,-0.6164140507179345,-0.7874192967102677,1.0,0.0,0.0,0.0,1.0,0.0,0.0,0.0,1.0,5.4301461204886436e-05,-0.0009816420497372736,0.008629104122519493,1.2184696791468346e-07,0.0,0.0,0.0,1.2184696791468346e-07,0.0,0.0,0.0,1.2184696791468346e-07,0.0,1.2009682532858392e-15,9.80665,8.999999999999999e-08,0.0,0.0,0.0,8.999999999999999e-08,0.0,0.0,0.0,8.999999999999999e-08
126.321,414,126,327262825,base_link,-0.0018228769341462469,0.00035548229854133684,-0.6171639893715362,-0.7868323588764182,1.0,0.0,0.0,0.0,1.0,0.0,0.0,0.0,1.0,-0.0005950856721028686,0.0034996094182133683,0.006703774444758892,1.2184696791468346e-07,0.0,0.0,0.0,1.2184696791468346e-07,0.0,0.0,0.0,1.2184696791468346e-07,0.0,1.2009682532858392e-15,9.80665,8.999999999999999e-08,0.0,0.0,0.0,8.999999999999999e-08,0.0,0.0,0.0,8.999999999999999e-08
126.571,415,126,577311999,base_link,-0.0018378776704778572,0.00039091683995758487,-0.617838811176461,-0.786302532613084,1.0,0.0,0.0,0.0,1.0,0.0,0.0,0.0,1.0,-0.003109695389866829,-0.0012896518455818287,0.006204822100698948,1.2184696791468346e-07,0.0,0.0,0.0,1.2184696791468346e-07,0.0,0.0,0.0,1.2184696791468346e-07,0.0,1.202169221539125e-15,9.81645665,8.999999999999999e-08,0.0,0.0,0.0,8.999999999999999e-08,0.0,0.0,0.0,8.999999999999999e-08
126.821,416,126,827387853,base_link,-0.001979558141573535,0.0004529701540829212,-0.6184996035386275,-0.7857824868181806,1.0,0.0,0.0,0.0,1.0,0.0,0.0,0.0,1.0,0.0013720323331654072,-0.0032642902806401244,0.005811926908791065,1.2184696791468346e-07,0.0,0.0,0.0,1.2184696791468346e-07,0.0,0.0,0.0,1.2184696791468346e-07,0.0,1.202169221539125e-15,9.81645665,8.999999999999999e-08,0.0,0.0,0.0,8.999999999999999e-08,0.0,0.0,0.0,8.999999999999999e-08
127.071,417,127,77439451,base_link,-0.0019549270509336687,0.00039543221192338886,-0.6190258905914384,-0.7853680466323214,1.0,0.0,0.0,0.0,1.0,0.0,0.0,0.0,1.0,0.004885302856564522,-9.601446799933844e-05,0.005447301547974348,1.2184696791468346e-07,0.0,0.0,0.0,1.2184696791468346e-07,0.0,0.0,0.0,1.2184696791468346e-07,0.0,1.202169221539125e-15,9.81645665,8.999999999999999e-08,0.0,0.0,0.0,8.999999999999999e-08,0.0,0.0,0.0,8.999999999999999e-08
127.321,418,127,327513648,base_link,-0.0017774818244636029,0.00025003933226993896,-0.6195455896406454,-0.7849586233652835,1.0,0.0,0.0,0.0,1.0,0.0,0.0,0.0,1.0,-0.003401518799364567,0.0034563122317194943,0.004391660913825035,1.2184696791468346e-07,0.0,0.0,0.0,1.2184696791468346e-07,0.0,0.0,0.0,1.2184696791468346e-07,0.0,1.2009682532858392e-15,9.80665,8.999999999999999e-08,0.0,0.0,0.0,8.999999999999999e-08,0.0,0.0,0.0,8.999999999999999e-08
127.571,419,127,577560920,base_link,-0.001654379758406275,0.00010297315852481982,-0.6200103025439406,-0.7845919176001719,1.0,0.0,0.0,0.0,1.0,0.0,0.0,0.0,1.0,-0.008307129144668579,0.0007072245934978134,0.005013143178075552,1.2184696791468346e-07,0.0,0.0,0.0,1.2184696791468346e-07,0.0,0.0,0.0,1.2184696791468346e-07,0.0,1.2009682532858392e-15,9.80665,8.999999999999999e-08,0.0,0.0,0.0,8.999999999999999e-08,0.0,0.0,0.0,8.999999999999999e-08
127.821,420,127,827633182,base_link,0.03309959069417881,0.025157759087442007,-0.6487027732961694,-0.7599053994882748,1.0,0.0,0.0,0.0,1.0,0.0,0.0,0.0,1.0,-0.5199365615844727,0.04218987002968796,0.6260027289390564,1.2184696791468346e-07,0.0,0.0,0.0,1.2184696791468346e-07,0.0,0.0,0.0,1.2184696791468346e-07,0.0,1.2009682532858392e-15,9.80665,8.999999999999999e-08,0.0,0.0,0.0,8.999999999999999e-08,0.0,0.0,0.0,8.999999999999999e-08
128.071,421,128,77685888,base_link,0.09720559899427524,0.057750296085080075,-0.7139850419342512,-0.6909712980438445,1.0,0.0,0.0,0.0,1.0,0.0,0.0,0.0,1.0,-0.5582306981086731,0.14666138589382183,0.8287286758422852,1.2184696791468346e-07,0.0,0.0,0.0,1.2184696791468346e-07,0.0,0.0,0.0,1.2184696791468346e-07,0.0,1.2045711580456967e-15,9.83606995,8.999999999999999e-08,0.0,0.0,0.0,8.999999999999999e-08,0.0,0.0,0.0,8.999999999999999e-08
128.321,422,128,327757551,base_link,0.12769550539022764,0.05792434475264231,-0.7829883189570076,-0.6060263365275396,1.0,0.0,0.0,0.0,1.0,0.0,0.0,0.0,1.0,0.08651331812143326,-0.049134790897369274,0.9205695986747742,1.2184696791468346e-07,0.0,0.0,0.0,1.2184696791468346e-07,0.0,0.0,0.0,1.2184696791468346e-07,0.0,1.2249876183515559e-15,10.002783,8.999999999999999e-08,0.0,0.0,0.0,8.999999999999999e-08,0.0,0.0,0.0,8.999999999999999e-08
128.571,423,128,577808486,base_link,0.07563145919182272,0.0250940078001436,-0.8561496315070254,-0.5105467477356275,1.0,0.0,0.0,0.0,1.0,0.0,0.0,0.0,1.0,0.49236413836479187,-0.4477121829986571,1.0008138418197632,1.2184696791468346e-07,0.0,0.0,0.0,1.2184696791468346e-07,0.0,0.0,0.0,1.2184696791468346e-07,-0.00980665,1.2502079516705585e-15,10.20872265,8.999999999999999e-08,0.0,0.0,0.0,8.999999999999999e-08,0.0,0.0,0.0,8.999999999999999e-08
128.821,424,128,827879123,base_link,0.007626509592779305,0.00312817290765944,-0.9177597510761937,-0.3970504882130913,1.0,0.0,0.0,0.0,1.0,0.0,0.0,0.0,1.0,0.2743986248970032,-0.3820129334926604,1.0558346509933472,1.2184696791468346e-07,0.0,0.0,0.0,1.2184696791468346e-07,0.0,0.0,0.0,1.2184696791468346e-07,-0.00980665,1.2273895548581276e-15,10.0223963,8.999999999999999e-08,0.0,0.0,0.0,8.999999999999999e-08,0.0,0.0,0.0,8.999999999999999e-08
129.071,425,129,76924877,base_link,-0.032886927400609486,-0.00225201807468005,-0.9618658515351863,-0.27152801341892707,1.0,0.0,0.0,0.0,1.0,0.0,0.0,0.0,1.0,0.08971768617630005,-0.1999176740646361,1.0264103412628174,1.2184696791468346e-07,0.0,0.0,0.0,1.2184696791468346e-07,0.0,0.0,0.0,1.2184696791468346e-07,-0.00980665,1.2105759993121259e-15,9.8851032,8.999999999999999e-08,0.0,0.0,0.0,8.999999999999999e-08,0.0,0.0,0.0,8.999999999999999e-08
129.321,426,129,326995998,base_link,-0.046475763829566474,9.494727476625409e-05,-0.9826453483588857,-0.1795775980185656,1.0,0.0,0.0,0.0,1.0,0.0,0.0,0.0,1.0,0.008873473852872849,-0.04149692505598061,0.5707499980926514,1.2184696791468346e-07,0.0,0.0,0.0,1.2184696791468346e-07,0.0,0.0,0.0,1.2184696791468346e-07,-0.00980665,1.2045711580456967e-15,9.83606995,8.999999999999999e-08,0.0,0.0,0.0,8.999999999999999e-08,0.0,0.0,0.0,8.999999999999999e-08
129.571,427,129,577044079,base_link,-0.044762476112399543,0.002521059497335538,-0.9907499452728534,-0.1280800957726691,1.0,0.0,0.0,0.0,1.0,0.0,0.0,0.0,1.0,-0.0037739058025181293,0.04740989208221439,0.3088909089565277,1.2184696791468346e-07,0.0,0.0,0.0,1.2184696791468346e-07,0.0,0.0,0.0,1.2184696791468346e-07,-0.00980665,1.2033701897924109e-15,9.8262633,8.999999999999999e-08,0.0,0.0,0.0,8.999999999999999e-08,0.0,0.0,0.0,8.999999999999999e-08
129.821,428,129,827112694,base_link,-0.036785653411708814,0.0031933757527645833,-0.9942934372986865,-0.10008585613930754,1.0,0.0,0.0,0.0,1.0,0.0,0.0,0.0,1.0,-0.0028751655481755733,0.0818401724100113,0.16555917263031006,1.2184696791468346e-07,0.0,0.0,0.0,1.2184696791468346e-07,0.0,0.0,0.0,1.2184696791468346e-07,-0.00980665,1.1997672850325534e-15,9.79684335,8.999999999999999e-08,0.0,0.0,0.0,8.999999999999999e-08,0.0,0.0,0.0,8.999999999999999e-08
130.071,429,130,77154108,base_link,-0.027770826456534434,0.0024726309472578576,-0.9959716114006496,-0.08522450691035355,1.0,0.0,0.0,0.0,1.0,0.0,0.0,0.0,1.0,0.0012245795223861933,0.07269244641065599,0.08214564621448515,1.2184696791468346e-07,0.0,0.0,0.0,1.2184696791468346e-07,0.0,0.0,0.0,1.2184696791468346e-07,-0.00980665,1.1997672850325534e-15,9.79684335,8.999999999999999e-08,0.0,0.0,0.0,8.999999999999999e-08,0.0,0.0,0.0,8.999999999999999e-08
130.322,430,130,328221728,base_link,-0.020575131217861187,0.0014151976421122698,-0.9967608856589723,-0.0777328631361478,1.0,0.0,0.0,0.0,1.0,0.0,0.0,0.0,1.0,0.006495554931461811,0.04839716479182244,0.03952671587467193,1.2184696791468346e-07,0.0,0.0,0.0,1.2184696791468346e-07,0.0,0.0,0.0,1.2184696791468346e-07,-0.00980665,1.2009682532858392e-15,9.80665,8.999999999999999e-08,0.0,0.0,0.0,8.999999999999999e-08,0.0,0.0,0.0,8.999999999999999e-08
130.572,431,130,578271483,base_link,-0.015705634261328698,0.00042913552152342696,-0.9970819140799078,-0.0747047890693821,1.0,0.0,0.0,0.0,1.0,0.0,0.0,0.0,1.0,0.002407555468380451,0.030973102897405624,0.01101605128496885,1.2184696791468346e-07,0.0,0.0,0.0,1.2184696791468346e-07,0.0,0.0,0.0,1.2184696791468346e-07,-0.00980665,1.2009682532858392e-15,9.80665,8.999999999999999e-08,0.0,0.0,0.0,8.999999999999999e-08,0.0,0.0,0.0,8.999999999999999e-08
130.822,432,130,828342621,base_link,-0.013026723857236812,-0.0003008350104501805,-0.9971431348075719,-0.07440284046978457,1.0,0.0,0.0,0.0,1.0,0.0,0.0,0.0,1.0,0.003753998316824436,0.01499535609036684,-0.00048084510490298455,1.2184696791468346e-07,0.0,0.0,0.0,1.2184696791468346e-07,0.0,0.0,0.0,1.2184696791468346e-07,0.0,1.2033701897924109e-15,9.8262633,8.999999999999999e-08,0.0,0.0,0.0,8.999999999999999e-08,0.0,0.0,0.0,8.999999999999999e-08
131.072,433,131,78387223,base_link,-0.012370589278319083,-0.0004891263977708813,-0.9971002752874667,-0.07508508705417055,1.0,0.0,0.0,0.0,1.0,0.0,0.0,0.0,1.0,0.003710376098752022,8.199654985219124e-05,-0.009467660449445248,1.2184696791468346e-07,0.0,0.0,0.0,1.2184696791468346e-07,0.0,0.0,0.0,1.2184696791468346e-07,0.0,1.2033701897924109e-15,9.8262633,8.999999999999999e-08,0.0,0.0,0.0,8.999999999999999e-08,0.0,0.0,0.0,8.999999999999999e-08
131.326,434,131,328457387,base_link,-0.01271591003473281,-0.0005905337175287608,-0.9969749769621158,-0.07667367353469806,1.0,0.0,0.0,0.0,1.0,0.0,0.0,0.0,1.0,0.0005121793365105987,-0.003552712500095369,-0.013796761631965637,1.2184696791468346e-07,0.0,0.0,0.0,1.2184696791468346e-07,0.0,0.0,0.0,1.2184696791468346e-07,0.0,1.202169221539125e-15,9.81645665,8.999999999999999e-08,0.0,0.0,0.0,8.999999999999999e-08,0.0,0.0,0.0,8.999999999999999e-08
131.572,435,131,578505844,base_link,-0.013590818871423015,-0.0006176448833014608,-0.9968159170579989,-0.07856803202972018,1.0,0.0,0.0,0.0,1.0,0.0,0.0,0.0,1.0,-0.0007252980140037835,-0.007673961110413076,-0.015069025568664072,1.2184696791468346e-07,0.0,0.0,0.0,1.2184696791468346e-07,0.0,0.0,0.0,1.2184696791468346e-07,0.0,1.202169221539125e-15,9.81645665,8.999999999999999e-08,0.0,0.0,0.0,8.999999999999999e-08,0.0,0.0,0.0,8.999999999999999e-08
131.822,436,131,828575045,base_link,-0.014357161817965609,-0.0005790249728274485,-0.9966485404336096,-0.08053088529358932,1.0,0.0,0.0,0.0,1.0,0.0,0.0,0.0,1.0,0.005669698119163513,-0.00656525604426861,-0.014172629453241825,1.2184696791468346e-07,0.0,0.0,0.0,1.2184696791468346e-07,0.0,0.0,0.0,1.2184696791468346e-07,0.0,1.2009682532858392e-15,9.80665,8.999999999999999e-08,0.0,0.0,0.0,8.999999999999999e-08,0.0,0.0,0.0,8.999999999999999e-08
132.072,437,132,78623991,base_link,-0.014696032607191366,-0.0006358844268709217,-0.9964774445365534,-0.08256103685458482,1.0,0.0,0.0,0.0,1.0,0.0,0.0,0.0,1.0,0.0008528840262442827,-0.0005685725482180734,-0.01605571247637272,1.2184696791468346e-07,0.0,0.0,0.0,1.2184696791468346e-07,0.0,0.0,0.0,1.2184696791468346e-07,0.0,1.2009682532858392e-15,9.80665,8.999999999999999e-08,0.0,0.0,0.0,8.999999999999999e-08,0.0,0.0,0.0,8.999999999999999e-08
132.322,438,132,328695238,base_link,-0.014490214168458802,-0.00046424290704277755,-0.9963232906356057,-0.08443766167364875,1.0,0.0,0.0,0.0,1.0,0.0,0.0,0.0,1.0,-0.003241254948079586,0.004265460185706614,-0.015758994966745377,1.2184696791468346e-07,0.0,0.0,0.0,1.2184696791468346e-07,0.0,0.0,0.0,1.2184696791468346e-07,0.0,1.202169221539125e-15,9.81645665,8.999999999999999e-08,0.0,0.0,0.0,8.999999999999999e-08,0.0,0.0,0.0,8.999999999999999e-08
132.572,439,132,578742424,base_link,-0.013940593258879681,-0.00039851126014040183,-0.9961770051127344,-0.08623732099844467,1.0,0.0,0.0,0.0,1.0,0.0,0.0,0.0,1.0,-0.0009597318712621927,0.0037389420904219138,-0.01235659047961235,1.2184696791468346e-07,0.0,0.0,0.0,1.2184696791468346e-07,0.0,0.0,0.0,1.2184696791468346e-07,0.0,1.2009682532858392e-15,9.80665,8.999999999999999e-08,0.0,0.0,0.0,8.999999999999999e-08,0.0,0.0,0.0,8.999999999999999e-08
132.822,440,132,828811227,base_link,-0.013065998966657291,-0.00031521190067055103,-0.9960336179988208,-0.08801256801525686,1.0,0.0,0.0,0.0,1.0,0.0,0.0,0.0,1.0,-0.0014008868020027876,0.006243449635803698,-0.012668708339333534,1.2184696791468346e-07,0.0,0.0,0.0,1.2184696791468346e-07,0.0,0.0,0.0,1.2184696791468346e-07,0.0,1.202169221539125e-15,9.81645665,8.999999999999999e-08,0.0,0.0,0.0,8.999999999999999e-08,0.0,0.0,0.0,8.999999999999999e-08
133.072,441,133,78861332,base_link,-0.01184834695971518,-0.0003214655207312755,-0.9959012899643185,-0.08966679419744888,1.0,0.0,0.0,0.0,1.0,0.0,0.0,0.0,1.0,-0.003568184794858098,0.009860710240900515,-0.013609398156404497,1.2184696791468346e-07,0.0,0.0,0.0,1.2184696791468346e-07,0.0,0.0,0.0,1.2184696791468346e-07,0.0,1.2009682532858392e-15,9.80665,8.999999999999999e-08,0.0,0.0,0.0,8.999999999999999e-08,0.0,0.0,0.0,8.999999999999999e-08
133.322,442,133,328926201,base_link,-0.010431039200507268,-0.0003372702009353104,-0.9957828835911781,-0.09114564398174646,1.0,0.0,0.0,0.0,1.0,0.0,0.0,0.0,1.0,0.0005724673392251134,0.012469362467527388,-0.010025625117123129,1.2184696791468346e-07,0.0,0.0,0.0,1.2184696791468346e-07,0.0,0.0,0.0,1.2184696791468346e-07,0.0,1.2009682532858392e-15,9.80665,8.999999999999999e-08,0.0,0.0,0.0,8.999999999999999e-08,0.0,0.0,0.0,8.999999999999999e-08
133.572,443,133,578966141,base_link,-0.008990066487921736,-0.0005140408966427602,-0.9956622159274814,-0.09260489317998594,1.0,0.0,0.0,0.0,1.0,0.0,0.0,0.0,1.0,0.003914722707122564,0.010409651324152946,-0.006202622316777707,1.2184696791468346e-07,0.0,0.0,0.0,1.2184696791468346e-07,0.0,0.0,0.0,1.2184696791468346e-07,0.0,1.2009682532858392e-15,9.80665,8.999999999999999e-08,0.0,0.0,0.0,8.999999999999999e-08,0.0,0.0,0.0,8.999999999999999e-08
133.822,444,133,829027086,base_link,-0.007799923379680768,-0.000684224532951253,-0.9955440216455705,-0.09397230441903254,1.0,0.0,0.0,0.0,1.0,0.0,0.0,0.0,1.0,-0.0005508895264938474,0.0054236995056271544,-0.00890315044671297,1.2184696791468346e-07,0.0,0.0,0.0,1.2184696791468346e-07,0.0,0.0,0.0,1.2184696791468346e-07,0.0,1.2009682532858392e-15,9.80665,8.999999999999999e-08,0.0,0.0,0.0,8.999999999999999e-08,0.0,0.0,0.0,8.999999999999999e-08
134.072,445,134,79066414,base_link,-0.006667751575126349,-0.000864094210257073,-0.9954348723151102,-0.09520614165655816,1.0,0.0,0.0,0.0,1.0,0.0,0.0,0.0,1.0,-0.0008198899449780583,0.008206770755350588,-0.007321923971176148,1.2184696791468346e-07,0.0,0.0,0.0,1.2184696791468346e-07,0.0,0.0,0.0,1.2184696791468346e-07,0.0,1.2009682532858392e-15,9.80665,8.999999999999999e-08,0.0,0.0,0.0,8.999999999999999e-08,0.0,0.0,0.0,8.999999999999999e-08
134.322,446,134,329124946,base_link,-0.005613448801438891,-0.0009354034705538132,-0.9953253288952909,-0.09641111902878102,1.0,0.0,0.0,0.0,1.0,0.0,0.0,0.0,1.0,-0.003103929338976741,0.010916262865066527,-0.008822855539619924,1.2184696791468346e-07,0.0,0.0,0.0,1.2184696791468346e-07,0.0,0.0,0.0,1.2184696791468346e-07,0.0,1.2009682532858392e-15,9.80665,8.999999999999999e-08,0.0,0.0,0.0,8.999999999999999e-08,0.0,0.0,0.0,8.999999999999999e-08
134.572,447,134,579162170,base_link,-0.004640839274690137,-0.0010163693729019654,-0.9952243037330066,-0.09749879416319296,1.0,0.0,0.0,0.0,1.0,0.0,0.0,0.0,1.0,-0.0004788460209965706,0.004409686662256717,-0.006681027356535197,1.2184696791468346e-07,0.0,0.0,0.0,1.2184696791468346e-07,0.0,0.0,0.0,1.2184696791468346e-07,0.0,1.2009682532858392e-15,9.80665,8.999999999999999e-08,0.0,0.0,0.0,8.999999999999999e-08,0.0,0.0,0.0,8.999999999999999e-08
134.822,448,134,829222802,base_link,-0.004133964212275351,-0.0010573204154003333,-0.9951210100784142,-0.09856960847009216,1.0,0.0,0.0,0.0,1.0,0.0,0.0,0.0,1.0,0.00458472641184926,0.0013891985872760404,-0.008726116269826889,1.2184696791468346e-07,0.0,0.0,0.0,1.2184696791468346e-07,0.0,0.0,0.0,1.2184696791468346e-07,0.0,1.2009682532858392e-15,9.80665,8.999999999999999e-08,0.0,0.0,0.0,8.999999999999999e-08,0.0,0.0,0.0,8.999999999999999e-08
135.072,449,135,78260929,base_link,-0.00350321666423205,-0.0011778445189474344,-0.9950214869791594,-0.09959207099501,1.0,0.0,0.0,0.0,1.0,0.0,0.0,0.0,1.0,0.001276211580261588,0.004263074137270449,-0.011118345893919468,1.2184696791468346e-07,0.0,0.0,0.0,1.2184696791468346e-07,0.0,0.0,0.0,1.2184696791468346e-07,0.0,1.2009682532858392e-15,9.80665,8.999999999999999e-08,0.0,0.0,0.0,8.999999999999999e-08,0.0,0.0,0.0,8.999999999999999e-08
135.322,450,135,328317672,base_link,-0.0027617037572449966,-0.0011994805700018174,-0.9949430661891997,-0.10039536483699446,1.0,0.0,0.0,0.0,1.0,0.0,0.0,0.0,1.0,0.00015961972530931234,0.007035158108919858,-0.004769755061715842,1.2184696791468346e-07,0.0,0.0,0.0,1.2184696791468346e-07,0.0,0.0,0.0,1.2184696791468346e-07,0.0,1.2009682532858392e-15,9.80665,8.999999999999999e-08,0.0,0.0,0.0,8.999999999999999e-08,0.0,0.0,0.0,8.999999999999999e-08
135.572,451,135,578355210,base_link,-0.002231145928147511,-0.001231415366373812,-0.9948566208590008,-0.10126109587128201,1.0,0.0,0.0,0.0,1.0,0.0,0.0,0.0,1.0,0.0026313425041735172,0.002342816442251205,-0.005069201812148094,1.2184696791468346e-07,0.0,0.0,0.0,1.2184696791468346e-07,0.0,0.0,0.0,1.2184696791468346e-07,0.0,1.2009682532858392e-15,9.80665,8.999999999999999e-08,0.0,0.0,0.0,8.999999999999999e-08,0.0,0.0,0.0,8.999999999999999e-08
135.822,452,135,828411076,base_link,-0.0019395615353656251,-0.0012778890734766067,-0.9947767962157823,-0.10204768890685512,1.0,0.0,0.0,0.0,1.0,0.0,0.0,0.0,1.0,0.0037764888256788254,-0.0004684930900111804,-0.008075350895524025,1.2184696791468346e-07,0.0,0.0,0.0,1.2184696791468346e-07,0.0,0.0,0.0,1.2184696791468346e-07,0.0,1.2009682532858392e-15,9.80665,8.999999999999999e-08,0.0,0.0,0.0,8.999999999999999e-08,0.0,0.0,0.0,8.999999999999999e-08
136.072,453,136,78449533,base_link,-0.0016445980960534522,-0.0013181661722552831,-0.9946980881488707,-0.10281668720604697,1.0,0.0,0.0,0.0,1.0,0.0,0.0,0.0,1.0,0.002562453504651785,0.0005457299412228157,-0.00821790099143982,1.2184696791468346e-07,0.0,0.0,0.0,1.2184696791468346e-07,0.0,0.0,0.0,1.2184696791468346e-07,0.0,1.2009682532858392e-15,9.80665,8.999999999999999e-08,0.0,0.0,0.0,8.999999999999999e-08,0.0,0.0,0.0,8.999999999999999e-08
136.323,454,136,329506034,base_link,-0.001402498119456396,-0.0013285956339770912,-0.9946322998503525,-0.10345460805137963,1.0,0.0,0.0,0.0,1.0,0.0,0.0,0.0,1.0,-0.003516171593219042,0.003629510523751377,-0.005335922818630935,1.2184696791468346e-07,0.0,0.0,0.0,1.2184696791468346e-07,0.0,0.0,0.0,1.2184696791468346e-07,0.0,1.202169221539125e-15,9.81645665,8.999999999999999e-08,0.0,0.0,0.0,8.999999999999999e-08,0.0,0.0,0.0,8.999999999999999e-08
136.573,455,136,579543918,base_link,-0.0011064272594582397,-0.001220620283261877,-0.9945611983529904,-0.10414081157503768,1.0,0.0,0.0,0.0,1.0,0.0,0.0,0.0,1.0,-0.0020899223163723946,0.00017838785424828472,-0.004632903262972832,1.2184696791468346e-07,0.0,0.0,0.0,1.2184696791468346e-07,0.0,0.0,0.0,1.2184696791468346e-07,0.0,1.2009682532858392e-15,9.80665,8.999999999999999e-08,0.0,0.0,0.0,8.999999999999999e-08,0.0,0.0,0.0,8.999999999999999e-08
136.823,456,136,829605564,base_link,-0.0010795298838596045,-0.001316383623006163,-0.9944944156022951,-0.10477575619023838,1.0,0.0,0.0,0.0,1.0,0.0,0.0,0.0,1.0,0.0028914608992636204,-0.002562936395406724,-0.006349284667521715,1.2184696791468346e-07,0.0,0.0,0.0,1.2184696791468346e-07,0.0,0.0,0.0,1.2184696791468346e-07,0.0,1.2009682532858392e-15,9.80665,8.999999999999999e-08,0.0,0.0,0.0,8.999999999999999e-08,0.0,0.0,0.0,8.999999999999999e-08
137.073,457,137,79648511,base_link,-0.0010247219374020517,-0.0014016273636232497,-0.9944412634823482,-0.10527848246111582,1.0,0.0,0.0,0.0,1.0,0.0,0.0,0.0,1.0,-0.0017987461760640144,-0.00032471935264766265,-0.003977464511990547,1.2184696791468346e-07,0.0,0.0,0.0,1.2184696791468346e-07,0.0,0.0,0.0,1.2184696791468346e-07,0.0,1.2009682532858392e-15,9.80665,8.999999999999999e-08,0.0,0.0,0.0,8.999999999999999e-08,0.0,0.0,0.0,8.999999999999999e-08
137.323,458,137,329707814,base_link,-0.000840127752386843,-0.0012996298048378865,-0.9943816488292934,-0.10584300458351387,1.0,0.0,0.0,0.0,1.0,0.0,0.0,0.0,1.0,-0.003284478560090065,0.002087596105411648,-0.007177935913205147,1.2184696791468346e-07,0.0,0.0,0.0,1.2184696791468346e-07,0.0,0.0,0.0,1.2184696791468346e-07,0.0,1.2009682532858392e-15,9.80665,8.999999999999999e-08,0.0,0.0,0.0,8.999999999999999e-08,0.0,0.0,0.0,8.999999999999999e-08
137.573,459,137,579744573,base_link,-0.0007071231454660915,-0.0012896227391229662,-0.9943281054558388,-0.10634592399640991,1.0,0.0,0.0,0.0,1.0,0.0,0.0,0.0,1.0,0.0009484664769843221,0.0005417761858552691,-0.002847418189048767,1.2184696791468346e-07,0.0,0.0,0.0,1.2184696791468346e-07,0.0,0.0,0.0,1.2184696791468346e-07,0.0,1.2009682532858392e-15,9.80665,8.999999999999999e-08,0.0,0.0,0.0,8.999999999999999e-08,0.0,0.0,0.0,8.999999999999999e-08
137.823,460,137,829797043,base_link,-0.0005051191404512055,-0.0012636195514422216,-0.9942746623015002,-0.10684588913720972,1.0,0.0,0.0,0.0,1.0,0.0,0.0,0.0,1.0,0.0032313165720552206,-6.113899871707007e-05,-0.003596840426325798,1.2184696791468346e-07,0.0,0.0,0.0,1.2184696791468346e-07,0.0,0.0,0.0,1.2184696791468346e-07,0.0,1.2009682532858392e-15,9.80665,8.999999999999999e-08,0.0,0.0,0.0,8.999999999999999e-08,0.0,0.0,0.0,8.999999999999999e-08
138.073,461,138,79833251,base_link,-0.00036860835134304155,-0.0013247736576857546,-0.9942339401393662,-0.1072239776243667,1.0,0.0,0.0,0.0,1.0,0.0,0.0,0.0,1.0,-0.0006156729068607092,-2.1238694898784628e-05,-0.003818992991000414,1.2184696791468346e-07,0.0,0.0,0.0,1.2184696791468346e-07,0.0,0.0,0.0,1.2184696791468346e-07,0.0,1.202169221539125e-15,9.81645665,8.999999999999999e-08,0.0,0.0,0.0,8.999999999999999e-08,0.0,0.0,0.0,8.999999999999999e-08
138.323,462,138,329884900,base_link,-0.00033594073105266953,-0.0013498409569555098,-0.9941914760300289,-0.10761679266010687,1.0,0.0,0.0,0.0,1.0,0.0,0.0,0.0,1.0,-0.0022496627643704414,-0.0009514235425740484,-0.002887572394683957,1.2184696791468346e-07,0.0,0.0,0.0,1.2184696791468346e-07,0.0,0.0,0.0,1.2184696791468346e-07,0.0,1.2009682532858392e-15,9.80665,8.999999999999999e-08,0.0,0.0,0.0,8.999999999999999e-08,0.0,0.0,0.0,8.999999999999999e-08
138.573,463,138,579922064,base_link,-0.00017396922383883966,-0.001243691179671657,-0.9941465016420192,-0.10803312566011053,1.0,0.0,0.0,0.0,1.0,0.0,0.0,0.0,1.0,0.001450619543902576,-0.0012068056967109446,-0.0036608169320970774,1.2184696791468346e-07,0.0,0.0,0.0,1.2184696791468346e-07,0.0,0.0,0.0,1.2184696791468346e-07,0.0,1.2009682532858392e-15,9.80665,8.999999999999999e-08,0.0,0.0,0.0,8.999999999999999e-08,0.0,0.0,0.0,8.999999999999999e-08
138.823,464,138,829972903,base_link,-0.00010164050912406152,-0.0012114948772760624,-0.9941070154028957,-0.10839632777966246,1.0,0.0,0.0,0.0,1.0,0.0,0.0,0.0,1.0,0.0020427792333066463,-0.0004632733762264257,-0.004395529627799988,1.2184696791468346e-07,0.0,0.0,0.0,1.2184696791468346e-07,0.0,0.0,0.0,1.2184696791468346e-07,0.0,1.2009682532858392e-15,9.80665,8.999999999999999e-08,0.0,0.0,0.0,8.999999999999999e-08,0.0,0.0,0.0,8.999999999999999e-08
139.073,465,139,80010660,base_link,4.348534882289533e-05,-0.0011774968988824432,-0.9940564292691003,-0.10885966672208647,1.0,0.0,0.0,0.0,1.0,0.0,0.0,0.0,1.0,-0.0014827861450612545,-0.0002033379860222344,-0.0035323253832757473,1.2184696791468346e-07,0.0,0.0,0.0,1.2184696791468346e-07,0.0,0.0,0.0,1.2184696791468346e-07,0.0,1.2009682532858392e-15,9.80665,8.999999999999999e-08,0.0,0.0,0.0,8.999999999999999e-08,0.0,0.0,0.0,8.999999999999999e-08
139.323,466,139,330063701,base_link,0.00016230976684714752,-0.0012475066112811134,-0.9940185242581974,-0.10920435345877971,1.0,0.0,0.0,0.0,1.0,0.0,0.0,0.0,1.0,0.00267445994541049,0.001763484440743923,-0.0023409719578921795,1.2184696791468346e-07,0.0,0.0,0.0,1.2184696791468346e-07,0.0,0.0,0.0,1.2184696791468346e-07,0.0,1.2009682532858392e-15,9.80665,8.999999999999999e-08,0.0,0.0,0.0,8.999999999999999e-08,0.0,0.0,0.0,8.999999999999999e-08
139.573,467,139,580098301,base_link,0.00022121547971073224,-0.0012853449686454986,-0.9939945957965514,-0.10942139863515582,1.0,0.0,0.0,0.0,1.0,0.0,0.0,0.0,1.0,0.001176381134428084,-0.0007635774090886121,-0.004444156773388386,1.2184696791468346e-07,0.0,0.0,0.0,1.2184696791468346e-07,0.0,0.0,0.0,1.2184696791468346e-07,0.0,1.2009682532858392e-15,9.80665,8.999999999999999e-08,0.0,0.0,0.0,8.999999999999999e-08,0.0,0.0,0.0,8.999999999999999e-08
139.823,468,139,830149055,base_link,0.0002764887503194104,-0.001448616532659474,-0.9939658078332527,-0.10968043545911693,1.0,0.0,0.0,0.0,1.0,0.0,0.0,0.0,1.0,0.0034904852509498596,-0.0008644915651530027,-0.0003100651083514093,1.2184696791468346e-07,0.0,0.0,0.0,1.2184696791468346e-07,0.0,0.0,0.0,1.2184696791468346e-07,0.0,1.1997672850325534e-15,9.79684335,8.999999999999999e-08,0.0,0.0,0.0,8.999999999999999e-08,0.0,0.0,0.0,8.999999999999999e-08
140.073,469,140,80178634,base_link,0.000254524883571744,-0.001385040789097598,-0.9939466748886723,-0.10985456001845423,1.0,0.0,0.0,0.0,1.0,0.0,0.0,0.0,1.0,-0.009049767628312111,-0.0008481944678351287,-0.0031826840713620186,1.2184696791468346e-07,0.0,0.0,0.0,1.2184696791468346e-07,0.0,0.0,0.0,1.2184696791468346e-07,0.0,1.2009682532858392e-15,9.80665,8.999999999999999e-08,0.0,0.0,0.0,8.999999999999999e-08,0.0,0.0,0.0,8.999999999999999e-08
140.325,470,140,330230113,base_link,0.007201239552832199,0.04157983414471555,-0.9964994894212118,-0.07216666214163603,1.0,0.0,0.0,0.0,1.0,0.0,0.0,0.0,1.0,-0.5292928218841553,0.049466572701931076,0.6266981363296509,1.2184696791468346e-07,0.0,0.0,0.0,1.2184696791468346e-07,0.0,0.0,0.0,1.2184696791468346e-07,0.0,1.2009682532858392e-15,9.80665,8.999999999999999e-08,0.0,0.0,0.0,8.999999999999999e-08,0.0,0.0,0.0,8.999999999999999e-08
140.573,471,140,580262180,base_link,0.029581751126819426,0.10995492356100044,-0.9932389751230766,0.022609137122539483,1.0,0.0,0.0,0.0,1.0,0.0,0.0,0.0,1.0,-0.5459683537483215,0.15009117126464855,0.8308426141738892,1.2184696791468346e-07,0.0,0.0,0.0,1.2184696791468346e-07,0.0,0.0,0.0,1.2184696791468346e-07,0.0,1.2033701897924109e-15,9.8262633,8.999999999999999e-08,0.0,0.0,0.0,8.999999999999999e-08,0.0,0.0,0.0,8.999999999999999e-08
140.823,472,140,829312895,base_link,0.05078964045846598,0.1302913391205672,-0.9813888648177269,0.13160727709379388,1.0,0.0,0.0,0.0,1.0,0.0,0.0,0.0,1.0,0.12007251381874084,-0.06650248169898976,0.9193598031997681,1.2184696791468346e-07,0.0,0.0,0.0,1.2184696791468346e-07,0.0,0.0,0.0,1.2184696791468346e-07,0.0,1.2261885866048418e-15,10.01258965,8.999999999999999e-08,0.0,0.0,0.0,8.999999999999999e-08,0.0,0.0,0.0,8.999999999999999e-08
141.073,473,141,79344457,base_link,0.03634471333828654,0.06949060397160989,-0.9648198741331389,0.25094367545274576,1.0,0.0,0.0,0.0,1.0,0.0,0.0,0.0,1.0,0.4844924509525299,-0.45533135533332814,1.0002093315124512,1.2184696791468346e-07,0.0,0.0,0.0,1.2184696791468346e-07,0.0,0.0,0.0,1.2184696791468346e-07,0.0,1.2502079516705585e-15,10.20872265,8.999999999999999e-08,0.0,0.0,0.0,8.999999999999999e-08,0.0,0.0,0.0,8.999999999999999e-08
141.323,474,141,329394421,base_link,0.0037084246644904554,0.00649885240091025,-0.9271564756342674,0.37459962919552237,1.0,0.0,0.0,0.0,1.0,0.0,0.0,0.0,1.0,0.2617214620113373,-0.3725434839725493,1.0520879030227661,1.2184696791468346e-07,0.0,0.0,0.0,1.2184696791468346e-07,0.0,0.0,0.0,1.2184696791468346e-07,-0.00980665,1.2273895548581276e-15,10.0223963,8.999999999999999e-08,0.0,0.0,0.0,8.999999999999999e-08,0.0,0.0,0.0,8.999999999999999e-08
141.573,475,141,579425485,base_link,-0.020760898655993575,-0.025747669299809112,-0.8688100282924291,0.4940396515980593,1.0,0.0,0.0,0.0,1.0,0.0,0.0,0.0,1.0,0.08635196089744568,-0.1902104914188384,1.0147708654403687,1.2184696791468346e-07,0.0,0.0,0.0,1.2184696791468346e-07,0.0,0.0,0.0,1.2184696791468346e-07,-0.00980665,1.2093750310588401e-15,9.87529655,8.999999999999999e-08,0.0,0.0,0.0,8.999999999999999e-08,0.0,0.0,0.0,8.999999999999999e-08
141.823,476,141,829470209,base_link,-0.031786152380153296,-0.03316384100283701,-0.8186777560202775,0.5724129033874126,1.0,0.0,0.0,0.0,1.0,0.0,0.0,0.0,1.0,0.0030662016943097115,-0.029413970187306335,0.554965615272522,1.2184696791468346e-07,0.0,0.0,0.0,1.2184696791468346e-07,0.0,0.0,0.0,1.2184696791468346e-07,-0.00980665,1.2045711580456967e-15,9.83606995,8.999999999999999e-08,0.0,0.0,0.0,8.999999999999999e-08,0.0,0.0,0.0,8.999999999999999e-08
142.073,477,142,79507912,base_link,-0.03270669599978009,-0.030215706136634952,-0.7889505197290958,0.6128412196961236,1.0,0.0,0.0,0.0,1.0,0.0,0.0,0.0,1.0,-0.007523014210164547,0.04289213195443157,0.2915704548358917,1.2184696791468346e-07,0.0,0.0,0.0,1.2184696791468346e-07,0.0,0.0,0.0,1.2184696791468346e-07,-0.00980665,1.202169221539125e-15,9.81645665,8.999999999999999e-08,0.0,0.0,0.0,8.999999999999999e-08,0.0,0.0,0.0,8.999999999999999e-08
142.324,478,142,330550407,base_link,-0.02816485717828378,-0.024241688041745386,-0.7725846443712627,0.6338233576184635,1.0,0.0,0.0,0.0,1.0,0.0,0.0,0.0,1.0,0.0006981317419558764,0.06601020693778993,0.156004399061203,1.2184696791468346e-07,0.0,0.0,0.0,1.2184696791468346e-07,0.0,0.0,0.0,1.2184696791468346e-07,-0.00980665,1.1997672850325534e-15,9.79684335,8.999999999999999e-08,0.0,0.0,0.0,8.999999999999999e-08,0.0,0.0,0.0,8.999999999999999e-08
142.574,479,142,580583501,base_link,-0.021728514289702818,-0.018421430577701653,-0.7639658165416366,0.6446276085602476,1.0,0.0,0.0,0.0,1.0,0.0,0.0,0.0,1.0,0.0041406904347240925,0.06863415241241456,0.07899455726146697,1.2184696791468346e-07,0.0,0.0,0.0,1.2184696791468346e-07,0.0,0.0,0.0,1.2184696791468346e-07,-0.00980665,1.1997672850325534e-15,9.79684335,8.999999999999999e-08,0.0,0.0,0.0,8.999999999999999e-08,0.0,0.0,0.0,8.999999999999999e-08
142.824,480,142,830628279,base_link,-0.015922518536182713,-0.013910807445545806,-0.7598043175690637,0.6498079422745515,1.0,0.0,0.0,0.0,1.0,0.0,0.0,0.0,1.0,0.0015181637136265635,0.05583715438842774,0.035485547035932534,1.2184696791468346e-07,0.0,0.0,0.0,1.2184696791468346e-07,0.0,0.0,0.0,1.2184696791468346e-07,-0.00980665,1.2009682532858392e-15,9.80665,8.999999999999999e-08,0.0,0.0,0.0,8.999999999999999e-08,0.0,0.0,0.0,8.999999999999999e-08
143.074,481,143,80663526,base_link,-0.0116828190107028,-0.010738976151593556,-0.7582369947860593,0.6517858895902733,1.0,0.0,0.0,0.0,1.0,0.0,0.0,0.0,1.0,0.0011837827041745186,0.0360659584403038,0.009772711433470244,1.2184696791468346e-07,0.0,0.0,0.0,1.2184696791468346e-07,0.0,0.0,0.0,1.2184696791468346e-07,0.0,1.202169221539125e-15,9.81645665,8.999999999999999e-08,0.0,0.0,0.0,8.999999999999999e-08,0.0,0.0,0.0,8.999999999999999e-08
143.324,482,143,330709099,base_link,-0.00942134800784099,-0.008963006654302427,-0.7580591722249662,0.65205612804346,1.0,0.0,0.0,0.0,1.0,0.0,0.0,0.0,1.0,0.0020865648984909058,0.015424723736941814,-0.004555172752588989,1.2184696791468346e-07,0.0,0.0,0.0,1.2184696791468346e-07,0.0,0.0,0.0,1.2184696791468346e-07,0.0,1.2033701897924109e-15,9.8262633,8.999999999999999e-08,0.0,0.0,0.0,8.999999999999999e-08,0.0,0.0,0.0,8.999999999999999e-08
143.576,483,143,580741252,base_link,-0.008481032715454999,-0.008042484975292072,-0.7586725364426226,0.6513673103305225,1.0,0.0,0.0,0.0,1.0,0.0,0.0,0.0,1.0,-0.001050383667461574,0.007592032197862863,-0.009972417727112772,1.2184696791468346e-07,0.0,0.0,0.0,1.2184696791468346e-07,0.0,0.0,0.0,1.2184696791468346e-07,0.0,1.2033701897924109e-15,9.8262633,8.999999999999999e-08,0.0,0.0,0.0,8.999999999999999e-08,0.0,0.0,0.0,8.999999999999999e-08
143.824,484,143,830789131,base_link,-0.00846779212424827,-0.007909921714474225,-0.7597622849013838,0.6500976850262119,1.0,0.0,0.0,0.0,1.0,0.0,0.0,0.0,1.0,-0.0018958516884595156,-0.004999122582376005,-0.017001526430249214,1.2184696791468346e-07,0.0,0.0,0.0,1.2184696791468346e-07,0.0,0.0,0.0,1.2184696791468346e-07,0.0,1.202169221539125e-15,9.81645665,8.999999999999999e-08,0.0,0.0,0.0,8.999999999999999e-08,0.0,0.0,0.0,8.999999999999999e-08
144.074,485,144,80820824,base_link,-0.009027242119431024,-0.008242948854405371,-0.7610868744925416,0.6485347578727566,1.0,0.0,0.0,0.0,1.0,0.0,0.0,0.0,1.0,0.0023457910865545273,-0.005093852989375593,-0.016477571800351143,1.2184696791468346e-07,0.0,0.0,0.0,1.2184696791468346e-07,0.0,0.0,0.0,1.2184696791468346e-07,0.0,1.202169221539125e-15,9.81645665,8.999999999999999e-08,0.0,0.0,0.0,8.999999999999999e-08,0.0,0.0,0.0,8.999999999999999e-08
144.324,486,144,330862020,base_link,-0.009433787438213152,-0.008509781098079991,-0.7625059960985053,0.6468563930224849,1.0,0.0,0.0,0.0,1.0,0.0,0.0,0.0,1.0,1.5899306163191795e-05,-0.004657714627683165,-0.021292613819241524,1.2184696791468346e-07,0.0,0.0,0.0,1.2184696791468346e-07,0.0,0.0,0.0,1.2184696791468346e-07,0.0,1.202169221539125e-15,9.81645665,8.999999999999999e-08,0.0,0.0,0.0,8.999999999999999e-08,0.0,0.0,0.0,8.999999999999999e-08
144.574,487,144,580890261,base_link,-0.00999589976520515,-0.009056898553504894,-0.7638483412539474,0.6452548071421617,1.0,0.0,0.0,0.0,1.0,0.0,0.0,0.0,1.0,0.004118523560464382,-0.005188622511923315,-0.017385432496666908,1.2184696791468346e-07,0.0,0.0,0.0,1.2184696791468346e-07,0.0,0.0,0.0,1.2184696791468346e-07,0.0,1.2009682532858392e-15,9.80665,8.999999999999999e-08,0.0,0.0,0.0,8.999999999999999e-08,0.0,0.0,0.0,8.999999999999999e-08
144.824,488,144,830933785,base_link,-0.01007935431763839,-0.009209807427502213,-0.7651843159314355,0.6436664887317259,1.0,0.0,0.0,0.0,1.0,0.0,0.0,0.0,1.0,-0.0006054890691302717,-0.0005822083912789844,-0.018297554925084114,1.2184696791468346e-07,0.0,0.0,0.0,1.2184696791468346e-07,0.0,0.0,0.0,1.2184696791468346e-07,0.0,1.2009682532858392e-15,9.80665,8.999999999999999e-08,0.0,0.0,0.0,8.999999999999999e-08,0.0,0.0,0.0,8.999999999999999e-08
145.074,489,145,80965711,base_link,-0.009855492093281858,-0.008900246704686475,-0.7664689186233166,0.6421441050641195,1.0,0.0,0.0,0.0,1.0,0.0,0.0,0.0,1.0,0.0030496716499328613,0.004793036263436077,-0.017433809116482735,1.2184696791468346e-07,0.0,0.0,0.0,1.2184696791468346e-07,0.0,0.0,0.0,1.2184696791468346e-07,0.0,1.2009682532858392e-15,9.80665,8.999999999999999e-08,0.0,0.0,0.0,8.999999999999999e-08,0.0,0.0,0.0,8.999999999999999e-08
145.324,490,145,331011575,base_link,-0.009333914171833902,-0.008454297854918557,-0.7676701138999407,0.6407214676588145,1.0,0.0,0.0,0.0,1.0,0.0,0.0,0.0,1.0,-0.0013898087199777365,0.00816507264971733,-0.012666446156799795,1.2184696791468346e-07,0.0,0.0,0.0,1.2184696791468346e-07,0.0,0.0,0.0,1.2184696791468346e-07,0.0,1.2009682532858392e-15,9.80665,8.999999999999999e-08,0.0,0.0,0.0,8.999999999999999e-08,0.0,0.0,0.0,8.999999999999999e-08
145.574,491,145,581043437,base_link,-0.008470141474598363,-0.007912987396959887,-0.7688472936458166,0.6393273655861752,1.0,0.0,0.0,0.0,1.0,0.0,0.0,0.0,1.0,0.0002471744082868099,0.007958759553730486,-0.014798877760767938,1.2184696791468346e-07,0.0,0.0,0.0,1.2184696791468346e-07,0.0,0.0,0.0,1.2184696791468346e-07,0.0,1.2009682532858392e-15,9.80665,8.999999999999999e-08,0.0,0.0,0.0,8.999999999999999e-08,0.0,0.0,0.0,8.999999999999999e-08
145.824,492,145,831088652,base_link,-0.007510318575739239,-0.0074506272481776655,-0.7698484157153661,0.6381390914910641,1.0,0.0,0.0,0.0,1.0,0.0,0.0,0.0,1.0,0.0028834794647991657,0.005482122302055358,-0.010098249651491642,1.2184696791468346e-07,0.0,0.0,0.0,1.2184696791468346e-07,0.0,0.0,0.0,1.2184696791468346e-07,0.0,1.2009682532858392e-15,9.80665,8.999999999999999e-08,0.0,0.0,0.0,8.999999999999999e-08,0.0,0.0,0.0,8.999999999999999e-08
146.074,493,146,81120084,base_link,-0.006608644124465059,-0.006783715233330314,-0.7708473353362244,0.6369495212617023,1.0,0.0,0.0,0.0,1.0,0.0,0.0,0.0,1.0,0.0030565191991627216,0.008038500323891638,-0.010627628304064276,1.2184696791468346e-07,0.0,0.0,0.0,1.2184696791468346e-07,0.0,0.0,0.0,1.2184696791468346e-07,0.0,1.1997672850325534e-15,9.79684335,8.999999999999999e-08,0.0,0.0,0.0,8.999999999999999e-08,0.0,0.0,0.0,8.999999999999999e-08
146.324,494,146,331166160,base_link,-0.005672664430977414,-0.006094632434448106,-0.771718471965707,0.6359098020636709,1.0,0.0,0.0,0.0,1.0,0.0,0.0,0.0,1.0,0.0013547242851927876,0.01030034478753805,-0.010407424531877043,1.2184696791468346e-07,0.0,0.0,0.0,1.2184696791468346e-07,0.0,0.0,0.0,1.2184696791468346e-07,0.0,1.2009682532858392e-15,9.80665,8.999999999999999e-08,0.0,0.0,0.0,8.999999999999999e-08,0.0,0.0,0.0,8.999999999999999e-08
146.574,495,146,581195670,base_link,-0.004730592047167135,-0.005476112728198924,-0.7726125263544992,0.6348366071741528,1.0,0.0,0.0,0.0,1.0,0.0,0.0,0.0,1.0,0.003042509313672781,0.00940048787742853,-0.008873263373970987,1.2184696791468346e-07,0.0,0.0,0.0,1.2184696791468346e-07,0.0,0.0,0.0,1.2184696791468346e-07,0.0,1.2009682532858392e-15,9.80665,8.999999999999999e-08,0.0,0.0,0.0,8.999999999999999e-08,0.0,0.0,0.0,8.999999999999999e-08
146.824,496,146,830239618,base_link,-0.003824216496640513,-0.0048963854730967446,-0.7734448991138452,0.6338330922350611,1.0,0.0,0.0,0.0,1.0,0.0,0.0,0.0,1.0,0.0003431987715885043,0.003363545052707194,-0.00917230173945427,1.2184696791468346e-07,0.0,0.0,0.0,1.2184696791468346e-07,0.0,0.0,0.0,1.2184696791468346e-07,0.0,1.1997672850325534e-15,9.79684335,8.999999999999999e-08,0.0,0.0,0.0,8.999999999999999e-08,0.0,0.0,0.0,8.999999999999999e-08
147.074,497,147,80275840,base_link,-0.0032014126274791483,-0.004460072029406476,-0.7741937701674917,0.6329248493688066,1.0,0.0,0.0,0.0,1.0,0.0,0.0,0.0,1.0,0.0006900799926370382,0.004243407398462295,-0.008649131283164024,1.2184696791468346e-07,0.0,0.0,0.0,1.2184696791468346e-07,0.0,0.0,0.0,1.2184696791468346e-07,0.0,1.2009682532858392e-15,9.80665,8.999999999999999e-08,0.0,0.0,0.0,8.999999999999999e-08,0.0,0.0,0.0,8.999999999999999e-08
147.324,498,147,330323670,base_link,-0.00256455393526045,-0.0037495766041289154,-0.7748705991236673,0.6321035661599544,1.0,0.0,0.0,0.0,1.0,0.0,0.0,0.0,1.0,0.0015437245601788163,0.009640694595873354,-0.00845034420490265,1.2184696791468346e-07,0.0,0.0,0.0,1.2184696791468346e-07,0.0,0.0,0.0,1.2184696791468346e-07,0.0,1.2009682532858392e-15,9.80665,8.999999999999999e-08,0.0,0.0,0.0,8.999999999999999e-08,0.0,0.0,0.0,8.999999999999999e-08
147.574,499,147,580352356,base_link,-0.0019426119150815222,-0.003146380926509307,-0.7755316397242791,0.6312978713195411,1.0,0.0,0.0,0.0,1.0,0.0,0.0,0.0,1.0,0.0008697295561432838,0.006529509089887141,-0.004036519210785628,1.2184696791468346e-07,0.0,0.0,0.0,1.2184696791468346e-07,0.0,0.0,0.0,1.2184696791468346e-07,0.0,1.2009682532858392e-15,9.80665,8.999999999999999e-08,0.0,0.0,0.0,8.999999999999999e-08,0.0,0.0,0.0,8.999999999999999e-08
147.824,500,147,830398078,base_link,-0.0014164428939633178,-0.002775024397190908,-0.7761482159382449,0.6305428136336205,1.0,0.0,0.0,0.0,1.0,0.0,0.0,0.0,1.0,0.00018604611977934837,0.0003936375724151722,-0.006889357231557369,1.2184696791468346e-07,0.0,0.0,0.0,1.2184696791468346e-07,0.0,0.0,0.0,1.2184696791468346e-07,0.0,1.2009682532858392e-15,9.80665,8.999999999999999e-08,0.0,0.0,0.0,8.999999999999999e-08,0.0,0.0,0.0,8.999999999999999e-08
