Time,header.seq,header.stamp.secs,header.stamp.nsecs,header.frame_id,orientation.x,orientation.y,orientation.z,orientation.w,orientation_covariance_0,orientation_covariance_1,orientation_covariance_2,orientation_covariance_3,orientation_covariance_4,orientation_covariance_5,orientation_covariance_6,orientation_covariance_7,orientation_covariance_8,angular_velocity.x,angular_velocity.y,angular_velocity.z,angular_velocity_covariance_0,angular_velocity_covariance_1,angular_velocity_covariance_2,angular_velocity_covariance_3,angular_velocity_covariance_4,angular_velocity_covariance_5,angular_velocity_covariance_6,angular_velocity_covariance_7,angular_velocity_covariance_8,linear_acceleration.x,linear_acceleration.y,linear_acceleration.z,linear_acceleration_covariance_0,linear_acceleration_covariance_1,linear_acceleration_covariance_2,linear_acceleration_covariance_3,linear_acceleration_covariance_4,linear_acceleration_covariance_5,linear_acceleration_covariance_6,linear_acceleration_covariance_7,linear_acceleration_covariance_8
114.817,369,114,823960361,base_link,-0.0025638787765494037,-0.00038794844249217186,-0.6679259988789306,-0.7442231762335866,1.0,0.0,0.0,0.0,1.0,0.0,0.0,0.0,1.0,0.001485425978899002,0.0035528489388525425,-0.051051899790763855,1.2184696791468346e-07,0.0,0.0,0.0,1.2184696791468346e-07,0.0,0.0,0.0,1.2184696791468346e-07,0.0,1.2970457135487062e-15,10.591182,8.999999999999999e-08,0.0,0.0,0.0,8.999999999999999e-08,0.0,0.0,0.0,8.999999999999999e-08
115.067,370,115,74047428,base_link,-0.002090285264715128,-0.000430794104252621,-0.6645429010077445,-0.7472470661328574,1.0,0.0,0.0,0.0,1.0,0.0,0.0,0.0,1.0,-0.0027525518089532852,0.002977119991555806,-0.031376130878925323,1.2184696791468346e-07,0.0,0.0,0.0,1.2184696791468346e-07,0.0,0.0,0.0,1.2184696791468346e-07,0.0,1.3006486183085637e-15,10.62060195,8.999999999999999e-08,0.0,0.0,0.0,8.999999999999999e-08,0.0,0.0,0.0,8.999999999999999e-08
115.317,371,115,324104032,base_link,-0.0017758968767548507,-0.0002976987703239335,-0.6626834862256187,-0.748897425986754,1.0,0.0,0.0,0.0,1.0,0.0,0.0,0.0,1.0,-0.005371280945837498,0.0004204906290397028,-0.016236810013651848,1.2184696791468346e-07,0.0,0.0,0.0,1.2184696791468346e-07,0.0,0.0,0.0,1.2184696791468346e-07,0.0,1.3090553960815646e-15,10.6892485,8.999999999999999e-08,0.0,0.0,0.0,8.999999999999999e-08,0.0,0.0,0.0,8.999999999999999e-08
115.567,372,115,574187918,base_link,-0.0016738326753538292,-0.0002284458885331148,-0.6617108387002049,-0.7497572354057828,1.0,0.0,0.0,0.0,1.0,0.0,0.0,0.0,1.0,-0.0007990484591573477,-0.0006630666321143519,-0.008938167244195938,1.2184696791468346e-07,0.0,0.0,0.0,1.2184696791468346e-07,0.0,0.0,0.0,1.2184696791468346e-07,0.0,1.2189827770851268e-15,9.95374975,8.999999999999999e-08,0.0,0.0,0.0,8.999999999999999e-08,0.0,0.0,0.0,8.999999999999999e-08
115.818,373,115,825245655,base_link,-0.0017291401959706448,-0.00021706763115643483,-0.6612465386504386,-0.7501666335412687,1.0,0.0,0.0,0.0,1.0,0.0,0.0,0.0,1.0,0.0033176466822624207,-6.273202598094952e-05,-0.0009706317214295268,1.2184696791468346e-07,0.0,0.0,0.0,1.2184696791468346e-07,0.0,0.0,0.0,1.2184696791468346e-07,0.0,1.1277091898354029e-15,9.20844435,8.999999999999999e-08,0.0,0.0,0.0,8.999999999999999e-08,0.0,0.0,0.0,8.999999999999999e-08
116.068,374,116,75330494,base_link,-0.0018030442504809784,-7.04087915674397e-05,-0.6610824883777549,-0.7503110605837479,1.0,0.0,0.0,0.0,1.0,0.0,0.0,0.0,1.0,0.00018244667444378138,-0.0017720604082569482,-0.001574847614392638,1.2184696791468346e-07,0.0,0.0,0.0,1.2184696791468346e-07,0.0,0.0,0.0,1.2184696791468346e-07,0.0,1.097684983503257e-15,8.9632781,8.999999999999999e-08,0.0,0.0,0.0,8.999999999999999e-08,0.0,0.0,0.0,8.999999999999999e-08
116.318,375,116,325384872,base_link,-0.0019318937564684752,8.683190594384255e-05,-0.6611032125319224,-0.7502924780555285,1.0,0.0,0.0,0.0,1.0,0.0,0.0,0.0,1.0,-0.0022633736953139305,-1.1626398190860084e-06,-0.0033516143448650837,1.2184696791468346e-07,0.0,0.0,0.0,1.2184696791468346e-07,0.0,0.0,0.0,1.2184696791468346e-07,0.0,1.0916801422368277e-15,8.91424485,8.999999999999999e-08,0.0,0.0,0.0,8.999999999999999e-08,0.0,0.0,0.0,8.999999999999999e-08
116.568,376,116,574470681,base_link,-0.0020533674196185872,1.897077961474986e-05,-0.6701416745035965,-0.7422303681579359,1.0,0.0,0.0,0.0,1.0,0.0,0.0,0.0,1.0,0.003228115849196911,0.0001356470165774225,-0.0008244611090049148,1.2184696791468346e-07,0.0,0.0,0.0,1.2184696791468346e-07,0.0,0.0,0.0,1.2184696791468346e-07,0.0,1.090479173983542e-15,8.9044382,8.999999999999999e-08,0.0,0.0,0.0,8.999999999999999e-08,0.0,0.0,0.0,8.999999999999999e-08
116.818,377,116,824526208,base_link,-0.03268676072446319,-0.02878578733374773,-0.6421966918010961,-0.7653014851420621,1.0,0.0,0.0,0.0,1.0,0.0,0.0,0.0,1.0,0.525283932685852,0.026840139180421753,-0.6221261620521545,1.2184696791468346e-07,0.0,0.0,0.0,1.2184696791468346e-07,0.0,0.0,0.0,1.2184696791468346e-07,0.0,1.1012878882631146e-15,8.99269805,8.999999999999999e-08,0.0,0.0,0.0,8.999999999999999e-08,0.0,0.0,0.0,8.999999999999999e-08
117.068,378,117,74612621,base_link,-0.0779556655797776,-0.0867216966351083,-0.5626006497316737,-0.8184636647147145,1.0,0.0,0.0,0.0,1.0,0.0,0.0,0.0,1.0,0.5787810683250427,0.1398072987794875,-0.8355042338371277,1.2184696791468346e-07,0.0,0.0,0.0,1.2184696791468346e-07,0.0,0.0,0.0,1.2184696791468346e-07,0.0,0.009806650000001128,9.218251,8.999999999999999e-08,0.0,0.0,0.0,8.999999999999999e-08,0.0,0.0,0.0,8.999999999999999e-08
117.318,379,117,324667804,base_link,-0.08458839214965594,-0.12003350284019576,-0.4656265299835265,-0.8727134103959608,1.0,0.0,0.0,0.0,1.0,0.0,0.0,0.0,1.0,-0.06720469146966934,-0.032514002174139134,-0.9230204820632935,1.2184696791468346e-07,0.0,0.0,0.0,1.2184696791468346e-07,0.0,0.0,0.0,1.2184696791468346e-07,0.0,0.009806650000001178,9.610517,8.999999999999999e-08,0.0,0.0,0.0,8.999999999999999e-08,0.0,0.0,0.0,8.999999999999999e-08
117.568,380,117,574749582,base_link,-0.042585942948379994,-0.07650328444853477,-0.35936870790819725,-0.9290790153201053,1.0,0.0,0.0,0.0,1.0,0.0,0.0,0.0,1.0,-0.49605828523635864,-0.4468894600868226,-0.9949221014976501,1.2184696791468346e-07,0.0,0.0,0.0,1.2184696791468346e-07,0.0,0.0,0.0,1.2184696791468346e-07,0.0,0.009806650000001227,10.002783,8.999999999999999e-08,0.0,0.0,0.0,8.999999999999999e-08,0.0,0.0,0.0,8.999999999999999e-08
117.818,381,117,824801433,base_link,-0.008170022709762942,-0.011073881313663473,-0.23910458526463974,-0.9708962957942509,1.0,0.0,0.0,0.0,1.0,0.0,0.0,0.0,1.0,-0.2873484194278717,-0.40911182761192333,-1.045881748199463,1.2184696791468346e-07,0.0,0.0,0.0,1.2184696791468346e-07,0.0,0.0,0.0,1.2184696791468346e-07,0.0,0.009806650000001214,9.91452315,8.999999999999999e-08,0.0,0.0,0.0,8.999999999999999e-08,0.0,0.0,0.0,8.999999999999999e-08
118.068,382,118,74885341,base_link,0.004149918627919627,0.030589907019090392,-0.10920702848258862,-0.9935395617155607,1.0,0.0,0.0,0.0,1.0,0.0,0.0,0.0,1.0,-0.09894108027219772,-0.2168677151203157,-1.0635982751846313,1.2184696791468346e-07,0.0,0.0,0.0,1.2184696791468346e-07,0.0,0.0,0.0,1.2184696791468346e-07,0.0,0.0098066500000012,9.79684335,8.999999999999999e-08,0.0,0.0,0.0,8.999999999999999e-08,0.0,0.0,0.0,8.999999999999999e-08
118.318,383,118,324936864,base_link,0.004705095827225495,0.04538604620826589,-0.010215055797962388,-0.998906212573474,1.0,0.0,0.0,0.0,1.0,0.0,0.0,0.0,1.0,-0.011567450128495693,-0.047051735222339706,-0.5973959565162659,1.2184696791468346e-07,0.0,0.0,0.0,1.2184696791468346e-07,0.0,0.0,0.0,1.2184696791468346e-07,-0.00980665,0.009806650000001197,9.77723005,8.999999999999999e-08,0.0,0.0,0.0,8.999999999999999e-08,0.0,0.0,0.0,8.999999999999999e-08
118.568,384,118,575014658,base_link,0.002553696156287219,0.04334630959763492,0.04390175452313544,-0.9980917853734683,1.0,0.0,0.0,0.0,1.0,0.0,0.0,0.0,1.0,0.0004459760384634137,0.06306948512792583,-0.31842681765556335,1.2184696791468346e-07,0.0,0.0,0.0,1.2184696791468346e-07,0.0,0.0,0.0,1.2184696791468346e-07,-0.00980665,0.009806650000001195,9.75761675,8.999999999999999e-08,0.0,0.0,0.0,8.999999999999999e-08,0.0,0.0,0.0,8.999999999999999e-08
118.819,385,118,826068861,base_link,0.0008811440923128195,0.03390679374705681,0.07281964837634242,-0.9967682036126698,1.0,0.0,0.0,0.0,1.0,0.0,0.0,0.0,1.0,-0.002593505894765258,0.09626998752355574,-0.16867120563983917,1.2184696791468346e-07,0.0,0.0,0.0,1.2184696791468346e-07,0.0,0.0,0.0,1.2184696791468346e-07,-0.00980665,1.1937624437661242e-15,9.7478101,8.999999999999999e-08,0.0,0.0,0.0,8.999999999999999e-08,0.0,0.0,0.0,8.999999999999999e-08
119.069,386,119,76149182,base_link,0.00016196282899455023,0.02404446390464636,0.08792480732753172,-0.995836867052027,1.0,0.0,0.0,0.0,1.0,0.0,0.0,0.0,1.0,-0.004061102867126465,0.07733889669179915,-0.08479441702365877,1.2184696791468346e-07,0.0,0.0,0.0,1.2184696791468346e-07,0.0,0.0,0.0,1.2184696791468346e-07,-0.00980665,1.19496341201941e-15,9.75761675,8.999999999999999e-08,0.0,0.0,0.0,8.999999999999999e-08,0.0,0.0,0.0,8.999999999999999e-08
119.319,387,119,326203073,base_link,9.883961678901753e-05,0.01682267312005437,0.09539749692806648,-0.995297094077786,1.0,0.0,0.0,0.0,1.0,0.0,0.0,0.0,1.0,-0.006281772628426552,0.043642841279506676,-0.03856229782104493,1.2184696791468346e-07,0.0,0.0,0.0,1.2184696791468346e-07,0.0,0.0,0.0,1.2184696791468346e-07,-0.00980665,1.1961643802726959e-15,9.7674234,8.999999999999999e-08,0.0,0.0,0.0,8.999999999999999e-08,0.0,0.0,0.0,8.999999999999999e-08
119.569,388,119,575284429,base_link,0.0001065880840110001,0.012476130436829096,0.09846211641619368,-0.9950625841820944,1.0,0.0,0.0,0.0,1.0,0.0,0.0,0.0,1.0,-0.0015145090874284506,0.02579897828400135,-0.012042046524584297,1.2184696791468346e-07,0.0,0.0,0.0,1.2184696791468346e-07,0.0,0.0,0.0,1.2184696791468346e-07,-0.00980665,1.1997672850325534e-15,9.79684335,8.999999999999999e-08,0.0,0.0,0.0,8.999999999999999e-08,0.0,0.0,0.0,8.999999999999999e-08
119.819,389,119,825338012,base_link,-0.00010660103682718475,0.011028357674478476,0.09891726668893003,-0.9950345412667913,1.0,0.0,0.0,0.0,1.0,0.0,0.0,0.0,1.0,0.002050049602985382,0.005394048057496549,0.006659031379967927,1.2184696791468346e-07,0.0,0.0,0.0,1.2184696791468346e-07,0.0,0.0,0.0,1.2184696791468346e-07,0.0,1.2009682532858392e-15,9.80665,8.999999999999999e-08,0.0,0.0,0.0,8.999999999999999e-08,0.0,0.0,0.0,8.999999999999999e-08
120.069,390,120,75423045,base_link,-0.00010988187679646078,0.011157608436119754,0.09804425553940738,-0.995119500188637,1.0,0.0,0.0,0.0,1.0,0.0,0.0,0.0,1.0,-0.001245764084160328,-0.0037809794303029763,0.009469659067690372,1.2184696791468346e-07,0.0,0.0,0.0,1.2184696791468346e-07,0.0,0.0,0.0,1.2184696791468346e-07,0.0,1.202169221539125e-15,9.81645665,8.999999999999999e-08,0.0,0.0,0.0,8.999999999999999e-08,0.0,0.0,0.0,8.999999999999999e-08
120.319,391,120,325479332,base_link,-0.00022885815184087925,0.012129303813788997,0.09653328514841775,-0.9952558226262198,1.0,0.0,0.0,0.0,1.0,0.0,0.0,0.0,1.0,0.0019159701187163591,-0.009754436090588568,0.01481766812503338,1.2184696791468346e-07,0.0,0.0,0.0,1.2184696791468346e-07,0.0,0.0,0.0,1.2184696791468346e-07,0.0,1.2033701897924109e-15,9.8262633,8.999999999999999e-08,0.0,0.0,0.0,8.999999999999999e-08,0.0,0.0,0.0,8.999999999999999e-08
120.569,392,120,575562799,base_link,-0.0002681872766311141,0.013316826682814248,0.09464220148207608,-0.9954222440257755,1.0,0.0,0.0,0.0,1.0,0.0,0.0,0.0,1.0,0.002816083375364542,-0.008231950923800467,0.016828494146466255,1.2184696791468346e-07,0.0,0.0,0.0,1.2184696791468346e-07,0.0,0.0,0.0,1.2184696791468346e-07,0.0,1.202169221539125e-15,9.81645665,8.999999999999999e-08,0.0,0.0,0.0,8.999999999999999e-08,0.0,0.0,0.0,8.999999999999999e-08
120.819,393,120,825617299,base_link,-0.00039857765645782425,0.01427630641928163,0.09256351742403651,-0.9956043508608049,1.0,0.0,0.0,0.0,1.0,0.0,0.0,0.0,1.0,0.0034323115833103657,-0.006899820640683172,0.016382696107029915,1.2184696791468346e-07,0.0,0.0,0.0,1.2184696791468346e-07,0.0,0.0,0.0,1.2184696791468346e-07,0.0,1.202169221539125e-15,9.81645665,8.999999999999999e-08,0.0,0.0,0.0,8.999999999999999e-08,0.0,0.0,0.0,8.999999999999999e-08
121.069,394,121,75705961,base_link,-0.0003445845398733092,0.014798799771259603,0.09043054942615242,-0.9957927457645538,1.0,0.0,0.0,0.0,1.0,0.0,0.0,0.0,1.0,-0.001815911615267396,-0.0028080411721020915,0.019081272184848785,1.2184696791468346e-07,0.0,0.0,0.0,1.2184696791468346e-07,0.0,0.0,0.0,1.2184696791468346e-07,0.0,1.202169221539125e-15,9.81645665,8.999999999999999e-08,0.0,0.0,0.0,8.999999999999999e-08,0.0,0.0,0.0,8.999999999999999e-08
121.319,395,121,325763174,base_link,-0.00028619546435096924,0.014639365145759954,0.08835426920715755,-0.9959814908888389,1.0,0.0,0.0,0.0,1.0,0.0,0.0,0.0,1.0,0.0006405910244211555,0.003493898781016471,0.018677381798624992,1.2184696791468346e-07,0.0,0.0,0.0,1.2184696791468346e-07,0.0,0.0,0.0,1.2184696791468346e-07,0.0,1.202169221539125e-15,9.81645665,8.999999999999999e-08,0.0,0.0,0.0,8.999999999999999e-08,0.0,0.0,0.0,8.999999999999999e-08
121.569,396,121,575842791,base_link,-0.00047792810750038665,0.014069131337623964,0.08645884927722886,-0.996155960936733,1.0,0.0,0.0,0.0,1.0,0.0,0.0,0.0,1.0,-0.0015591795090585947,0.005269706249237062,0.01697353459894657,1.2184696791468346e-07,0.0,0.0,0.0,1.2184696791468346e-07,0.0,0.0,0.0,1.2184696791468346e-07,0.0,1.202169221539125e-15,9.81645665,8.999999999999999e-08,0.0,0.0,0.0,8.999999999999999e-08,0.0,0.0,0.0,8.999999999999999e-08
121.82,397,121,826896728,base_link,-0.0007776183966909999,0.013188682244731105,0.08456212341416935,-0.9963306184464891,1.0,0.0,0.0,0.0,1.0,0.0,0.0,0.0,1.0,0.0018356888322159648,0.008115954697132112,0.014493220485746859,1.2184696791468346e-07,0.0,0.0,0.0,1.2184696791468346e-07,0.0,0.0,0.0,1.2184696791468346e-07,0.0,1.202169221539125e-15,9.81645665,8.999999999999999e-08,0.0,0.0,0.0,8.999999999999999e-08,0.0,0.0,0.0,8.999999999999999e-08
122.07,398,122,76978564,base_link,-0.0009460269868925005,0.012037405839402885,0.08277548019653908,-0.9964950706209388,1.0,0.0,0.0,0.0,1.0,0.0,0.0,0.0,1.0,0.0024624518118798733,0.008228790014982225,0.01182582415640354,1.2184696791468346e-07,0.0,0.0,0.0,1.2184696791468346e-07,0.0,0.0,0.0,1.2184696791468346e-07,0.0,1.2009682532858392e-15,9.80665,8.999999999999999e-08,0.0,0.0,0.0,8.999999999999999e-08,0.0,0.0,0.0,8.999999999999999e-08
122.32,399,122,327030731,base_link,-0.0008518012592009027,0.010756541281278354,0.08116165578395285,-0.9966425421808394,1.0,0.0,0.0,0.0,1.0,0.0,0.0,0.0,1.0,-0.0006253555184230208,0.011517388746142389,0.01296267472207546,1.2184696791468346e-07,0.0,0.0,0.0,1.2184696791468346e-07,0.0,0.0,0.0,1.2184696791468346e-07,0.0,1.2009682532858392e-15,9.80665,8.999999999999999e-08,0.0,0.0,0.0,8.999999999999999e-08,0.0,0.0,0.0,8.999999999999999e-08
122.57,400,122,576108039,base_link,-0.0008145368367716163,0.009485144607920496,0.07962958634526413,-0.9967790615477388,1.0,0.0,0.0,0.0,1.0,0.0,0.0,0.0,1.0,-0.00322538148611784,0.009716233238577844,0.013274538330733774,1.2184696791468346e-07,0.0,0.0,0.0,1.2184696791468346e-07,0.0,0.0,0.0,1.2184696791468346e-07,0.0,1.202169221539125e-15,9.81645665,8.999999999999999e-08,0.0,0.0,0.0,8.999999999999999e-08,0.0,0.0,0.0,8.999999999999999e-08
122.82,401,122,826158447,base_link,-0.000976069018372312,0.008128276701458052,0.0782048973458192,-0.9969036926595597,1.0,0.0,0.0,0.0,1.0,0.0,0.0,0.0,1.0,-0.0013300118735060096,0.00924908183515072,0.010729366913437842,1.2184696791468346e-07,0.0,0.0,0.0,1.2184696791468346e-07,0.0,0.0,0.0,1.2184696791468346e-07,0.0,1.2009682532858392e-15,9.80665,8.999999999999999e-08,0.0,0.0,0.0,8.999999999999999e-08,0.0,0.0,0.0,8.999999999999999e-08
123.07,402,123,76237995,base_link,-0.0010519086407046224,0.006926028501391017,0.07679337074380665,-0.9970224179160738,1.0,0.0,0.0,0.0,1.0,0.0,0.0,0.0,1.0,-0.00402997387573123,0.008813752792775633,0.01091465726494789,1.2184696791468346e-07,0.0,0.0,0.0,1.2184696791468346e-07,0.0,0.0,0.0,1.2184696791468346e-07,0.0,1.2009682532858392e-15,9.80665,8.999999999999999e-08,0.0,0.0,0.0,8.999999999999999e-08,0.0,0.0,0.0,8.999999999999999e-08
123.32,403,123,326291145,base_link,-0.0011618446526501795,0.005857080278920985,0.0754567878994919,-0.9971311939195868,1.0,0.0,0.0,0.0,1.0,0.0,0.0,0.0,1.0,0.0013074922608211637,0.008998018689453604,0.011692854575812815,1.2184696791468346e-07,0.0,0.0,0.0,1.2184696791468346e-07,0.0,0.0,0.0,1.2184696791468346e-07,0.0,1.202169221539125e-15,9.81645665,8.999999999999999e-08,0.0,0.0,0.0,8.999999999999999e-08,0.0,0.0,0.0,8.999999999999999e-08
123.57,404,123,576366185,base_link,-0.0012552056609873644,0.005022540522022581,0.07429053006650332,-0.9972232025418839,1.0,0.0,0.0,0.0,1.0,0.0,0.0,0.0,1.0,-0.0011728446697816253,0.005625341087579729,0.010747597552835941,1.2184696791468346e-07,0.0,0.0,0.0,1.2184696791468346e-07,0.0,0.0,0.0,1.2184696791468346e-07,0.0,1.2009682532858392e-15,9.80665,8.999999999999999e-08,0.0,0.0,0.0,8.999999999999999e-08,0.0,0.0,0.0,8.999999999999999e-08
123.82,405,123,826416087,base_link,-0.0014820528090684086,0.004406402013009527,0.07317247623933015,-0.9973084657525852,1.0,0.0,0.0,0.0,1.0,0.0,0.0,0.0,1.0,0.001483612577430904,0.003177568782120944,0.007426627911627293,1.2184696791468346e-07,0.0,0.0,0.0,1.2184696791468346e-07,0.0,0.0,0.0,1.2184696791468346e-07,0.0,1.2009682532858392e-15,9.80665,8.999999999999999e-08,0.0,0.0,0.0,8.999999999999999e-08,0.0,0.0,0.0,8.999999999999999e-08
124.07,406,124,76493762,base_link,-0.001648834110044895,0.0037243732576963252,0.07210345563434051,-0.997388841964608,1.0,0.0,0.0,0.0,1.0,0.0,0.0,0.0,1.0,0.002572947647422552,0.004469404462724925,0.008015962317585945,1.2184696791468346e-07,0.0,0.0,0.0,1.2184696791468346e-07,0.0,0.0,0.0,1.2184696791468346e-07,0.0,1.2009682532858392e-15,9.80665,8.999999999999999e-08,0.0,0.0,0.0,8.999999999999999e-08,0.0,0.0,0.0,8.999999999999999e-08
124.32,407,124,326543423,base_link,-0.0017260194429460601,0.0029795327210546257,0.07111197812599135,-0.9974623951852295,1.0,0.0,0.0,0.0,1.0,0.0,0.0,0.0,1.0,-1.7398735508322716e-05,0.0074389511719346055,0.007106338627636432,1.2184696791468346e-07,0.0,0.0,0.0,1.2184696791468346e-07,0.0,0.0,0.0,1.2184696791468346e-07,0.0,1.2009682532858392e-15,9.80665,8.999999999999999e-08,0.0,0.0,0.0,8.999999999999999e-08,0.0,0.0,0.0,8.999999999999999e-08
124.57,408,124,576617743,base_link,-0.0018198671183703896,0.002428813353642514,0.0701640524424002,-0.9975308489937664,1.0,0.0,0.0,0.0,1.0,0.0,0.0,0.0,1.0,-0.0016879518516361713,0.0036535700783133515,0.0067823128774762145,1.2184696791468346e-07,0.0,0.0,0.0,1.2184696791468346e-07,0.0,0.0,0.0,1.2184696791468346e-07,0.0,1.2009682532858392e-15,9.80665,8.999999999999999e-08,0.0,0.0,0.0,8.999999999999999e-08,0.0,0.0,0.0,8.999999999999999e-08
124.821,409,124,827668671,base_link,-0.001874035575040176,0.0020473468953820764,0.06933666601785649,-0.9975894561927174,1.0,0.0,0.0,0.0,1.0,0.0,0.0,0.0,1.0,0.004208800382912159,-0.0004038581391796463,0.005512375384569168,1.2184696791468346e-07,0.0,0.0,0.0,1.2184696791468346e-07,0.0,0.0,0.0,1.2184696791468346e-07,0.0,1.2009682532858392e-15,9.80665,8.999999999999999e-08,0.0,0.0,0.0,8.999999999999999e-08,0.0,0.0,0.0,8.999999999999999e-08
125.071,410,125,77745647,base_link,-0.0019763397813880048,0.001780929760026407,0.06855700749751459,-0.9976436533618827,1.0,0.0,0.0,0.0,1.0,0.0,0.0,0.0,1.0,-0.0016843525227159262,0.00028392602689564293,0.005254328716546297,1.2184696791468346e-07,0.0,0.0,0.0,1.2184696791468346e-07,0.0,0.0,0.0,1.2184696791468346e-07,0.0,1.2009682532858392e-15,9.80665,8.999999999999999e-08,0.0,0.0,0.0,8.999999999999999e-08,0.0,0.0,0.0,8.999999999999999e-08
125.321,411,125,327797850,base_link,-0.002165316740781905,0.0016834435943506034,0.06777514591516881,-0.9976968512615714,1.0,0.0,0.0,0.0,1.0,0.0,0.0,0.0,1.0,-0.003031087340787053,0.0028284932486712937,0.0037096063606441017,1.2184696791468346e-07,0.0,0.0,0.0,1.2184696791468346e-07,0.0,0.0,0.0,1.2184696791468346e-07,0.0,1.2009682532858392e-15,9.80665,8.999999999999999e-08,0.0,0.0,0.0,8.999999999999999e-08,0.0,0.0,0.0,8.999999999999999e-08
125.571,412,125,576872992,base_link,-0.0022800066981080824,0.0015138489633299244,0.06704280989767458,-0.9977463462583048,1.0,0.0,0.0,0.0,1.0,0.0,0.0,0.0,1.0,0.002373199677094817,-8.600996807217582e-05,0.0012955788988620043,1.2184696791468346e-07,0.0,0.0,0.0,1.2184696791468346e-07,0.0,0.0,0.0,1.2184696791468346e-07,0.0,1.2009682532858392e-15,9.80665,8.999999999999999e-08,0.0,0.0,0.0,8.999999999999999e-08,0.0,0.0,0.0,8.999999999999999e-08
125.821,413,125,826920479,base_link,-0.0024534699248000566,0.0014649104650799147,0.06641623457702284,-0.9977879124880532,1.0,0.0,0.0,0.0,1.0,0.0,0.0,0.0,1.0,0.0017882162937894464,-0.0023737270385026927,0.0042700860649347305,1.2184696791468346e-07,0.0,0.0,0.0,1.2184696791468346e-07,0.0,0.0,0.0,1.2184696791468346e-07,0.0,1.2009682532858392e-15,9.80665,8.999999999999999e-08,0.0,0.0,0.0,8.999999999999999e-08,0.0,0.0,0.0,8.999999999999999e-08
126.071,414,126,76999426,base_link,-0.0025112954450997034,0.001357579963775749,0.06580595304413933,-0.9978283554378389,1.0,0.0,0.0,0.0,1.0,0.0,0.0,0.0,1.0,-0.004358416423201561,-0.0009841590654104944,0.003604556666687131,1.2184696791468346e-07,0.0,0.0,0.0,1.2184696791468346e-07,0.0,0.0,0.0,1.2184696791468346e-07,0.0,1.2009682532858392e-15,9.80665,8.999999999999999e-08,0.0,0.0,0.0,8.999999999999999e-08,0.0,0.0,0.0,8.999999999999999e-08
126.321,415,126,327051198,base_link,-0.0026738760672156076,0.0011443684428454628,0.0651869277931148,-0.9978688316870807,1.0,0.0,0.0,0.0,1.0,0.0,0.0,0.0,1.0,-0.0009519714512862265,0.0026629958301782617,0.005325965583324432,1.2184696791468346e-07,0.0,0.0,0.0,1.2184696791468346e-07,0.0,0.0,0.0,1.2184696791468346e-07,0.0,1.2009682532858392e-15,9.80665,8.999999999999999e-08,0.0,0.0,0.0,8.999999999999999e-08,0.0,0.0,0.0,8.999999999999999e-08
126.571,416,126,577127205,base_link,-0.0028608547067503647,0.000946173322527248,0.06465655944823873,-0.9979030261436764,1.0,0.0,0.0,0.0,1.0,0.0,0.0,0.0,1.0,0.004912082105875015,-0.0011272307019680734,0.0028772149235010147,1.2184696791468346e-07,0.0,0.0,0.0,1.2184696791468346e-07,0.0,0.0,0.0,1.2184696791468346e-07,0.0,1.2009682532858392e-15,9.80665,8.999999999999999e-08,0.0,0.0,0.0,8.999999999999999e-08,0.0,0.0,0.0,8.999999999999999e-08
126.821,417,126,827178772,base_link,-0.0029193529945659683,0.0008145578053181985,0.0641926091148401,-0.9979329250048343,1.0,0.0,0.0,0.0,1.0,0.0,0.0,0.0,1.0,0.005159253254532814,0.0009302241960540417,0.002329775132238865,1.2184696791468346e-07,0.0,0.0,0.0,1.2184696791468346e-07,0.0,0.0,0.0,1.2184696791468346e-07,0.0,1.2009682532858392e-15,9.80665,8.999999999999999e-08,0.0,0.0,0.0,8.999999999999999e-08,0.0,0.0,0.0,8.999999999999999e-08
127.071,418,127,77254479,base_link,-0.002800687000399681,0.000550138825446418,0.06373644435476294,-0.997962684252578,1.0,0.0,0.0,0.0,1.0,0.0,0.0,0.0,1.0,-0.006754547357559204,0.00130979681853205,0.0026981565169990063,1.2184696791468346e-07,0.0,0.0,0.0,1.2184696791468346e-07,0.0,0.0,0.0,1.2184696791468346e-07,0.0,1.2009682532858392e-15,9.80665,8.999999999999999e-08,0.0,0.0,0.0,8.999999999999999e-08,0.0,0.0,0.0,8.999999999999999e-08
127.321,419,127,327301351,base_link,0.039135535433235676,-0.0038685073680463453,0.02688185422309769,-0.9988647608313277,1.0,0.0,0.0,0.0,1.0,0.0,0.0,0.0,1.0,-0.5257290601730347,0.040656365454197006,0.6196404695510864,1.2184696791468346e-07,0.0,0.0,0.0,1.2184696791468346e-07,0.0,0.0,0.0,1.2184696791468346e-07,0.0,1.2009682532858392e-15,9.80665,8.999999999999999e-08,0.0,0.0,0.0,8.999999999999999e-08,0.0,0.0,0.0,8.999999999999999e-08
127.571,420,127,577375265,base_link,0.1089725156371706,-0.02192336948168894,-0.0674830663990213,-0.9915091489520715,1.0,0.0,0.0,0.0,1.0,0.0,0.0,0.0,1.0,-0.5547316074371338,0.1439272016286851,0.8246111273765564,1.2184696791468346e-07,0.0,0.0,0.0,1.2184696791468346e-07,0.0,0.0,0.0,1.2184696791468346e-07,0.0,1.2033701897924109e-15,9.8262633,8.999999999999999e-08,0.0,0.0,0.0,8.999999999999999e-08,0.0,0.0,0.0,8.999999999999999e-08
127.822,421,127,828427946,base_link,0.1323735110601397,-0.04238294846576036,-0.17595452241992382,-0.9745362719206179,1.0,0.0,0.0,0.0,1.0,0.0,0.0,0.0,1.0,0.10182379186153412,-0.05602785199880589,0.9163582921028137,1.2184696791468346e-07,0.0,0.0,0.0,1.2184696791468346e-07,0.0,0.0,0.0,1.2184696791468346e-07,0.0,1.2237866500982701e-15,9.99297635,8.999999999999999e-08,0.0,0.0,0.0,8.999999999999999e-08,0.0,0.0,0.0,8.999999999999999e-08
128.072,422,128,78509045,base_link,0.07201661980746998,-0.032016819933548386,-0.29421458040813636,-0.9524842835386383,1.0,0.0,0.0,0.0,1.0,0.0,0.0,0.0,1.0,0.490381121635437,-0.44424304366111744,0.9957664012908936,1.2184696791468346e-07,0.0,0.0,0.0,1.2184696791468346e-07,0.0,0.0,0.0,1.2184696791468346e-07,-0.00980665,1.2490069834172728e-15,10.198916,8.999999999999999e-08,0.0,0.0,0.0,8.999999999999999e-08,0.0,0.0,0.0,8.999999999999999e-08
128.322,423,128,328559831,base_link,0.007273921254537758,-0.0029993447080540513,-0.41575611467669277,-0.9094421076186464,1.0,0.0,0.0,0.0,1.0,0.0,0.0,0.0,1.0,0.26952046155929565,-0.37465962767601,1.0521022081375122,1.2184696791468346e-07,0.0,0.0,0.0,1.2184696791468346e-07,0.0,0.0,0.0,1.2184696791468346e-07,-0.00980665,1.2273895548581276e-15,10.0223963,8.999999999999999e-08,0.0,0.0,0.0,8.999999999999999e-08,0.0,0.0,0.0,8.999999999999999e-08
128.572,424,128,578639991,base_link,-0.026266442564715317,0.020281066662450754,-0.5319481237204955,-0.8461264361785843,1.0,0.0,0.0,0.0,1.0,0.0,0.0,0.0,1.0,0.08538376539945602,-0.19243736565113054,1.0247968435287476,1.2184696791468346e-07,0.0,0.0,0.0,1.2184696791468346e-07,0.0,0.0,0.0,1.2184696791468346e-07,-0.0196133,1.2093750310588401e-15,9.87529655,8.999999999999999e-08,0.0,0.0,0.0,8.999999999999999e-08,0.0,0.0,0.0,8.999999999999999e-08
128.822,425,128,828691593,base_link,-0.0340874725011499,0.031267580468676816,-0.6087297083892034,-0.7920281085633977,1.0,0.0,0.0,0.0,1.0,0.0,0.0,0.0,1.0,0.0026370889972895384,-0.029807912185788085,0.5736611485481262,1.2184696791468346e-07,0.0,0.0,0.0,1.2184696791468346e-07,0.0,0.0,0.0,1.2184696791468346e-07,-0.00980665,1.2045711580456967e-15,9.83606995,8.999999999999999e-08,0.0,0.0,0.0,8.999999999999999e-08,0.0,0.0,0.0,8.999999999999999e-08
129.072,426,129,77774862,base_link,-0.030637874378618247,0.03235093271114423,-0.6493444959215143,-0.7591880290301698,1.0,0.0,0.0,0.0,1.0,0.0,0.0,0.0,1.0,-0.010284866206347942,0.04711521789431576,0.3122710585594177,1.2184696791468346e-07,0.0,0.0,0.0,1.2184696791468346e-07,0.0,0.0,0.0,1.2184696791468346e-07,-0.00980665,1.202169221539125e-15,9.81645665,8.999999999999999e-08,0.0,0.0,0.0,8.999999999999999e-08,0.0,0.0,0.0,8.999999999999999e-08
129.322,427,129,327827287,base_link,-0.024097366006812615,0.027899291870331844,-0.6708659698502798,-0.7406617291054742,1.0,0.0,0.0,0.0,1.0,0.0,0.0,0.0,1.0,-0.004398360848426819,0.07011858373880388,0.16623443365097046,1.2184696791468346e-07,0.0,0.0,0.0,1.2184696791468346e-07,0.0,0.0,0.0,1.2184696791468346e-07,-0.00980665,1.1997672850325534e-15,9.79684335,8.999999999999999e-08,0.0,0.0,0.0,8.999999999999999e-08,0.0,0.0,0.0,8.999999999999999e-08
129.572,428,129,577899415,base_link,-0.01758711441689589,0.021879429617909257,-0.6823650164527952,-0.7304724281500695,1.0,0.0,0.0,0.0,1.0,0.0,0.0,0.0,1.0,-0.005886144936084747,0.07132359594106676,0.08516244590282439,1.2184696791468346e-07,0.0,0.0,0.0,1.2184696791468346e-07,0.0,0.0,0.0,1.2184696791468346e-07,-0.00980665,1.1985663167792674e-15,9.7870367,8.999999999999999e-08,0.0,0.0,0.0,8.999999999999999e-08,0.0,0.0,0.0,8.999999999999999e-08
129.822,429,129,827951169,base_link,-0.012410888566741106,0.016418856044227194,-0.6881269519744527,-0.7252983448054546,1.0,0.0,0.0,0.0,1.0,0.0,0.0,0.0,1.0,0.0025278511457145214,0.053368102759122855,0.036951020359992974,1.2184696791468346e-07,0.0,0.0,0.0,1.2184696791468346e-07,0.0,0.0,0.0,1.2184696791468346e-07,-0.00980665,1.2009682532858392e-15,9.80665,8.999999999999999e-08,0.0,0.0,0.0,8.999999999999999e-08,0.0,0.0,0.0,8.999999999999999e-08
130.072,430,130,78026796,base_link,-0.009335355540194977,0.012805738399914833,-0.6905343316122737,-0.7231259925253422,1.0,0.0,0.0,0.0,1.0,0.0,0.0,0.0,1.0,0.0012407929170876741,0.026842650026082993,0.010514483787119385,1.2184696791468346e-07,0.0,0.0,0.0,1.2184696791468346e-07,0.0,0.0,0.0,1.2184696791468346e-07,0.0,1.202169221539125e-15,9.81645665,8.999999999999999e-08,0.0,0.0,0.0,8.999999999999999e-08,0.0,0.0,0.0,8.999999999999999e-08
130.322,431,130,328074884,base_link,-0.008081494649554346,0.010892650439154501,-0.6909411559664576,-0.722783756459963,1.0,0.0,0.0,0.0,1.0,0.0,0.0,0.0,1.0,0.0030925069004297256,0.01025896705687046,-0.003890996100381018,1.2184696791468346e-07,0.0,0.0,0.0,1.2184696791468346e-07,0.0,0.0,0.0,1.2184696791468346e-07,0.0,1.2033701897924109e-15,9.8262633,8.999999999999999e-08,0.0,0.0,0.0,8.999999999999999e-08,0.0,0.0,0.0,8.999999999999999e-08
130.572,432,130,578142018,base_link,-0.008122377247606491,0.010235166350559472,-0.6903152803560568,-0.7233906842533727,1.0,0.0,0.0,0.0,1.0,0.0,0.0,0.0,1.0,0.003840578952804208,-0.0007988046854734438,-0.013778241351246834,1.2184696791468346e-07,0.0,0.0,0.0,1.2184696791468346e-07,0.0,0.0,0.0,1.2184696791468346e-07,0.0,1.2033701897924109e-15,9.8262633,8.999999999999999e-08,0.0,0.0,0.0,8.999999999999999e-08,0.0,0.0,0.0,8.999999999999999e-08
130.822,433,130,828186449,base_link,-0.008791615697264974,0.010327276390300523,-0.6891297361689881,-0.7245110500078319,1.0,0.0,0.0,0.0,1.0,0.0,0.0,0.0,1.0,0.00020312611013650894,-0.01082628406584263,-0.014782400801777838,1.2184696791468346e-07,0.0,0.0,0.0,1.2184696791468346e-07,0.0,0.0,0.0,1.2184696791468346e-07,0.0,1.2009682532858392e-15,9.80665,8.999999999999999e-08,0.0,0.0,0.0,8.999999999999999e-08,0.0,0.0,0.0,8.999999999999999e-08
131.072,434,131,78254100,base_link,-0.00962903964250683,0.010696405546495867,-0.6877217832377206,-0.725831672885854,1.0,0.0,0.0,0.0,1.0,0.0,0.0,0.0,1.0,0.005202132277190685,-0.006955211982131007,-0.018148737028241158,1.2184696791468346e-07,0.0,0.0,0.0,1.2184696791468346e-07,0.0,0.0,0.0,1.2184696791468346e-07,0.0,1.202169221539125e-15,9.81645665,8.999999999999999e-08,0.0,0.0,0.0,8.999999999999999e-08,0.0,0.0,0.0,8.999999999999999e-08
131.326,435,131,328299380,base_link,-0.010215293443571043,0.010821173874606129,-0.6862154324550632,-0.7272461276874205,1.0,0.0,0.0,0.0,1.0,0.0,0.0,0.0,1.0,0.0042122164741158485,-0.0027792728506028674,-0.016390923410654068,1.2184696791468346e-07,0.0,0.0,0.0,1.2184696791468346e-07,0.0,0.0,0.0,1.2184696791468346e-07,0.0,1.2009682532858392e-15,9.80665,8.999999999999999e-08,0.0,0.0,0.0,8.999999999999999e-08,0.0,0.0,0.0,8.999999999999999e-08
131.572,436,131,578364561,base_link,-0.010326030677786856,0.010678761746432477,-0.6847078296664777,-0.7286662645761953,1.0,0.0,0.0,0.0,1.0,0.0,0.0,0.0,1.0,-0.0027394602075219154,0.0007634188514202815,-0.01526192668825388,1.2184696791468346e-07,0.0,0.0,0.0,1.2184696791468346e-07,0.0,0.0,0.0,1.2184696791468346e-07,0.0,1.2009682532858392e-15,9.80665,8.999999999999999e-08,0.0,0.0,0.0,8.999999999999999e-08,0.0,0.0,0.0,8.999999999999999e-08
131.822,437,131,828409197,base_link,-0.010240521346813025,0.010333912467518056,-0.6832976450967313,-0.7299949795587095,1.0,0.0,0.0,0.0,1.0,0.0,0.0,0.0,1.0,0.002048374153673649,0.0001193409552797657,-0.014880389906466007,1.2184696791468346e-07,0.0,0.0,0.0,1.2184696791468346e-07,0.0,0.0,0.0,1.2184696791468346e-07,0.0,1.2009682532858392e-15,9.80665,8.999999999999999e-08,0.0,0.0,0.0,8.999999999999999e-08,0.0,0.0,0.0,8.999999999999999e-08
132.072,438,132,78479045,base_link,-0.009944789566446352,0.009668418464514487,-0.6819613120465533,-0.7312567208009905,1.0,0.0,0.0,0.0,1.0,0.0,0.0,0.0,1.0,0.004838244523853064,0.00541750807315111,-0.014900770969688892,1.2184696791468346e-07,0.0,0.0,0.0,1.2184696791468346e-07,0.0,0.0,0.0,1.2184696791468346e-07,0.0,1.2009682532858392e-15,9.80665,8.999999999999999e-08,0.0,0.0,0.0,8.999999999999999e-08,0.0,0.0,0.0,8.999999999999999e-08
132.322,439,132,328521545,base_link,-0.00934518795505161,0.008703456226687386,-0.6807061239537013,-0.7324452813171255,1.0,0.0,0.0,0.0,1.0,0.0,0.0,0.0,1.0,-0.0006356684025377035,0.011118087917566298,-0.013169121928513052,1.2184696791468346e-07,0.0,0.0,0.0,1.2184696791468346e-07,0.0,0.0,0.0,1.2184696791468346e-07,0.0,1.2009682532858392e-15,9.80665,8.999999999999999e-08,0.0,0.0,0.0,8.999999999999999e-08,0.0,0.0,0.0,8.999999999999999e-08
132.572,440,132,578586316,base_link,-0.008560722471580044,0.007572448604041757,-0.6794740948219244,-0.7336104732886725,1.0,0.0,0.0,0.0,1.0,0.0,0.0,0.0,1.0,-7.171102333813906e-05,0.010439977049827574,-0.010262113064527513,1.2184696791468346e-07,0.0,0.0,0.0,1.2184696791468346e-07,0.0,0.0,0.0,1.2184696791468346e-07,0.0,1.2009682532858392e-15,9.80665,8.999999999999999e-08,0.0,0.0,0.0,8.999999999999999e-08,0.0,0.0,0.0,8.999999999999999e-08
132.822,441,132,828629686,base_link,-0.00764750093658515,0.006450525869547266,-0.6783438350902821,-0.7346764919612165,1.0,0.0,0.0,0.0,1.0,0.0,0.0,0.0,1.0,0.00047666183672845364,0.00839373655617237,-0.012733231298625471,1.2184696791468346e-07,0.0,0.0,0.0,1.2184696791468346e-07,0.0,0.0,0.0,1.2184696791468346e-07,0.0,1.2009682532858392e-15,9.80665,8.999999999999999e-08,0.0,0.0,0.0,8.999999999999999e-08,0.0,0.0,0.0,8.999999999999999e-08
133.072,442,133,78696146,base_link,-0.006731113535493189,0.005382919059382941,-0.6772355939763044,-0.7357157511869205,1.0,0.0,0.0,0.0,1.0,0.0,0.0,0.0,1.0,-0.002119299490004778,0.008938930928707121,-0.010445027612149717,1.2184696791468346e-07,0.0,0.0,0.0,1.2184696791468346e-07,0.0,0.0,0.0,1.2184696791468346e-07,0.0,1.2009682532858392e-15,9.80665,8.999999999999999e-08,0.0,0.0,0.0,8.999999999999999e-08,0.0,0.0,0.0,8.999999999999999e-08
133.323,443,133,329737393,base_link,-0.0058196711243753575,0.004391107055422608,-0.6762115880860979,-0.7366713906111119,1.0,0.0,0.0,0.0,1.0,0.0,0.0,0.0,1.0,0.001330521423369646,0.012485265731811522,-0.009287271648645403,1.2184696791468346e-07,0.0,0.0,0.0,1.2184696791468346e-07,0.0,0.0,0.0,1.2184696791468346e-07,0.0,1.2009682532858392e-15,9.80665,8.999999999999999e-08,0.0,0.0,0.0,8.999999999999999e-08,0.0,0.0,0.0,8.999999999999999e-08
133.573,444,133,579801798,base_link,-0.00507661205470294,0.0035214725991213457,-0.6752965589263318,-0.7375204300512869,1.0,0.0,0.0,0.0,1.0,0.0,0.0,0.0,1.0,0.003074928652495146,0.00823994632810354,-0.009722371585667135,1.2184696791468346e-07,0.0,0.0,0.0,1.2184696791468346e-07,0.0,0.0,0.0,1.2184696791468346e-07,0.0,1.2009682532858392e-15,9.80665,8.999999999999999e-08,0.0,0.0,0.0,8.999999999999999e-08,0.0,0.0,0.0,8.999999999999999e-08
133.823,445,133,829843930,base_link,-0.004197096405346103,0.002832551330867805,-0.6745137302855472,-0.7382449381411282,1.0,0.0,0.0,0.0,1.0,0.0,0.0,0.0,1.0,0.0015107408398762345,0.005655360408127307,-0.00888183806091547,1.2184696791468346e-07,0.0,0.0,0.0,1.2184696791468346e-07,0.0,0.0,0.0,1.2184696791468346e-07,0.0,1.2009682532858392e-15,9.80665,8.999999999999999e-08,0.0,0.0,0.0,8.999999999999999e-08,0.0,0.0,0.0,8.999999999999999e-08
134.073,446,134,79907417,base_link,-0.00331746497889237,0.002140120260092605,-0.6736558918507547,-0.7390346092614003,1.0,0.0,0.0,0.0,1.0,0.0,0.0,0.0,1.0,-0.00010387029033154249,0.00700644589960575,-0.009609134867787361,1.2184696791468346e-07,0.0,0.0,0.0,1.2184696791468346e-07,0.0,0.0,0.0,1.2184696791468346e-07,0.0,1.2009682532858392e-15,9.80665,8.999999999999999e-08,0.0,0.0,0.0,8.999999999999999e-08,0.0,0.0,0.0,8.999999999999999e-08
134.323,447,134,329948941,base_link,-0.0025803313225653927,0.0014930787015531794,-0.6728741431973854,-0.7397509716266966,1.0,0.0,0.0,0.0,1.0,0.0,0.0,0.0,1.0,-0.004040904343128204,0.008103322237730026,-0.006976631470024587,1.2184696791468346e-07,0.0,0.0,0.0,1.2184696791468346e-07,0.0,0.0,0.0,1.2184696791468346e-07,0.0,1.2009682532858392e-15,9.80665,8.999999999999999e-08,0.0,0.0,0.0,8.999999999999999e-08,0.0,0.0,0.0,8.999999999999999e-08
134.573,448,134,580011522,base_link,-0.002291823446980638,0.0010792566675235894,-0.6721767504985453,-0.7403863848285908,1.0,0.0,0.0,0.0,1.0,0.0,0.0,0.0,1.0,0.0035301405005156994,0.0031725228764116755,-0.007282137405127287,1.2184696791468346e-07,0.0,0.0,0.0,1.2184696791468346e-07,0.0,0.0,0.0,1.2184696791468346e-07,0.0,1.2009682532858392e-15,9.80665,8.999999999999999e-08,0.0,0.0,0.0,8.999999999999999e-08,0.0,0.0,0.0,8.999999999999999e-08
134.823,449,134,830052446,base_link,-0.0019706146209412904,0.0008129658304689665,-0.6715317009272144,-0.740972759562979,1.0,0.0,0.0,0.0,1.0,0.0,0.0,0.0,1.0,0.0022140443325042725,0.001268967753276228,-0.00739069189876318,1.2184696791468346e-07,0.0,0.0,0.0,1.2184696791468346e-07,0.0,0.0,0.0,1.2184696791468346e-07,0.0,1.2009682532858392e-15,9.80665,8.999999999999999e-08,0.0,0.0,0.0,8.999999999999999e-08,0.0,0.0,0.0,8.999999999999999e-08
135.073,450,135,79118259,base_link,-0.0015691633821594178,0.0005361841306009992,-0.6708617307011856,-0.7415806014948532,1.0,0.0,0.0,0.0,1.0,0.0,0.0,0.0,1.0,-0.0027227820828557014,0.002921098377555608,-0.006016169209033251,1.2184696791468346e-07,0.0,0.0,0.0,1.2184696791468346e-07,0.0,0.0,0.0,1.2184696791468346e-07,0.0,1.2009682532858392e-15,9.80665,8.999999999999999e-08,0.0,0.0,0.0,8.999999999999999e-08,0.0,0.0,0.0,8.999999999999999e-08
135.323,451,135,329158589,base_link,-0.0012163225482210238,0.000190342987215615,-0.6702920572171528,-0.7420963834709096,1.0,0.0,0.0,0.0,1.0,0.0,0.0,0.0,1.0,-0.0005330563872121274,0.00478379800915718,-0.007367299403995276,1.2184696791468346e-07,0.0,0.0,0.0,1.2184696791468346e-07,0.0,0.0,0.0,1.2184696791468346e-07,0.0,1.2009682532858392e-15,9.80665,8.999999999999999e-08,0.0,0.0,0.0,8.999999999999999e-08,0.0,0.0,0.0,8.999999999999999e-08
135.573,452,135,579219389,base_link,-0.0010417197323670138,-6.789269801487987e-05,-0.6698032099645757,-0.7425379250460756,1.0,0.0,0.0,0.0,1.0,0.0,0.0,0.0,1.0,0.003775151679292321,0.0008461606921628112,-0.004584329202771187,1.2184696791468346e-07,0.0,0.0,0.0,1.2184696791468346e-07,0.0,0.0,0.0,1.2184696791468346e-07,0.0,1.2009682532858392e-15,9.80665,8.999999999999999e-08,0.0,0.0,0.0,8.999999999999999e-08,0.0,0.0,0.0,8.999999999999999e-08
135.823,453,135,829259132,base_link,-0.000951406169026563,-0.00020454356247392633,-0.6692996596171175,-0.7429919371195378,1.0,0.0,0.0,0.0,1.0,0.0,0.0,0.0,1.0,-0.0003612793516367674,-8.129596244543841e-05,-0.004077880643308163,1.2184696791468346e-07,0.0,0.0,0.0,1.2184696791468346e-07,0.0,0.0,0.0,1.2184696791468346e-07,0.0,1.2009682532858392e-15,9.80665,8.999999999999999e-08,0.0,0.0,0.0,8.999999999999999e-08,0.0,0.0,0.0,8.999999999999999e-08
136.073,454,136,79320558,base_link,-0.0009300312155271727,-0.0002544623605076352,-0.6688263398497445,-0.7434180502342135,1.0,0.0,0.0,0.0,1.0,0.0,0.0,0.0,1.0,-0.00157287553884089,-0.0013626288855448372,-0.0050046429969370365,1.2184696791468346e-07,0.0,0.0,0.0,1.2184696791468346e-07,0.0,0.0,0.0,1.2184696791468346e-07,0.0,1.2009682532858392e-15,9.80665,8.999999999999999e-08,0.0,0.0,0.0,8.999999999999999e-08,0.0,0.0,0.0,8.999999999999999e-08
136.323,455,136,329356722,base_link,-0.0008736150290712413,-0.0003730814546306167,-0.6683886349912912,-0.7438116228061293,1.0,0.0,0.0,0.0,1.0,0.0,0.0,0.0,1.0,-0.0009836606914177537,0.0023173922672867766,-0.0065668607130646706,1.2184696791468346e-07,0.0,0.0,0.0,1.2184696791468346e-07,0.0,0.0,0.0,1.2184696791468346e-07,0.0,1.2009682532858392e-15,9.80665,8.999999999999999e-08,0.0,0.0,0.0,8.999999999999999e-08,0.0,0.0,0.0,8.999999999999999e-08
136.573,456,136,579417284,base_link,-0.0007695341861535701,-0.0005264398504310861,-0.6680277927169602,-0.7441357395233253,1.0,0.0,0.0,0.0,1.0,0.0,0.0,0.0,1.0,0.003215624252334237,-0.0002314641606062656,-0.004329724702984095,1.2184696791468346e-07,0.0,0.0,0.0,1.2184696791468346e-07,0.0,0.0,0.0,1.2184696791468346e-07,0.0,1.2009682532858392e-15,9.80665,8.999999999999999e-08,0.0,0.0,0.0,8.999999999999999e-08,0.0,0.0,0.0,8.999999999999999e-08
136.823,457,136,829454377,base_link,-0.0006904361882960948,-0.0005544607682901758,-0.6676679607618881,-0.7444586691302536,1.0,0.0,0.0,0.0,1.0,0.0,0.0,0.0,1.0,0.00035810854751616716,-0.0014110107440501456,-0.003830347675830126,1.2184696791468346e-07,0.0,0.0,0.0,1.2184696791468346e-07,0.0,0.0,0.0,1.2184696791468346e-07,0.0,1.2009682532858392e-15,9.80665,8.999999999999999e-08,0.0,0.0,0.0,8.999999999999999e-08,0.0,0.0,0.0,8.999999999999999e-08
137.073,458,137,79512587,base_link,-0.0005050443085774097,-0.0007536968273860223,-0.6673010851733914,-0.7447875123803788,1.0,0.0,0.0,0.0,1.0,0.0,0.0,0.0,1.0,-0.0012779495446011424,0.001494842465035617,-0.004215395078063011,1.2184696791468346e-07,0.0,0.0,0.0,1.2184696791468346e-07,0.0,0.0,0.0,1.2184696791468346e-07,0.0,1.2009682532858392e-15,9.80665,8.999999999999999e-08,0.0,0.0,0.0,8.999999999999999e-08,0.0,0.0,0.0,8.999999999999999e-08
137.323,459,137,329552115,base_link,-0.00036171868839019817,-0.0010424344197549375,-0.6669502356250513,-0.745101446576075,1.0,0.0,0.0,0.0,1.0,0.0,0.0,0.0,1.0,-0.0007202117703855038,0.004188463557511568,-0.003416196675971151,1.2184696791468346e-07,0.0,0.0,0.0,1.2184696791468346e-07,0.0,0.0,0.0,1.2184696791468346e-07,0.0,1.2009682532858392e-15,9.80665,8.999999999999999e-08,0.0,0.0,0.0,8.999999999999999e-08,0.0,0.0,0.0,8.999999999999999e-08
137.573,460,137,579609484,base_link,-0.0002656471316909465,-0.001306488732196283,-0.6666044864351763,-0.7454104112388616,1.0,0.0,0.0,0.0,1.0,0.0,0.0,0.0,1.0,0.0013792556710541248,0.0007774146506562823,-0.00546368770301342,1.2184696791468346e-07,0.0,0.0,0.0,1.2184696791468346e-07,0.0,0.0,0.0,1.2184696791468346e-07,0.0,1.2009682532858392e-15,9.80665,8.999999999999999e-08,0.0,0.0,0.0,8.999999999999999e-08,0.0,0.0,0.0,8.999999999999999e-08
137.823,461,137,829642455,base_link,-0.00024376911219963935,-0.0015301587765892814,-0.6663883576631087,-0.7456032161691654,1.0,0.0,0.0,0.0,1.0,0.0,0.0,0.0,1.0,0.005542469210922718,-0.0009207137627527119,-0.0008472889312542974,1.2184696791468346e-07,0.0,0.0,0.0,1.2184696791468346e-07,0.0,0.0,0.0,1.2184696791468346e-07,0.0,1.2009682532858392e-15,9.80665,8.999999999999999e-08,0.0,0.0,0.0,8.999999999999999e-08,0.0,0.0,0.0,8.999999999999999e-08
138.073,462,138,79703122,base_link,-0.0001786400929396286,-0.0015403160620474565,-0.666104780592104,-0.7458565658264942,1.0,0.0,0.0,0.0,1.0,0.0,0.0,0.0,1.0,-0.002029424300417304,0.0008223435725085434,-0.002867633244022727,1.2184696791468346e-07,0.0,0.0,0.0,1.2184696791468346e-07,0.0,0.0,0.0,1.2184696791468346e-07,0.0,1.2009682532858392e-15,9.80665,8.999999999999999e-08,0.0,0.0,0.0,8.999999999999999e-08,0.0,0.0,0.0,8.999999999999999e-08
138.323,463,138,329738544,base_link,-0.0001264682389129568,-0.0015018666369313437,-0.6658808063245408,-0.7460566199498324,1.0,0.0,0.0,0.0,1.0,0.0,0.0,0.0,1.0,-0.0021327792201191187,5.213625263422688e-05,-0.0032220506109297276,1.2184696791468346e-07,0.0,0.0,0.0,1.2184696791468346e-07,0.0,0.0,0.0,1.2184696791468346e-07,0.0,1.2009682532858392e-15,9.80665,8.999999999999999e-08,0.0,0.0,0.0,8.999999999999999e-08,0.0,0.0,0.0,8.999999999999999e-08
138.573,464,138,579791264,base_link,-0.00020551131005715266,-0.0014735544428749491,-0.6656150490808885,-0.7462937711380496,1.0,0.0,0.0,0.0,1.0,0.0,0.0,0.0,1.0,-0.0006442606099881232,-0.0007091045845299961,-0.0018386216834187508,1.2184696791468346e-07,0.0,0.0,0.0,1.2184696791468346e-07,0.0,0.0,0.0,1.2184696791468346e-07,0.0,1.2009682532858392e-15,9.80665,8.999999999999999e-08,0.0,0.0,0.0,8.999999999999999e-08,0.0,0.0,0.0,8.999999999999999e-08
138.823,465,138,829824643,base_link,0.03285534109201074,0.02528287416387972,-0.6921783759621575,-0.7205348004684655,1.0,0.0,0.0,0.0,1.0,0.0,0.0,0.0,1.0,-0.5204404592514038,0.04488386586308487,0.6208320260047913,1.2184696791468346e-07,0.0,0.0,0.0,1.2184696791468346e-07,0.0,0.0,0.0,1.2184696791468346e-07,0.0,1.2009682532858392e-15,9.80665,8.999999999999999e-08,0.0,0.0,0.0,8.999999999999999e-08,0.0,0.0,0.0,8.999999999999999e-08
139.073,466,139,79882184,base_link,0.09486285443681912,0.06133261848543412,-0.7531075894184648,-0.6481267680925764,1.0,0.0,0.0,0.0,1.0,0.0,0.0,0.0,1.0,-0.5569521188735962,0.14938499033451091,0.82962566614151,1.2184696791468346e-07,0.0,0.0,0.0,1.2184696791468346e-07,0.0,0.0,0.0,1.2184696791468346e-07,0.0,1.202169221539125e-15,9.81645665,8.999999999999999e-08,0.0,0.0,0.0,8.999999999999999e-08,0.0,0.0,0.0,8.999999999999999e-08
139.324,467,139,330919529,base_link,0.1253815562847554,0.06293664369936638,-0.8172370364997612,-0.5589651781610011,1.0,0.0,0.0,0.0,1.0,0.0,0.0,0.0,1.0,0.08772923797369003,-0.050904057919978984,0.9184385538101196,1.2184696791468346e-07,0.0,0.0,0.0,1.2184696791468346e-07,0.0,0.0,0.0,1.2184696791468346e-07,0.0,1.2249876183515559e-15,10.002783,8.999999999999999e-08,0.0,0.0,0.0,8.999999999999999e-08,0.0,0.0,0.0,8.999999999999999e-08
139.574,468,139,580975146,base_link,0.0754232113543715,0.027691244543526335,-0.8845140783097871,-0.4595425763043205,1.0,0.0,0.0,0.0,1.0,0.0,0.0,0.0,1.0,0.4881446659564972,-0.44790828227996815,0.9974521398544312,1.2184696791468346e-07,0.0,0.0,0.0,1.2184696791468346e-07,0.0,0.0,0.0,1.2184696791468346e-07,-0.00980665,1.2490069834172728e-15,10.198916,8.999999999999999e-08,0.0,0.0,0.0,8.999999999999999e-08,0.0,0.0,0.0,8.999999999999999e-08
139.824,469,139,831010464,base_link,0.008627955888952711,0.002454404891547163,-0.9393100749141927,-0.34295206288707525,1.0,0.0,0.0,0.0,1.0,0.0,0.0,0.0,1.0,0.27245277166366577,-0.38539010286331166,1.0513701438903809,1.2184696791468346e-07,0.0,0.0,0.0,1.2184696791468346e-07,0.0,0.0,0.0,1.2184696791468346e-07,-0.00980665,1.2261885866048418e-15,10.01258965,8.999999999999999e-08,0.0,0.0,0.0,8.999999999999999e-08,0.0,0.0,0.0,8.999999999999999e-08
140.074,470,140,81073341,base_link,-0.03181115694240131,-0.004945993014230565,-0.9759730090474554,-0.21550005349870527,1.0,0.0,0.0,0.0,1.0,0.0,0.0,0.0,1.0,0.088189497590065,-0.19888746738433827,1.0195696353912354,1.2184696791468346e-07,0.0,0.0,0.0,1.2184696791468346e-07,0.0,0.0,0.0,1.2184696791468346e-07,-0.00980665,1.2081740628055542e-15,9.8654899,8.999999999999999e-08,0.0,0.0,0.0,8.999999999999999e-08,0.0,0.0,0.0,8.999999999999999e-08
140.324,471,140,331108138,base_link,-0.04574920144371191,-0.003282069585530274,-0.9913167280833108,-0.12323710159159768,1.0,0.0,0.0,0.0,1.0,0.0,0.0,0.0,1.0,0.0013557381462305784,-0.04409274458885186,0.5606261491775513,1.2184696791468346e-07,0.0,0.0,0.0,1.2184696791468346e-07,0.0,0.0,0.0,1.2184696791468346e-07,-0.00980665,1.2057721262989826e-15,9.8458766,8.999999999999999e-08,0.0,0.0,0.0,8.999999999999999e-08,0.0,0.0,0.0,8.999999999999999e-08
140.574,472,140,581154694,base_link,-0.044717411096612196,-0.0006787052737511568,-0.9963533086474554,-0.07266344921097878,1.0,0.0,0.0,0.0,1.0,0.0,0.0,0.0,1.0,-0.006071662995964289,0.042493887245655095,0.3016818165779114,1.2184696791468346e-07,0.0,0.0,0.0,1.2184696791468346e-07,0.0,0.0,0.0,1.2184696791468346e-07,-0.00980665,1.202169221539125e-15,9.81645665,8.999999999999999e-08,0.0,0.0,0.0,8.999999999999999e-08,0.0,0.0,0.0,8.999999999999999e-08
140.824,473,140,830187478,base_link,-0.03741271594692091,0.0004440012621796997,-0.9982523568847986,-0.04574192302799457,1.0,0.0,0.0,0.0,1.0,0.0,0.0,0.0,1.0,0.001996242441236973,0.07665865868330003,0.1590084582567215,1.2184696791468346e-07,0.0,0.0,0.0,1.2184696791468346e-07,0.0,0.0,0.0,1.2184696791468346e-07,-0.00980665,1.2009682532858392e-15,9.80665,8.999999999999999e-08,0.0,0.0,0.0,8.999999999999999e-08,0.0,0.0,0.0,8.999999999999999e-08
141.074,474,141,80237770,base_link,-0.028724767633251453,0.00033828656430626554,-0.9990847102321168,-0.03169408567892923,1.0,0.0,0.0,0.0,1.0,0.0,0.0,0.0,1.0,0.0014178326819092035,0.07171057909727098,0.07927376031875609,1.2184696791468346e-07,0.0,0.0,0.0,1.2184696791468346e-07,0.0,0.0,0.0,1.2184696791468346e-07,-0.00980665,1.1997672850325534e-15,9.79684335,8.999999999999999e-08,0.0,0.0,0.0,8.999999999999999e-08,0.0,0.0,0.0,8.999999999999999e-08
141.324,475,141,330273049,base_link,-0.0212345339974432,-0.00034247473580775164,-0.9994648264677817,-0.024880472879226345,1.0,0.0,0.0,0.0,1.0,0.0,0.0,0.0,1.0,0.0055515356361866,0.0520688109099865,0.0343974158167839,1.2184696791468346e-07,0.0,0.0,0.0,1.2184696791468346e-07,0.0,0.0,0.0,1.2184696791468346e-07,-0.00980665,1.2009682532858392e-15,9.80665,8.999999999999999e-08,0.0,0.0,0.0,8.999999999999999e-08,0.0,0.0,0.0,8.999999999999999e-08
141.574,476,141,580324088,base_link,-0.01595288831949471,-0.0008887006798467175,-0.9996236310251652,-0.022300490161243247,1.0,0.0,0.0,0.0,1.0,0.0,0.0,0.0,1.0,0.0057833874598145485,0.034360721707344055,0.00683731352910399,1.2184696791468346e-07,0.0,0.0,0.0,1.2184696791468346e-07,0.0,0.0,0.0,1.2184696791468346e-07,-0.00980665,1.202169221539125e-15,9.81645665,8.999999999999999e-08,0.0,0.0,0.0,8.999999999999999e-08,0.0,0.0,0.0,8.999999999999999e-08
141.824,477,141,830354370,base_link,-0.012802990240328906,-0.0011189786887786427,-0.9996747485199886,-0.022027902739428895,1.0,0.0,0.0,0.0,1.0,0.0,0.0,0.0,1.0,-0.00043312774505466223,0.018426204100251198,-0.004381316248327496,1.2184696791468346e-07,0.0,0.0,0.0,1.2184696791468346e-07,0.0,0.0,0.0,1.2184696791468346e-07,0.0,1.2033701897924109e-15,9.8262633,8.999999999999999e-08,0.0,0.0,0.0,8.999999999999999e-08,0.0,0.0,0.0,8.999999999999999e-08
142.074,478,142,80408214,base_link,-0.011434168073349934,-0.001171803371216118,-0.9996658367915943,-0.02315386423668364,1.0,0.0,0.0,0.0,1.0,0.0,0.0,0.0,1.0,-0.001411321689374745,0.006743673700839279,-0.01099801529198885,1.2184696791468346e-07,0.0,0.0,0.0,1.2184696791468346e-07,0.0,0.0,0.0,1.2184696791468346e-07,0.0,1.2033701897924109e-15,9.8262633,8.999999999999999e-08,0.0,0.0,0.0,8.999999999999999e-08,0.0,0.0,0.0,8.999999999999999e-08
142.324,479,142,330444005,base_link,-0.011207873882684514,-0.0010916496985134256,-0.9996277987132036,-0.02484865999928776,1.0,0.0,0.0,0.0,1.0,0.0,0.0,0.0,1.0,-0.0021026881877332926,-3.871927037835309e-05,-0.015302040614187717,1.2184696791468346e-07,0.0,0.0,0.0,1.2184696791468346e-07,0.0,0.0,0.0,1.2184696791468346e-07,0.0,1.202169221539125e-15,9.81645665,8.999999999999999e-08,0.0,0.0,0.0,8.999999999999999e-08,0.0,0.0,0.0,8.999999999999999e-08
142.574,480,142,580496573,base_link,-0.011728374106235078,-0.0009437729944777772,-0.9995698907619949,-0.02686239035180693,1.0,0.0,0.0,0.0,1.0,0.0,0.0,0.0,1.0,-0.003669493366032839,-0.00517738098278642,-0.019199958071112633,1.2184696791468346e-07,0.0,0.0,0.0,1.2184696791468346e-07,0.0,0.0,0.0,1.2184696791468346e-07,0.0,1.2009682532858392e-15,9.80665,8.999999999999999e-08,0.0,0.0,0.0,8.999999999999999e-08,0.0,0.0,0.0,8.999999999999999e-08
142.824,481,142,830530381,base_link,-0.012339168141314435,-0.0007504926820439965,-0.9995016129977489,-0.02904664017081926,1.0,0.0,0.0,0.0,1.0,0.0,0.0,0.0,1.0,4.334782715886831e-05,-0.004676934331655505,-0.02035262994468212,1.2184696791468346e-07,0.0,0.0,0.0,1.2184696791468346e-07,0.0,0.0,0.0,1.2184696791468346e-07,0.0,1.202169221539125e-15,9.81645665,8.999999999999999e-08,0.0,0.0,0.0,8.999999999999999e-08,0.0,0.0,0.0,8.999999999999999e-08
143.074,482,143,80582229,base_link,-0.012710997033743392,-0.0006179606550204054,-0.9994335158692909,-0.03115599518848383,1.0,0.0,0.0,0.0,1.0,0.0,0.0,0.0,1.0,-0.00015270861331373453,-0.0014575558016076708,-0.018791958689689636,1.2184696791468346e-07,0.0,0.0,0.0,1.2184696791468346e-07,0.0,0.0,0.0,1.2184696791468346e-07,0.0,1.2009682532858392e-15,9.80665,8.999999999999999e-08,0.0,0.0,0.0,8.999999999999999e-08,0.0,0.0,0.0,8.999999999999999e-08
143.324,483,143,330615560,base_link,-0.012735399254842648,-0.0005358711130426202,-0.9993672136868001,-0.03320684652072936,1.0,0.0,0.0,0.0,1.0,0.0,0.0,0.0,1.0,-0.0039742025546729565,0.00278083188459277,-0.015701355412602425,1.2184696791468346e-07,0.0,0.0,0.0,1.2184696791468346e-07,0.0,0.0,0.0,1.2184696791468346e-07,0.0,1.2009682532858392e-15,9.80665,8.999999999999999e-08,0.0,0.0,0.0,8.999999999999999e-08,0.0,0.0,0.0,8.999999999999999e-08
143.576,484,143,580669699,base_link,-0.012535115494089128,-0.000567348354821555,-0.9993036621542395,-0.03513886453088216,1.0,0.0,0.0,0.0,1.0,0.0,0.0,0.0,1.0,-0.00220657279714942,0.003114096587523816,-0.016526667401194572,1.2184696791468346e-07,0.0,0.0,0.0,1.2184696791468346e-07,0.0,0.0,0.0,1.2184696791468346e-07,0.0,1.2009682532858392e-15,9.80665,8.999999999999999e-08,0.0,0.0,0.0,8.999999999999999e-08,0.0,0.0,0.0,8.999999999999999e-08
143.824,485,143,830704060,base_link,-0.011834795599316135,-0.0005732132045545017,-0.9992439274396404,-0.03702948169698461,1.0,0.0,0.0,0.0,1.0,0.0,0.0,0.0,1.0,-0.00045005709398537874,0.005604017991572617,-0.013505648821592331,1.2184696791468346e-07,0.0,0.0,0.0,1.2184696791468346e-07,0.0,0.0,0.0,1.2184696791468346e-07,0.0,1.2009682532858392e-15,9.80665,8.999999999999999e-08,0.0,0.0,0.0,8.999999999999999e-08,0.0,0.0,0.0,8.999999999999999e-08
144.076,486,144,80750000,base_link,-0.010781618713557128,-0.000614145988449276,-0.9991870903844651,-0.038839901282664735,1.0,0.0,0.0,0.0,1.0,0.0,0.0,0.0,1.0,-0.0014898336958140135,0.007899258285760878,-0.01653866469860077,1.2184696791468346e-07,0.0,0.0,0.0,1.2184696791468346e-07,0.0,0.0,0.0,1.2184696791468346e-07,0.0,1.2009682532858392e-15,9.80665,8.999999999999999e-08,0.0,0.0,0.0,8.999999999999999e-08,0.0,0.0,0.0,8.999999999999999e-08
144.324,487,144,330785399,base_link,-0.009639654607181409,-0.000726069595279552,-0.9991328875507637,-0.04049719615566438,1.0,0.0,0.0,0.0,1.0,0.0,0.0,0.0,1.0,0.0016410956159234047,0.010320600122213362,-0.014003978110849859,1.2184696791468346e-07,0.0,0.0,0.0,1.2184696791468346e-07,0.0,0.0,0.0,1.2184696791468346e-07,0.0,1.2009682532858392e-15,9.80665,8.999999999999999e-08,0.0,0.0,0.0,8.999999999999999e-08,0.0,0.0,0.0,8.999999999999999e-08
144.574,488,144,580835150,base_link,-0.008440870322054103,-0.0008225267764739065,-0.9990805389316522,-0.042025609881928105,1.0,0.0,0.0,0.0,1.0,0.0,0.0,0.0,1.0,0.004324058070778847,0.00950432103127241,-0.010927249677479269,1.2184696791468346e-07,0.0,0.0,0.0,1.2184696791468346e-07,0.0,0.0,0.0,1.2184696791468346e-07,0.0,1.2009682532858392e-15,9.80665,8.999999999999999e-08,0.0,0.0,0.0,8.999999999999999e-08,0.0,0.0,0.0,8.999999999999999e-08
144.824,489,144,830870093,base_link,-0.007331757531429187,-0.0010313049749738961,-0.9990282081487667,-0.043449062873825994,1.0,0.0,0.0,0.0,1.0,0.0,0.0,0.0,1.0,0.003733700606971979,0.004737121053040027,-0.010299446992576122,1.2184696791468346e-07,0.0,0.0,0.0,1.2184696791468346e-07,0.0,0.0,0.0,1.2184696791468346e-07,0.0,1.2009682532858392e-15,9.80665,8.999999999999999e-08,0.0,0.0,0.0,8.999999999999999e-08,0.0,0.0,0.0,8.999999999999999e-08
145.074,490,145,80926293,base_link,-0.006463094574047641,-0.00103257246462321,-0.9989727307936003,-0.044840220041933665,1.0,0.0,0.0,0.0,1.0,0.0,0.0,0.0,1.0,-0.0021359643433243036,0.006381179206073283,-0.00991720799356699,1.2184696791468346e-07,0.0,0.0,0.0,1.2184696791468346e-07,0.0,0.0,0.0,1.2184696791468346e-07,0.0,1.1997672850325534e-15,9.79684335,8.999999999999999e-08,0.0,0.0,0.0,8.999999999999999e-08,0.0,0.0,0.0,8.999999999999999e-08
145.325,491,145,331956287,base_link,-0.005417652125007351,-0.001071519558558322,-0.9989191743488187,-0.04615174979957287,1.0,0.0,0.0,0.0,1.0,0.0,0.0,0.0,1.0,-0.0016662823036313057,0.009544370695948599,-0.011508684605360033,1.2184696791468346e-07,0.0,0.0,0.0,1.2184696791468346e-07,0.0,0.0,0.0,1.2184696791468346e-07,0.0,1.2009682532858392e-15,9.80665,8.999999999999999e-08,0.0,0.0,0.0,8.999999999999999e-08,0.0,0.0,0.0,8.999999999999999e-08
145.575,492,145,581998691,base_link,-0.004554574365392168,-0.0012113028180295504,-0.9988731883857529,-0.04722438058792411,1.0,0.0,0.0,0.0,1.0,0.0,0.0,0.0,1.0,0.0019405572675168514,0.005669218953698873,-0.0062154713086783895,1.2184696791468346e-07,0.0,0.0,0.0,1.2184696791468346e-07,0.0,0.0,0.0,1.2184696791468346e-07,0.0,1.2009682532858392e-15,9.80665,8.999999999999999e-08,0.0,0.0,0.0,8.999999999999999e-08,0.0,0.0,0.0,8.999999999999999e-08
145.825,493,145,832026743,base_link,-0.00378311891921587,-0.001177148849291217,-0.9988183923057261,-0.04843677862568957,1.0,0.0,0.0,0.0,1.0,0.0,0.0,0.0,1.0,5.820335354655981e-05,0.0026958307716995465,-0.011128934100270271,1.2184696791468346e-07,0.0,0.0,0.0,1.2184696791468346e-07,0.0,0.0,0.0,1.2184696791468346e-07,0.0,1.1997672850325534e-15,9.79684335,8.999999999999999e-08,0.0,0.0,0.0,8.999999999999999e-08,0.0,0.0,0.0,8.999999999999999e-08
146.075,494,146,82074117,base_link,-0.0030418478504616437,-0.0012313109540402936,-0.9987741979502902,-0.04938959955034672,1.0,0.0,0.0,0.0,1.0,0.0,0.0,0.0,1.0,0.0010938155464828014,0.0038946999702602616,-0.008499090559780598,1.2184696791468346e-07,0.0,0.0,0.0,1.2184696791468346e-07,0.0,0.0,0.0,1.2184696791468346e-07,0.0,1.1997672850325534e-15,9.79684335,8.999999999999999e-08,0.0,0.0,0.0,8.999999999999999e-08,0.0,0.0,0.0,8.999999999999999e-08
146.325,495,146,332101735,base_link,-0.0025535608623714575,-0.0011642201358979787,-0.9987278708739993,-0.05034643838332303,1.0,0.0,0.0,0.0,1.0,0.0,0.0,0.0,1.0,0.00035127345472574234,0.005308336578309535,-0.008232059888541698,1.2184696791468346e-07,0.0,0.0,0.0,1.2184696791468346e-07,0.0,0.0,0.0,1.2184696791468346e-07,0.0,1.2009682532858392e-15,9.80665,8.999999999999999e-08,0.0,0.0,0.0,8.999999999999999e-08,0.0,0.0,0.0,8.999999999999999e-08
146.575,496,146,582142835,base_link,-0.0020710265206108185,-0.0011921720520815418,-0.9986889513262098,-0.05113382514446291,1.0,0.0,0.0,0.0,1.0,0.0,0.0,0.0,1.0,0.0023923516273498535,0.004427279345691203,-0.00851111114025116,1.2184696791468346e-07,0.0,0.0,0.0,1.2184696791468346e-07,0.0,0.0,0.0,1.2184696791468346e-07,0.0,1.2009682532858392e-15,9.80665,8.999999999999999e-08,0.0,0.0,0.0,8.999999999999999e-08,0.0,0.0,0.0,8.999999999999999e-08
146.825,497,146,831170026,base_link,-0.0015872796116584377,-0.0013355211157860072,-0.9986453274894918,-0.05199237261550704,1.0,0.0,0.0,0.0,1.0,0.0,0.0,0.0,1.0,0.0010734550887718797,0.0007729128701612344,-0.008330347016453743,1.2184696791468346e-07,0.0,0.0,0.0,1.2184696791468346e-07,0.0,0.0,0.0,1.2184696791468346e-07,0.0,1.2009682532858392e-15,9.80665,8.999999999999999e-08,0.0,0.0,0.0,8.999999999999999e-08,0.0,0.0,0.0,8.999999999999999e-08
147.075,498,147,81214619,base_link,-0.0012216255901979002,-0.001336545595005635,-0.9986086468765463,-0.05270191324973772,1.0,0.0,0.0,0.0,1.0,0.0,0.0,0.0,1.0,-0.0013500453205779195,0.0010776268318295472,-0.005631480365991592,1.2184696791468346e-07,0.0,0.0,0.0,1.2184696791468346e-07,0.0,0.0,0.0,1.2184696791468346e-07,0.0,1.2009682532858392e-15,9.80665,8.999999999999999e-08,0.0,0.0,0.0,8.999999999999999e-08,0.0,0.0,0.0,8.999999999999999e-08
147.325,499,147,331241391,base_link,-0.0008172340474819342,-0.0013327688889032143,-0.9985701358012611,-0.05343444339984471,1.0,0.0,0.0,0.0,1.0,0.0,0.0,0.0,1.0,-0.004431810230016708,0.004683591425418853,-0.0048843887634575376,1.2184696791468346e-07,0.0,0.0,0.0,1.2184696791468346e-07,0.0,0.0,0.0,1.2184696791468346e-07,0.0,1.2009682532858392e-15,9.80665,8.999999999999999e-08,0.0,0.0,0.0,8.999999999999999e-08,0.0,0.0,0.0,8.999999999999999e-08
147.575,500,147,581281233,base_link,-0.0006670601427110033,-0.0013326457134550886,-0.9985343838615477,-0.05410049290355695,1.0,0.0,0.0,0.0,1.0,0.0,0.0,0.0,1.0,0.0012064463226124644,0.00017401063814759198,-0.004581475164741278,1.2184696791468346e-07,0.0,0.0,0.0,1.2184696791468346e-07,0.0,0.0,0.0,1.2184696791468346e-07,0.0,1.2009682532858392e-15,9.80665,8.999999999999999e-08,0.0,0.0,0.0,8.999999999999999e-08,0.0,0.0,0.0,8.999999999999999e-08
147.825,501,147,831307593,base_link,-0.0005215852670041911,-0.0014149556444597471,-0.9985025205999145,-0.05468493581371975,1.0,0.0,0.0,0.0,1.0,0.0,0.0,0.0,1.0,0.004722452722489834,-0.0016412965487688786,-0.005441782996058464,1.2184696791468346e-07,0.0,0.0,0.0,1.2184696791468346e-07,0.0,0.0,0.0,1.2184696791468346e-07,0.0,1.2009682532858392e-15,9.80665,8.999999999999999e-08,0.0,0.0,0.0,8.999999999999999e-08,0.0,0.0,0.0,8.999999999999999e-08
