Time,header.seq,header.stamp.secs,header.stamp.nsecs,header.frame_id,orientation.x,orientation.y,orientation.z,orientation.w,orientation_covariance_0,orientation_covariance_1,orientation_covariance_2,orientation_covariance_3,orientation_covariance_4,orientation_covariance_5,orientation_covariance_6,orientation_covariance_7,orientation_covariance_8,angular_velocity.x,angular_velocity.y,angular_velocity.z,angular_velocity_covariance_0,angular_velocity_covariance_1,angular_velocity_covariance_2,angular_velocity_covariance_3,angular_velocity_covariance_4,angular_velocity_covariance_5,angular_velocity_covariance_6,angular_velocity_covariance_7,angular_velocity_covariance_8,linear_acceleration.x,linear_acceleration.y,linear_acceleration.z,linear_acceleration_covariance_0,linear_acceleration_covariance_1,linear_acceleration_covariance_2,linear_acceleration_covariance_3,linear_acceleration_covariance_4,linear_acceleration_covariance_5,linear_acceleration_covariance_6,linear_acceleration_covariance_7,linear_acceleration_covariance_8
114.815,368,114,822141649,base_link,-0.04194501886035685,0.00043927039511963066,0.045754830964255366,-0.9980715995747783,1.0,0.0,0.0,0.0,1.0,0.0,0.0,0.0,1.0,0.5025745034217834,0.03979847952723496,-0.59183269739151,1.2184696791468346e-07,0.0,0.0,0.0,1.2184696791468346e-07,0.0,0.0,0.0,1.2184696791468346e-07,0.0,1.298246681801992e-15,10.60098865,8.999999999999999e-08,0.0,0.0,0.0,8.999999999999999e-08,0.0,0.0,0.0,8.999999999999999e-08
115.065,369,115,72231210,base_link,-0.10802112838289941,-0.012070995309698707,0.13733500040966395,-0.9845429521141249,1.0,0.0,0.0,0.0,1.0,0.0,0.0,0.0,1.0,0.4196169376373291,0.11841946095228185,-0.8223944306373596,1.2184696791468346e-07,0.0,0.0,0.0,1.2184696791468346e-07,0.0,0.0,0.0,1.2184696791468346e-07,0.0,1.3030505548151354e-15,10.64021525,8.999999999999999e-08,0.0,0.0,0.0,8.999999999999999e-08,0.0,0.0,0.0,8.999999999999999e-08
115.315,370,115,322291726,base_link,-0.09407914953330307,-0.02093663034992404,0.2450850883633932,-0.9646989533500017,1.0,0.0,0.0,0.0,1.0,0.0,0.0,0.0,1.0,-0.3385094404220581,-0.1919408291578294,-0.9315477013587952,1.2184696791468346e-07,0.0,0.0,0.0,1.2184696791468346e-07,0.0,0.0,0.0,1.2184696791468346e-07,0.0,1.3342757294005673e-15,10.895188150000001,8.999999999999999e-08,0.0,0.0,0.0,8.999999999999999e-08,0.0,0.0,0.0,8.999999999999999e-08
115.565,371,115,572377717,base_link,-0.04429672578025562,-0.011848571455498507,0.36209166197871856,-0.9310139847312187,1.0,0.0,0.0,0.0,1.0,0.0,0.0,0.0,1.0,-0.27421852946281433,-0.26054394245147716,-1.0085036754608154,1.2184696791468346e-07,0.0,0.0,0.0,1.2184696791468346e-07,0.0,0.0,0.0,1.2184696791468346e-07,0.0,0.009806650000001348,11.0030613,8.999999999999999e-08,0.0,0.0,0.0,8.999999999999999e-08,0.0,0.0,0.0,8.999999999999999e-08
115.813,372,115,820437858,base_link,-0.012184658519667654,-0.0007418060072200606,0.4792358939005795,-0.877601243058554,1.0,0.0,0.0,0.0,1.0,0.0,0.0,0.0,1.0,-0.10757020860910416,-0.15823064744472518,-1.0643562078475952,1.2184696791468346e-07,0.0,0.0,0.0,1.2184696791468346e-07,0.0,0.0,0.0,1.2184696791468346e-07,0.0,0.019613300000001332,10.87557485,8.999999999999999e-08,0.0,0.0,0.0,8.999999999999999e-08,0.0,0.0,0.0,8.999999999999999e-08
116.063,373,116,70520291,base_link,-0.0006095121053260436,0.0046468781033514265,0.5930860187349909,-0.8051254619001712,1.0,0.0,0.0,0.0,1.0,0.0,0.0,0.0,1.0,-0.021033599972724915,-0.043922826647758616,-1.070678949356079,1.2184696791468346e-07,0.0,0.0,0.0,1.2184696791468346e-07,0.0,0.0,0.0,1.2184696791468346e-07,0.0,0.029419950000001326,10.8265416,8.999999999999999e-08,0.0,0.0,0.0,8.999999999999999e-08,0.0,0.0,0.0,8.999999999999999e-08
116.313,374,116,320574064,base_link,0.005923509244849345,0.01072000294542838,0.6681558777137347,-0.7439205042554375,1.0,0.0,0.0,0.0,1.0,0.0,0.0,0.0,1.0,-0.01070841122418642,-0.12394607067108163,-0.6530764102935791,1.2184696791468346e-07,0.0,0.0,0.0,1.2184696791468346e-07,0.0,0.0,0.0,1.2184696791468346e-07,-0.00980665,0.029419950000001298,10.60098865,8.999999999999999e-08,0.0,0.0,0.0,8.999999999999999e-08,0.0,0.0,0.0,8.999999999999999e-08
116.565,375,116,571657452,base_link,-0.014467385348284867,-0.021012977002456558,-0.7109093312095296,0.7028207967596704,1.0,0.0,0.0,0.0,1.0,0.0,0.0,0.0,1.0,0.002640583086758852,-0.07692793756723408,-0.35128816962242126,1.2184696791468346e-07,0.0,0.0,0.0,1.2184696791468346e-07,0.0,0.0,0.0,1.2184696791468346e-07,-0.0196133,0.029419950000001235,10.091042850000001,8.999999999999999e-08,0.0,0.0,0.0,8.999999999999999e-08,0.0,0.0,0.0,8.999999999999999e-08
116.815,376,116,821710865,base_link,-0.017061746300407726,-0.02485092415071149,-0.7322511853515707,0.6803672022762821,1.0,0.0,0.0,0.0,1.0,0.0,0.0,0.0,1.0,-0.001158899161964655,-0.0008824828546494468,-0.1814856082201004,1.2184696791468346e-07,0.0,0.0,0.0,1.2184696791468346e-07,0.0,0.0,0.0,1.2184696791468346e-07,-0.0196133,0.019613300000001162,9.5124505,8.999999999999999e-08,0.0,0.0,0.0,8.999999999999999e-08,0.0,0.0,0.0,8.999999999999999e-08
117.065,377,117,71792220,base_link,-0.01574648648209699,-0.0232917999923748,-0.7427385802912918,0.6689909876548868,1.0,0.0,0.0,0.0,1.0,0.0,0.0,0.0,1.0,-0.007474581245332956,0.03489768505096435,-0.08278021961450577,1.2184696791468346e-07,0.0,0.0,0.0,1.2184696791468346e-07,0.0,0.0,0.0,1.2184696791468346e-07,-0.0196133,0.019613300000001114,9.1201845,8.999999999999999e-08,0.0,0.0,0.0,8.999999999999999e-08,0.0,0.0,0.0,8.999999999999999e-08
117.316,378,117,322848282,base_link,-0.012853294426107867,-0.019386718111039435,-0.7473011458914602,0.6640782674749938,1.0,0.0,0.0,0.0,1.0,0.0,0.0,0.0,1.0,-0.011621523648500443,0.0382227897644043,-0.019167607650160793,1.2184696791468346e-07,0.0,0.0,0.0,1.2184696791468346e-07,0.0,0.0,0.0,1.2184696791468346e-07,-0.0196133,0.019613300000001103,8.99269805,8.999999999999999e-08,0.0,0.0,0.0,8.999999999999999e-08,0.0,0.0,0.0,8.999999999999999e-08
117.566,379,117,572930616,base_link,-0.009624717420106182,-0.01539961459079293,-0.7485686118538418,0.6628086073914929,1.0,0.0,0.0,0.0,1.0,0.0,0.0,0.0,1.0,-0.0041402410715818405,0.040305595844984055,0.014940083026885981,1.2184696791468346e-07,0.0,0.0,0.0,1.2184696791468346e-07,0.0,0.0,0.0,1.2184696791468346e-07,-0.00980665,0.0098066500000011,8.9828914,8.999999999999999e-08,0.0,0.0,0.0,8.999999999999999e-08,0.0,0.0,0.0,8.999999999999999e-08
117.816,380,117,822989334,base_link,-0.006918041672860987,-0.012273320346699717,-0.7477513310634327,0.6638293856104475,1.0,0.0,0.0,0.0,1.0,0.0,0.0,0.0,1.0,-0.001180988852865994,0.033466722816228874,0.03387824073433875,1.2184696791468346e-07,0.0,0.0,0.0,1.2184696791468346e-07,0.0,0.0,0.0,1.2184696791468346e-07,-0.00980665,0.009806650000001102,8.99269805,8.999999999999999e-08,0.0,0.0,0.0,8.999999999999999e-08,0.0,0.0,0.0,8.999999999999999e-08
118.066,381,118,73073786,base_link,-0.005433622833655533,-0.010392408324159429,-0.7457334821893976,0.6661411615669766,1.0,0.0,0.0,0.0,1.0,0.0,0.0,0.0,1.0,-0.0019861110486090183,0.014594753272831445,0.04267410933971405,1.2184696791468346e-07,0.0,0.0,0.0,1.2184696791468346e-07,0.0,0.0,0.0,1.2184696791468346e-07,-0.00980665,0.009806650000001103,9.022118,8.999999999999999e-08,0.0,0.0,0.0,8.999999999999999e-08,0.0,0.0,0.0,8.999999999999999e-08
118.316,382,118,323126169,base_link,-0.005304000880629799,-0.00982615523204644,-0.7431208222815432,0.6690640909058092,1.0,0.0,0.0,0.0,1.0,0.0,0.0,0.0,1.0,-0.003583179321140051,-0.003739014267921443,0.03885214775800705,1.2184696791468346e-07,0.0,0.0,0.0,1.2184696791468346e-07,0.0,0.0,0.0,1.2184696791468346e-07,-0.00980665,0.009806650000001103,9.022118,8.999999999999999e-08,0.0,0.0,0.0,8.999999999999999e-08,0.0,0.0,0.0,8.999999999999999e-08
118.566,383,118,573204492,base_link,-0.006077500668186399,-0.010136095671093168,-0.74034455035511,0.6721237016425358,1.0,0.0,0.0,0.0,1.0,0.0,0.0,0.0,1.0,-0.0036467360332608223,-0.006940128747373815,0.03575859218835831,1.2184696791468346e-07,0.0,0.0,0.0,1.2184696791468346e-07,0.0,0.0,0.0,1.2184696791468346e-07,0.0,1.1000869200098287e-15,8.9828914,8.999999999999999e-08,0.0,0.0,0.0,8.999999999999999e-08,0.0,0.0,0.0,8.999999999999999e-08
118.814,384,118,821261047,base_link,-0.007258062504091254,-0.010680325496731723,-0.7376564042019574,0.6750527983171457,1.0,0.0,0.0,0.0,1.0,0.0,0.0,0.0,1.0,-0.001421999535523355,-0.01032578013837337,0.03572988882660866,1.2184696791468346e-07,0.0,0.0,0.0,1.2184696791468346e-07,0.0,0.0,0.0,1.2184696791468346e-07,0.0,1.0952830469966852e-15,8.9436648,8.999999999999999e-08,0.0,0.0,0.0,8.999999999999999e-08,0.0,0.0,0.0,8.999999999999999e-08
119.064,385,119,71346012,base_link,-0.00830094332715574,-0.01126362291078025,-0.7353074372909192,0.6775892544923242,1.0,0.0,0.0,0.0,1.0,0.0,0.0,0.0,1.0,7.40948598831892e-06,-0.007195512764155861,0.029988456517457962,1.2184696791468346e-07,0.0,0.0,0.0,1.2184696791468346e-07,0.0,0.0,0.0,1.2184696791468346e-07,0.0,1.0928811104901135e-15,8.924051500000001,8.999999999999999e-08,0.0,0.0,0.0,8.999999999999999e-08,0.0,0.0,0.0,8.999999999999999e-08
119.314,386,119,321400746,base_link,-0.008912622989035076,-0.011301212543468102,-0.7332994627510131,0.6797534447691884,1.0,0.0,0.0,0.0,1.0,0.0,0.0,0.0,1.0,-0.004734985530376434,-0.003147142706438896,0.024376919493079185,1.2184696791468346e-07,0.0,0.0,0.0,1.2184696791468346e-07,0.0,0.0,0.0,1.2184696791468346e-07,0.0,1.1108956342894012e-15,9.07115125,8.999999999999999e-08,0.0,0.0,0.0,8.999999999999999e-08,0.0,0.0,0.0,8.999999999999999e-08
119.566,387,119,572481109,base_link,-0.008929138514068395,-0.011085895398920631,-0.7316328403548368,0.6815502625066729,1.0,0.0,0.0,0.0,1.0,0.0,0.0,0.0,1.0,0.00013249902985990047,0.002525235526263717,0.02533479779958725,1.2184696791468346e-07,0.0,0.0,0.0,1.2184696791468346e-07,0.0,0.0,0.0,1.2184696791468346e-07,0.0,1.1361159676084036e-15,9.2770909,8.999999999999999e-08,0.0,0.0,0.0,8.999999999999999e-08,0.0,0.0,0.0,8.999999999999999e-08
119.816,388,119,822531030,base_link,-0.008624803430485458,-0.01045680121193334,-0.7301935039666148,0.6831059323700511,1.0,0.0,0.0,0.0,1.0,0.0,0.0,0.0,1.0,-0.0030664154328405857,0.006472661625593902,0.014294863678514957,1.2184696791468346e-07,0.0,0.0,0.0,1.2184696791468346e-07,0.0,0.0,0.0,1.2184696791468346e-07,0.0,1.1601353326741207e-15,9.4732239,8.999999999999999e-08,0.0,0.0,0.0,8.999999999999999e-08,0.0,0.0,0.0,8.999999999999999e-08
120.066,389,120,72615057,base_link,-0.008001324138162439,-0.009613913215328033,-0.7289488257238145,0.6844539144168849,1.0,0.0,0.0,0.0,1.0,0.0,0.0,0.0,1.0,6.495742127299309e-05,0.008321160450577738,0.013126881793141363,1.2184696791468346e-07,0.0,0.0,0.0,1.2184696791468346e-07,0.0,0.0,0.0,1.2184696791468346e-07,0.0,1.1757479199668367e-15,9.60071035,8.999999999999999e-08,0.0,0.0,0.0,8.999999999999999e-08,0.0,0.0,0.0,8.999999999999999e-08
120.317,390,120,323667674,base_link,-0.0070282581926796005,-0.008702846588377647,-0.7277617034859489,0.6857388475121312,1.0,0.0,0.0,0.0,1.0,0.0,0.0,0.0,1.0,-0.0017006095731630921,0.012103192508220674,0.0159425251185894,1.2184696791468346e-07,0.0,0.0,0.0,1.2184696791468346e-07,0.0,0.0,0.0,1.2184696791468346e-07,0.0,1.1865566342464092e-15,9.6889702,8.999999999999999e-08,0.0,0.0,0.0,8.999999999999999e-08,0.0,0.0,0.0,8.999999999999999e-08
120.567,391,120,573745627,base_link,-0.005999677159267156,-0.007667537191539732,-0.7267825595176979,0.6867986050716068,1.0,0.0,0.0,0.0,1.0,0.0,0.0,0.0,1.0,-0.0023894747719168663,0.009363784454762937,0.011749838478863238,1.2184696791468346e-07,0.0,0.0,0.0,1.2184696791468346e-07,0.0,0.0,0.0,1.2184696791468346e-07,0.0,1.1925614755128384e-15,9.73800345,8.999999999999999e-08,0.0,0.0,0.0,8.999999999999999e-08,0.0,0.0,0.0,8.999999999999999e-08
120.817,392,120,823799446,base_link,-0.005096183418727496,-0.007040045438580083,-0.7258759639346143,0.687770711543302,1.0,0.0,0.0,0.0,1.0,0.0,0.0,0.0,1.0,0.005497851874679327,0.005707710515707733,0.011857637204229832,1.2184696791468346e-07,0.0,0.0,0.0,1.2184696791468346e-07,0.0,0.0,0.0,1.2184696791468346e-07,0.0,1.19496341201941e-15,9.75761675,8.999999999999999e-08,0.0,0.0,0.0,8.999999999999999e-08,0.0,0.0,0.0,8.999999999999999e-08
121.067,393,121,73878456,base_link,-0.004142780567712546,-0.006294822639031228,-0.725018905014969,0.6886877376198928,1.0,0.0,0.0,0.0,1.0,0.0,0.0,0.0,1.0,0.0017227290663868189,0.009789834730327131,0.010022060945630072,1.2184696791468346e-07,0.0,0.0,0.0,1.2184696791468346e-07,0.0,0.0,0.0,1.2184696791468346e-07,0.0,1.1961643802726959e-15,9.7674234,8.999999999999999e-08,0.0,0.0,0.0,8.999999999999999e-08,0.0,0.0,0.0,8.999999999999999e-08
121.317,394,121,323935436,base_link,-0.0033235127322552853,-0.005355422502206062,-0.7241814880889402,0.6895806305445573,1.0,0.0,0.0,0.0,1.0,0.0,0.0,0.0,1.0,-0.005056487862020731,0.009620890952646734,0.011395061388611792,1.2184696791468346e-07,0.0,0.0,0.0,1.2184696791468346e-07,0.0,0.0,0.0,1.2184696791468346e-07,0.0,1.1973653485259817e-15,9.77723005,8.999999999999999e-08,0.0,0.0,0.0,8.999999999999999e-08,0.0,0.0,0.0,8.999999999999999e-08
121.567,395,121,574011017,base_link,-0.0024434591940532516,-0.004620485629618138,-0.7233916757513875,0.6904181081586092,1.0,0.0,0.0,0.0,1.0,0.0,0.0,0.0,1.0,0.0014154412783682346,0.008046213537454607,0.008772475644946097,1.2184696791468346e-07,0.0,0.0,0.0,1.2184696791468346e-07,0.0,0.0,0.0,1.2184696791468346e-07,0.0,1.1985663167792674e-15,9.7870367,8.999999999999999e-08,0.0,0.0,0.0,8.999999999999999e-08,0.0,0.0,0.0,8.999999999999999e-08
121.815,396,121,822062764,base_link,-0.0015949494050263974,-0.004039560820739816,-0.7226519893583006,0.6911984088243127,1.0,0.0,0.0,0.0,1.0,0.0,0.0,0.0,1.0,0.005925268866121769,0.00296730105765164,0.008500698022544384,1.2184696791468346e-07,0.0,0.0,0.0,1.2184696791468346e-07,0.0,0.0,0.0,1.2184696791468346e-07,0.0,1.1997672850325534e-15,9.79684335,8.999999999999999e-08,0.0,0.0,0.0,8.999999999999999e-08,0.0,0.0,0.0,8.999999999999999e-08
122.065,397,122,72149555,base_link,-0.0011495505147912592,-0.0036584181945410444,-0.7219294048177065,0.69195608890267,1.0,0.0,0.0,0.0,1.0,0.0,0.0,0.0,1.0,0.0013913405127823353,0.0029151581693440684,0.00850965827703476,1.2184696791468346e-07,0.0,0.0,0.0,1.2184696791468346e-07,0.0,0.0,0.0,1.2184696791468346e-07,0.0,1.1997672850325534e-15,9.79684335,8.999999999999999e-08,0.0,0.0,0.0,8.999999999999999e-08,0.0,0.0,0.0,8.999999999999999e-08
122.315,398,122,322205527,base_link,-0.0006490660174367598,-0.003261273688611534,-0.7212326338516187,0.6926849433001194,1.0,0.0,0.0,0.0,1.0,0.0,0.0,0.0,1.0,-0.003799500409513712,0.006255333311855794,0.007492897100746631,1.2184696791468346e-07,0.0,0.0,0.0,1.2184696791468346e-07,0.0,0.0,0.0,1.2184696791468346e-07,0.0,1.2009682532858392e-15,9.80665,8.999999999999999e-08,0.0,0.0,0.0,8.999999999999999e-08,0.0,0.0,0.0,8.999999999999999e-08
122.567,399,122,573289280,base_link,-4.398787199658113e-05,-0.0028070580607510737,-0.7205266037668765,0.6934216118309848,1.0,0.0,0.0,0.0,1.0,0.0,0.0,0.0,1.0,0.002406677231192589,0.004361920990049839,0.002290475415065884,1.2184696791468346e-07,0.0,0.0,0.0,1.2184696791468346e-07,0.0,0.0,0.0,1.2184696791468346e-07,0.0,1.202169221539125e-15,9.81645665,8.999999999999999e-08,0.0,0.0,0.0,8.999999999999999e-08,0.0,0.0,0.0,8.999999999999999e-08
122.817,400,122,823341984,base_link,0.0004149004279425416,-0.00242049420871592,-0.7198488075197825,0.6941265470919318,1.0,0.0,0.0,0.0,1.0,0.0,0.0,0.0,1.0,0.0038203122094273567,0.0023438679054379468,0.004760229028761387,1.2184696791468346e-07,0.0,0.0,0.0,1.2184696791468346e-07,0.0,0.0,0.0,1.2184696791468346e-07,0.0,1.202169221539125e-15,9.81645665,8.999999999999999e-08,0.0,0.0,0.0,8.999999999999999e-08,0.0,0.0,0.0,8.999999999999999e-08
123.067,401,123,73424970,base_link,0.0009139388680065094,-0.002050344501854786,-0.7192176736300289,0.6947811876708944,1.0,0.0,0.0,0.0,1.0,0.0,0.0,0.0,1.0,-0.0011050027096644044,0.0017758155008777976,0.0007322159362956879,1.2184696791468346e-07,0.0,0.0,0.0,1.2184696791468346e-07,0.0,0.0,0.0,1.2184696791468346e-07,0.0,1.202169221539125e-15,9.81645665,8.999999999999999e-08,0.0,0.0,0.0,8.999999999999999e-08,0.0,0.0,0.0,8.999999999999999e-08
123.318,402,123,324475912,base_link,0.0012912073394991306,-0.0017876834941895536,-0.7186474816229075,0.6953710765687511,1.0,0.0,0.0,0.0,1.0,0.0,0.0,0.0,1.0,-0.00021952245151624084,0.00481056235730648,0.0003326468577142799,1.2184696791468346e-07,0.0,0.0,0.0,1.2184696791468346e-07,0.0,0.0,0.0,1.2184696791468346e-07,0.0,1.202169221539125e-15,9.81645665,8.999999999999999e-08,0.0,0.0,0.0,8.999999999999999e-08,0.0,0.0,0.0,8.999999999999999e-08
123.568,403,123,574549883,base_link,0.0015228819385862023,-0.0016694672150899508,-0.7180893213244844,0.695947282708655,1.0,0.0,0.0,0.0,1.0,0.0,0.0,0.0,1.0,0.0009851064532995224,0.0007061106734909114,-0.002546674571931362,1.2184696791468346e-07,0.0,0.0,0.0,1.2184696791468346e-07,0.0,0.0,0.0,1.2184696791468346e-07,0.0,1.2009682532858392e-15,9.80665,8.999999999999999e-08,0.0,0.0,0.0,8.999999999999999e-08,0.0,0.0,0.0,8.999999999999999e-08
123.818,404,123,824600570,base_link,0.0017941092677676094,-0.0016674291463167792,-0.7175725124271284,0.6964794973730354,1.0,0.0,0.0,0.0,1.0,0.0,0.0,0.0,1.0,0.00457059545442462,0.00011493102647364126,-0.0010989285074174404,1.2184696791468346e-07,0.0,0.0,0.0,1.2184696791468346e-07,0.0,0.0,0.0,1.2184696791468346e-07,0.0,1.202169221539125e-15,9.81645665,8.999999999999999e-08,0.0,0.0,0.0,8.999999999999999e-08,0.0,0.0,0.0,8.999999999999999e-08
124.068,405,124,74682794,base_link,0.0018739972198622645,-0.001713781763107133,-0.7171225775120244,0.6969424365821031,1.0,0.0,0.0,0.0,1.0,0.0,0.0,0.0,1.0,-0.0011392118176445365,-0.0008518976392224435,-0.0036361038219183683,1.2184696791468346e-07,0.0,0.0,0.0,1.2184696791468346e-07,0.0,0.0,0.0,1.2184696791468346e-07,0.0,1.202169221539125e-15,9.81645665,8.999999999999999e-08,0.0,0.0,0.0,8.999999999999999e-08,0.0,0.0,0.0,8.999999999999999e-08
124.318,406,124,324734734,base_link,0.025996516794082946,-0.029119489318327675,0.69072830310212,-0.7220600028737783,1.0,0.0,0.0,0.0,1.0,0.0,0.0,0.0,1.0,-0.5159482359886169,0.03870577365159996,0.6108864545822144,1.2184696791468346e-07,0.0,0.0,0.0,1.2184696791468346e-07,0.0,0.0,0.0,1.2184696791468346e-07,0.0,1.202169221539125e-15,9.81645665,8.999999999999999e-08,0.0,0.0,0.0,8.999999999999999e-08,0.0,0.0,0.0,8.999999999999999e-08
124.568,407,124,574807964,base_link,0.06558934842931262,-0.08915826661560051,0.6154019492785823,-0.7804032814454592,1.0,0.0,0.0,0.0,1.0,0.0,0.0,0.0,1.0,-0.5560447573661804,0.14617985486984264,0.8216063976287842,1.2184696791468346e-07,0.0,0.0,0.0,1.2184696791468346e-07,0.0,0.0,0.0,1.2184696791468346e-07,0.0,1.2033701897924109e-15,9.8262633,8.999999999999999e-08,0.0,0.0,0.0,8.999999999999999e-08,0.0,0.0,0.0,8.999999999999999e-08
124.816,408,124,822856665,base_link,0.06920000451623082,-0.1207145993202144,0.5226784263008531,-0.8410984529563572,1.0,0.0,0.0,0.0,1.0,0.0,0.0,0.0,1.0,0.09599393606185913,-0.037891604006290325,0.9031460881233215,1.2184696791468346e-07,0.0,0.0,0.0,1.2184696791468346e-07,0.0,0.0,0.0,1.2184696791468346e-07,0.0,-0.009806649999998775,10.002783,8.999999999999999e-08,0.0,0.0,0.0,8.999999999999999e-08,0.0,0.0,0.0,8.999999999999999e-08
125.066,409,125,72932544,base_link,0.03044841277255506,-0.07386764485038105,0.41743501531655014,-0.9051875348189246,1.0,0.0,0.0,0.0,1.0,0.0,0.0,0.0,1.0,0.5054274201393127,-0.42507898807525624,0.9750596284866333,1.2184696791468346e-07,0.0,0.0,0.0,1.2184696791468346e-07,0.0,0.0,0.0,1.2184696791468346e-07,-0.00980665,1.2502079516705585e-15,10.20872265,8.999999999999999e-08,0.0,0.0,0.0,8.999999999999999e-08,0.0,0.0,0.0,8.999999999999999e-08
125.316,410,125,322987012,base_link,-2.8047859823498314e-05,-0.008965830705057303,0.29775690795089205,-0.9545996212342689,1.0,0.0,0.0,0.0,1.0,0.0,0.0,0.0,1.0,0.281906396150589,-0.37079861760139454,1.025870442390442,1.2184696791468346e-07,0.0,0.0,0.0,1.2184696791468346e-07,0.0,0.0,0.0,1.2184696791468346e-07,-0.00980665,1.2285905231114134e-15,10.03220295,8.999999999999999e-08,0.0,0.0,0.0,8.999999999999999e-08,0.0,0.0,0.0,8.999999999999999e-08
125.568,411,125,574059541,base_link,-0.008972611619003165,0.03170194760292288,0.17041652772519483,-0.9848211440850586,1.0,0.0,0.0,0.0,1.0,0.0,0.0,0.0,1.0,0.0705723762512207,-0.2024887204170226,1.0150612592697144,1.2184696791468346e-07,0.0,0.0,0.0,1.2184696791468346e-07,0.0,0.0,0.0,1.2184696791468346e-07,-0.00980665,1.2105759993121259e-15,9.8851032,8.999999999999999e-08,0.0,0.0,0.0,8.999999999999999e-08,0.0,0.0,0.0,8.999999999999999e-08
125.818,412,125,824110784,base_link,-0.005377350998212413,0.04577196276975771,0.08012749032552569,-0.995718633357124,1.0,0.0,0.0,0.0,1.0,0.0,0.0,0.0,1.0,-0.02258523926138878,-0.03639405593276017,0.565424382686615,1.2184696791468346e-07,0.0,0.0,0.0,1.2184696791468346e-07,0.0,0.0,0.0,1.2184696791468346e-07,-0.00980665,1.2057721262989826e-15,9.8458766,8.999999999999999e-08,0.0,0.0,0.0,8.999999999999999e-08,0.0,0.0,0.0,8.999999999999999e-08
126.068,413,126,74182981,base_link,-0.0007006620871036844,0.04451421997746089,0.030759766595341468,-0.9985348416812695,1.0,0.0,0.0,0.0,1.0,0.0,0.0,0.0,1.0,-0.0192146897315979,0.04919652640819554,0.31544119119644165,1.2184696791468346e-07,0.0,0.0,0.0,1.2184696791468346e-07,0.0,0.0,0.0,1.2184696791468346e-07,-0.00980665,1.2045711580456967e-15,9.83606995,8.999999999999999e-08,0.0,0.0,0.0,8.999999999999999e-08,0.0,0.0,0.0,8.999999999999999e-08
126.319,414,126,325235503,base_link,0.0014115948617322385,0.03670499587092721,0.0032074392561238806,-0.9993200003059479,1.0,0.0,0.0,0.0,1.0,0.0,0.0,0.0,1.0,0.0010953783057630062,0.07215029746294024,0.1748744398355484,1.2184696791468346e-07,0.0,0.0,0.0,1.2184696791468346e-07,0.0,0.0,0.0,1.2184696791468346e-07,-0.00980665,1.2009682532858392e-15,9.80665,8.999999999999999e-08,0.0,0.0,0.0,8.999999999999999e-08,0.0,0.0,0.0,8.999999999999999e-08
126.569,415,126,575308879,base_link,0.0017440720663671355,0.027523838447160602,-0.011880640107365557,-0.9995490217695182,1.0,0.0,0.0,0.0,1.0,0.0,0.0,0.0,1.0,0.0036360779777169228,0.07249989360570909,0.09145731478929518,1.2184696791468346e-07,0.0,0.0,0.0,1.2184696791468346e-07,0.0,0.0,0.0,1.2184696791468346e-07,-0.00980665,1.2009682532858392e-15,9.80665,8.999999999999999e-08,0.0,0.0,0.0,8.999999999999999e-08,0.0,0.0,0.0,8.999999999999999e-08
126.819,416,126,825359693,base_link,0.0015029883676187798,0.02009332329954603,-0.019873399296918948,-0.999599443469799,1.0,0.0,0.0,0.0,1.0,0.0,0.0,0.0,1.0,0.001336393877863884,0.05076436325907708,0.03822821378707885,1.2184696791468346e-07,0.0,0.0,0.0,1.2184696791468346e-07,0.0,0.0,0.0,1.2184696791468346e-07,-0.00980665,1.2009682532858392e-15,9.80665,8.999999999999999e-08,0.0,0.0,0.0,8.999999999999999e-08,0.0,0.0,0.0,8.999999999999999e-08
127.069,417,127,75439885,base_link,0.0009856978230815328,0.015497220794702908,-0.023652296989211674,-0.9995996365518427,1.0,0.0,0.0,0.0,1.0,0.0,0.0,0.0,1.0,0.006230317987501621,0.02749423123896122,0.013338590972125527,1.2184696791468346e-07,0.0,0.0,0.0,1.2184696791468346e-07,0.0,0.0,0.0,1.2184696791468346e-07,0.0,1.202169221539125e-15,9.81645665,8.999999999999999e-08,0.0,0.0,0.0,8.999999999999999e-08,0.0,0.0,0.0,8.999999999999999e-08
127.319,418,127,325487495,base_link,0.0004242968057548689,0.013294099853590972,-0.024786964358896768,-0.9996042683378128,1.0,0.0,0.0,0.0,1.0,0.0,0.0,0.0,1.0,0.005788299720734358,0.010548565536737442,-0.0033100547734648002,1.2184696791468346e-07,0.0,0.0,0.0,1.2184696791468346e-07,0.0,0.0,0.0,1.2184696791468346e-07,0.0,1.2033701897924109e-15,9.8262633,8.999999999999999e-08,0.0,0.0,0.0,8.999999999999999e-08,0.0,0.0,0.0,8.999999999999999e-08
127.569,419,127,575560258,base_link,7.891407866367006e-05,0.012785774260331938,-0.024422435934474573,-0.999619958970487,1.0,0.0,0.0,0.0,1.0,0.0,0.0,0.0,1.0,0.0026910570450127125,-0.0006258633220568307,-0.0063920835964381695,1.2184696791468346e-07,0.0,0.0,0.0,1.2184696791468346e-07,0.0,0.0,0.0,1.2184696791468346e-07,0.0,1.2033701897924109e-15,9.8262633,8.999999999999999e-08,0.0,0.0,0.0,8.999999999999999e-08,0.0,0.0,0.0,8.999999999999999e-08
127.817,420,127,823609171,base_link,-0.00012043690483414789,0.013456084762106333,-0.023183422632227835,-0.9996406595336558,1.0,0.0,0.0,0.0,1.0,0.0,0.0,0.0,1.0,0.0026317257434129715,-0.007739091757684948,-0.013079104013741015,1.2184696791468346e-07,0.0,0.0,0.0,1.2184696791468346e-07,0.0,0.0,0.0,1.2184696791468346e-07,0.0,1.2033701897924109e-15,9.8262633,8.999999999999999e-08,0.0,0.0,0.0,8.999999999999999e-08,0.0,0.0,0.0,8.999999999999999e-08
128.067,421,128,73688543,base_link,-0.00027140680766049623,0.014228849007441487,-0.0215011250651565,-0.9996675286389973,1.0,0.0,0.0,0.0,1.0,0.0,0.0,0.0,1.0,-0.0026014463510364294,-0.008236245252192022,-0.016856957226991653,1.2184696791468346e-07,0.0,0.0,0.0,1.2184696791468346e-07,0.0,0.0,0.0,1.2184696791468346e-07,0.0,1.202169221539125e-15,9.81645665,8.999999999999999e-08,0.0,0.0,0.0,8.999999999999999e-08,0.0,0.0,0.0,8.999999999999999e-08
128.317,422,128,323738576,base_link,-0.0005416964340983994,0.01482028476188964,-0.01966883469946662,-0.9996965552937124,1.0,0.0,0.0,0.0,1.0,0.0,0.0,0.0,1.0,0.004068160429596901,-0.0015181221533566735,-0.017128515988588333,1.2184696791468346e-07,0.0,0.0,0.0,1.2184696791468346e-07,0.0,0.0,0.0,1.2184696791468346e-07,0.0,1.202169221539125e-15,9.81645665,8.999999999999999e-08,0.0,0.0,0.0,8.999999999999999e-08,0.0,0.0,0.0,8.999999999999999e-08
128.567,423,128,573811608,base_link,-0.000732202012388806,0.014813719131057805,-0.017769503255601837,-0.9997320952934183,1.0,0.0,0.0,0.0,1.0,0.0,0.0,0.0,1.0,0.007868601009249687,-0.00025336164981127,-0.01767662726342678,1.2184696791468346e-07,0.0,0.0,0.0,1.2184696791468346e-07,0.0,0.0,0.0,1.2184696791468346e-07,0.0,1.2009682532858392e-15,9.80665,8.999999999999999e-08,0.0,0.0,0.0,8.999999999999999e-08,0.0,0.0,0.0,8.999999999999999e-08
128.817,424,128,823859454,base_link,-0.0007741621839714366,0.01448547831546782,-0.015907797172881655,-0.9997682299313133,1.0,0.0,0.0,0.0,1.0,0.0,0.0,0.0,1.0,6.2800245359539986e-06,0.0020047598518431165,-0.016590211540460587,1.2184696791468346e-07,0.0,0.0,0.0,1.2184696791468346e-07,0.0,0.0,0.0,1.2184696791468346e-07,0.0,1.2009682532858392e-15,9.80665,8.999999999999999e-08,0.0,0.0,0.0,8.999999999999999e-08,0.0,0.0,0.0,8.999999999999999e-08
129.069,425,129,74941005,base_link,-0.0007989151002615094,0.013670826334291866,-0.014092970512773972,-0.9998069105702991,1.0,0.0,0.0,0.0,1.0,0.0,0.0,0.0,1.0,-0.0021790601313114166,0.0065867281518876535,-0.01500912755727768,1.2184696791468346e-07,0.0,0.0,0.0,1.2184696791468346e-07,0.0,0.0,0.0,1.2184696791468346e-07,0.0,1.2009682532858392e-15,9.80665,8.999999999999999e-08,0.0,0.0,0.0,8.999999999999999e-08,0.0,0.0,0.0,8.999999999999999e-08
129.319,426,129,324989669,base_link,-0.0008512003146428944,0.012471597698581494,-0.012310290183621508,-0.9998460838871472,1.0,0.0,0.0,0.0,1.0,0.0,0.0,0.0,1.0,0.002113794907927513,0.012332347221672533,-0.015408649109303953,1.2184696791468346e-07,0.0,0.0,0.0,1.2184696791468346e-07,0.0,0.0,0.0,1.2184696791468346e-07,0.0,1.2009682532858392e-15,9.80665,8.999999999999999e-08,0.0,0.0,0.0,8.999999999999999e-08,0.0,0.0,0.0,8.999999999999999e-08
129.569,427,129,575059159,base_link,-0.0009538896798809308,0.011201499982389632,-0.010694014321798895,-0.9998796200294855,1.0,0.0,0.0,0.0,1.0,0.0,0.0,0.0,1.0,-1.1928263120353222e-05,0.008889374323189257,-0.018019715324044228,1.2184696791468346e-07,0.0,0.0,0.0,1.2184696791468346e-07,0.0,0.0,0.0,1.2184696791468346e-07,0.0,1.2009682532858392e-15,9.80665,8.999999999999999e-08,0.0,0.0,0.0,8.999999999999999e-08,0.0,0.0,0.0,8.999999999999999e-08
129.819,428,129,825104149,base_link,-0.0010620149355127458,0.009827415431133645,-0.009137480282830013,-0.9999093961376209,1.0,0.0,0.0,0.0,1.0,0.0,0.0,0.0,1.0,-0.00020623451564460993,0.007700425572693346,-0.013386353850364687,1.2184696791468346e-07,0.0,0.0,0.0,1.2184696791468346e-07,0.0,0.0,0.0,1.2184696791468346e-07,0.0,1.2009682532858392e-15,9.80665,8.999999999999999e-08,0.0,0.0,0.0,8.999999999999999e-08,0.0,0.0,0.0,8.999999999999999e-08
130.069,429,130,75172630,base_link,-0.0010939931830207324,0.008509930277089177,-0.007689870555883881,-0.9999336228752529,1.0,0.0,0.0,0.0,1.0,0.0,0.0,0.0,1.0,0.00021767092403024435,0.008557202294468878,-0.013428274542093279,1.2184696791468346e-07,0.0,0.0,0.0,1.2184696791468346e-07,0.0,0.0,0.0,1.2184696791468346e-07,0.0,1.1997672850325534e-15,9.79684335,8.999999999999999e-08,0.0,0.0,0.0,8.999999999999999e-08,0.0,0.0,0.0,8.999999999999999e-08
130.32,430,130,326216952,base_link,-0.0011793617149624454,0.007133461016282805,-0.006464470767447549,-0.9999529656226692,1.0,0.0,0.0,0.0,1.0,0.0,0.0,0.0,1.0,0.002694553229957819,0.012805145233869551,-0.008971323259174825,1.2184696791468346e-07,0.0,0.0,0.0,1.2184696791468346e-07,0.0,0.0,0.0,1.2184696791468346e-07,0.0,1.2009682532858392e-15,9.80665,8.999999999999999e-08,0.0,0.0,0.0,8.999999999999999e-08,0.0,0.0,0.0,8.999999999999999e-08
130.57,431,130,576290441,base_link,-0.0011406575024262011,0.0058762014306887895,-0.005096098505768365,-0.9999690989911776,1.0,0.0,0.0,0.0,1.0,0.0,0.0,0.0,1.0,-0.002931702882051468,0.008784806355834006,-0.008197470568120481,1.2184696791468346e-07,0.0,0.0,0.0,1.2184696791468346e-07,0.0,0.0,0.0,1.2184696791468346e-07,0.0,1.2009682532858392e-15,9.80665,8.999999999999999e-08,0.0,0.0,0.0,8.999999999999999e-08,0.0,0.0,0.0,8.999999999999999e-08
130.82,432,130,826340103,base_link,-0.0011613138251532465,0.0048732817771582875,-0.003895767593098953,-0.9999798625321312,1.0,0.0,0.0,0.0,1.0,0.0,0.0,0.0,1.0,0.0011850197333842516,0.003820142941549419,-0.009556152857840061,1.2184696791468346e-07,0.0,0.0,0.0,1.2184696791468346e-07,0.0,0.0,0.0,1.2184696791468346e-07,0.0,1.2009682532858392e-15,9.80665,8.999999999999999e-08,0.0,0.0,0.0,8.999999999999999e-08,0.0,0.0,0.0,8.999999999999999e-08
131.07,433,131,76412599,base_link,-0.001250437935908455,0.003950125721555243,-0.00279375209736693,-0.9999875138525336,1.0,0.0,0.0,0.0,1.0,0.0,0.0,0.0,1.0,0.0035119529347866774,0.006644176319241523,-0.010381318628787994,1.2184696791468346e-07,0.0,0.0,0.0,1.2184696791468346e-07,0.0,0.0,0.0,1.2184696791468346e-07,0.0,1.1997672850325534e-15,9.79684335,8.999999999999999e-08,0.0,0.0,0.0,8.999999999999999e-08,0.0,0.0,0.0,8.999999999999999e-08
131.32,434,131,326458607,base_link,-0.0012588516293314414,0.0030081685117881183,-0.0017739993719503853,-0.9999931095467649,1.0,0.0,0.0,0.0,1.0,0.0,0.0,0.0,1.0,0.0015190732665359974,0.008630374446511269,-0.0063363160006701955,1.2184696791468346e-07,0.0,0.0,0.0,1.2184696791468346e-07,0.0,0.0,0.0,1.2184696791468346e-07,0.0,1.2009682532858392e-15,9.80665,8.999999999999999e-08,0.0,0.0,0.0,8.999999999999999e-08,0.0,0.0,0.0,8.999999999999999e-08
131.57,435,131,576528632,base_link,-0.0011691391424219985,0.0021759484506261636,-0.0008018748097720073,-0.9999966276737112,1.0,0.0,0.0,0.0,1.0,0.0,0.0,0.0,1.0,0.001144800684414804,0.006726456340402364,-0.007464703172445298,1.2184696791468346e-07,0.0,0.0,0.0,1.2184696791468346e-07,0.0,0.0,0.0,1.2184696791468346e-07,0.0,1.2009682532858392e-15,9.80665,8.999999999999999e-08,0.0,0.0,0.0,8.999999999999999e-08,0.0,0.0,0.0,8.999999999999999e-08
131.82,436,131,826573993,base_link,-0.0011565999425326844,0.0015159781461928164,7.170119050287092e-05,-0.9999981794712289,1.0,0.0,0.0,0.0,1.0,0.0,0.0,0.0,1.0,0.001186514156870544,0.00174254854209721,-0.007254115305840969,1.2184696791468346e-07,0.0,0.0,0.0,1.2184696791468346e-07,0.0,0.0,0.0,1.2184696791468346e-07,0.0,1.2009682532858392e-15,9.80665,8.999999999999999e-08,0.0,0.0,0.0,8.999999999999999e-08,0.0,0.0,0.0,8.999999999999999e-08
132.07,437,132,76646051,base_link,-0.001356899179354131,0.0010965765515629886,0.0009553066799842803,-0.999998021864859,1.0,0.0,0.0,0.0,1.0,0.0,0.0,0.0,1.0,0.001290260348469019,0.0023984932340681544,-0.008134881034493446,1.2184696791468346e-07,0.0,0.0,0.0,1.2184696791468346e-07,0.0,0.0,0.0,1.2184696791468346e-07,0.0,1.1997672850325534e-15,9.79684335,8.999999999999999e-08,0.0,0.0,0.0,8.999999999999999e-08,0.0,0.0,0.0,8.999999999999999e-08
132.32,438,132,326690772,base_link,-0.0013954603368983732,0.0007109726031009955,0.0017174311610603232,-0.9999972988156581,1.0,0.0,0.0,0.0,1.0,0.0,0.0,0.0,1.0,0.002965225139632821,0.004649384878575801,-0.006573675200343133,1.2184696791468346e-07,0.0,0.0,0.0,1.2184696791468346e-07,0.0,0.0,0.0,1.2184696791468346e-07,0.0,1.2009682532858392e-15,9.80665,8.999999999999999e-08,0.0,0.0,0.0,8.999999999999999e-08,0.0,0.0,0.0,8.999999999999999e-08
132.57,439,132,576761875,base_link,-0.0013602646484623545,0.00043480626267964516,0.0023877281851833465,-0.9999961296813673,1.0,0.0,0.0,0.0,1.0,0.0,0.0,0.0,1.0,-0.0006240829243324697,0.0006848386838100844,-0.005548851564526558,1.2184696791468346e-07,0.0,0.0,0.0,1.2184696791468346e-07,0.0,0.0,0.0,1.2184696791468346e-07,0.0,1.2009682532858392e-15,9.80665,8.999999999999999e-08,0.0,0.0,0.0,8.999999999999999e-08,0.0,0.0,0.0,8.999999999999999e-08
132.82,440,132,826807462,base_link,-0.0013506764249261005,0.00041542908452327264,0.0030798259409782203,-0.9999942588655415,1.0,0.0,0.0,0.0,1.0,0.0,0.0,0.0,1.0,3.285752609372139e-05,-0.002868657000362874,-0.005375700071454048,1.2184696791468346e-07,0.0,0.0,0.0,1.2184696791468346e-07,0.0,0.0,0.0,1.2184696791468346e-07,0.0,1.2009682532858392e-15,9.80665,8.999999999999999e-08,0.0,0.0,0.0,8.999999999999999e-08,0.0,0.0,0.0,8.999999999999999e-08
133.07,441,133,76877619,base_link,-0.001264799806304106,0.00033889868786084583,0.003722254663059532,-0.9999922150943739,1.0,0.0,0.0,0.0,1.0,0.0,0.0,0.0,1.0,0.003997793886810541,-0.00010194093920290537,-0.005437514744699001,1.2184696791468346e-07,0.0,0.0,0.0,1.2184696791468346e-07,0.0,0.0,0.0,1.2184696791468346e-07,0.0,1.2009682532858392e-15,9.80665,8.999999999999999e-08,0.0,0.0,0.0,8.999999999999999e-08,0.0,0.0,0.0,8.999999999999999e-08
133.318,442,133,324919579,base_link,-0.0010476482790254219,8.470284141698673e-05,0.0043270403421213355,-0.9999900859410507,1.0,0.0,0.0,0.0,1.0,0.0,0.0,0.0,1.0,9.914580732584e-05,0.003664556657895445,-0.00556632922962308,1.2184696791468346e-07,0.0,0.0,0.0,1.2184696791468346e-07,0.0,0.0,0.0,1.2184696791468346e-07,0.0,1.2009682532858392e-15,9.80665,8.999999999999999e-08,0.0,0.0,0.0,8.999999999999999e-08,0.0,0.0,0.0,8.999999999999999e-08
133.568,443,133,574979802,base_link,-0.0009069289220458317,-0.00010598841470243719,0.004892807253631115,-0.9999876132650669,1.0,0.0,0.0,0.0,1.0,0.0,0.0,0.0,1.0,0.00017014727927744389,-0.0001640159171074637,-0.006616781000047922,1.2184696791468346e-07,0.0,0.0,0.0,1.2184696791468346e-07,0.0,0.0,0.0,1.2184696791468346e-07,0.0,1.2009682532858392e-15,9.80665,8.999999999999999e-08,0.0,0.0,0.0,8.999999999999999e-08,0.0,0.0,0.0,8.999999999999999e-08
133.818,444,133,825019642,base_link,-0.0008820022829646804,-0.00012940835009292288,0.005394749367097107,-0.9999850508906212,1.0,0.0,0.0,0.0,1.0,0.0,0.0,0.0,1.0,-0.001344967051409185,-0.0020735068246722226,-0.005085465963929892,1.2184696791468346e-07,0.0,0.0,0.0,1.2184696791468346e-07,0.0,0.0,0.0,1.2184696791468346e-07,0.0,1.1997672850325534e-15,9.79684335,8.999999999999999e-08,0.0,0.0,0.0,8.999999999999999e-08,0.0,0.0,0.0,8.999999999999999e-08
134.068,445,134,75083071,base_link,-0.0010023870782016665,-0.0001723400734990962,0.0059164006181676165,-0.9999819806990373,1.0,0.0,0.0,0.0,1.0,0.0,0.0,0.0,1.0,-0.0013679827097803354,-0.0010950069408863787,-0.0034500809852033854,1.2184696791468346e-07,0.0,0.0,0.0,1.2184696791468346e-07,0.0,0.0,0.0,1.2184696791468346e-07,0.0,1.2009682532858392e-15,9.80665,8.999999999999999e-08,0.0,0.0,0.0,8.999999999999999e-08,0.0,0.0,0.0,8.999999999999999e-08
134.318,446,134,325123799,base_link,-0.0009456577547031659,-0.0002598636365584622,0.006355691444021483,-0.9999793214804843,1.0,0.0,0.0,0.0,1.0,0.0,0.0,0.0,1.0,-0.0020469576120376587,0.002602110616862774,-0.0006953561678528789,1.2184696791468346e-07,0.0,0.0,0.0,1.2184696791468346e-07,0.0,0.0,0.0,1.2184696791468346e-07,0.0,1.1997672850325534e-15,9.79684335,8.999999999999999e-08,0.0,0.0,0.0,8.999999999999999e-08,0.0,0.0,0.0,8.999999999999999e-08
134.568,447,134,575185185,base_link,-0.0009784167895542967,-0.0005375469658826056,0.006770153474317697,-0.9999764591058029,1.0,0.0,0.0,0.0,1.0,0.0,0.0,0.0,1.0,0.002047879621386528,0.0014102426357567306,-0.003737617749720812,1.2184696791468346e-07,0.0,0.0,0.0,1.2184696791468346e-07,0.0,0.0,0.0,1.2184696791468346e-07,0.0,1.2009682532858392e-15,9.80665,8.999999999999999e-08,0.0,0.0,0.0,8.999999999999999e-08,0.0,0.0,0.0,8.999999999999999e-08
134.818,448,134,825223808,base_link,-0.0010382211422594004,-0.0006999154823022081,0.007121117337166583,-0.99997386060989,1.0,0.0,0.0,0.0,1.0,0.0,0.0,0.0,1.0,0.0014170344220474362,0.0013941494980826972,-0.0024228713009506464,1.2184696791468346e-07,0.0,0.0,0.0,1.2184696791468346e-07,0.0,0.0,0.0,1.2184696791468346e-07,0.0,1.2009682532858392e-15,9.80665,8.999999999999999e-08,0.0,0.0,0.0,8.999999999999999e-08,0.0,0.0,0.0,8.999999999999999e-08
135.07,449,135,76285424,base_link,-0.0009486828514675767,-0.0009664664652061819,0.007508244759998672,-0.9999708956784906,1.0,0.0,0.0,0.0,1.0,0.0,0.0,0.0,1.0,-0.0010051400167867541,0.0018757785437628622,-0.0034036193974316124,1.2184696791468346e-07,0.0,0.0,0.0,1.2184696791468346e-07,0.0,0.0,0.0,1.2184696791468346e-07,0.0,1.2009682532858392e-15,9.80665,8.999999999999999e-08,0.0,0.0,0.0,8.999999999999999e-08,0.0,0.0,0.0,8.999999999999999e-08
135.32,450,135,326324950,base_link,-0.0009361468947853672,-0.001011841040885437,0.007867977010960647,-0.999968096863322,1.0,0.0,0.0,0.0,1.0,0.0,0.0,0.0,1.0,0.002417659852653742,-0.000851770862936974,-0.0034962377976626158,1.2184696791468346e-07,0.0,0.0,0.0,1.2184696791468346e-07,0.0,0.0,0.0,1.2184696791468346e-07,0.0,1.2009682532858392e-15,9.80665,8.999999999999999e-08,0.0,0.0,0.0,8.999999999999999e-08,0.0,0.0,0.0,8.999999999999999e-08
135.57,451,135,576383047,base_link,-0.000868997489745109,-0.0010483703196573523,0.008167383170886,-0.9999657192200017,1.0,0.0,0.0,0.0,1.0,0.0,0.0,0.0,1.0,-0.0034413174726068974,-3.669783473014857e-05,-0.0020952969789505005,1.2184696791468346e-07,0.0,0.0,0.0,1.2184696791468346e-07,0.0,0.0,0.0,1.2184696791468346e-07,0.0,1.2009682532858392e-15,9.80665,8.999999999999999e-08,0.0,0.0,0.0,8.999999999999999e-08,0.0,0.0,0.0,8.999999999999999e-08
135.82,452,135,826423484,base_link,0.04092671780783627,-0.0034103326407019918,-0.028051114962509394,-0.9987624884576501,1.0,0.0,0.0,0.0,1.0,0.0,0.0,0.0,1.0,-0.5213258266448975,0.041941598057746964,0.6134911179542542,1.2184696791468346e-07,0.0,0.0,0.0,1.2184696791468346e-07,0.0,0.0,0.0,1.2184696791468346e-07,0.0,1.2009682532858392e-15,9.80665,8.999999999999999e-08,0.0,0.0,0.0,8.999999999999999e-08,0.0,0.0,0.0,8.999999999999999e-08
136.07,453,136,76483328,base_link,0.11096576625035795,-0.018223521012514537,-0.1216654239477164,-0.9861805243554547,1.0,0.0,0.0,0.0,1.0,0.0,0.0,0.0,1.0,-0.5570275783538818,0.1510961651802064,0.8300807476043701,1.2184696791468346e-07,0.0,0.0,0.0,1.2184696791468346e-07,0.0,0.0,0.0,1.2184696791468346e-07,0.0,1.2033701897924109e-15,9.8262633,8.999999999999999e-08,0.0,0.0,0.0,8.999999999999999e-08,0.0,0.0,0.0,8.999999999999999e-08
136.321,454,136,327520182,base_link,0.13536107665871694,-0.03824065557138485,-0.22897900870777232,-0.9632152639770974,1.0,0.0,0.0,0.0,1.0,0.0,0.0,0.0,1.0,0.07785855233669281,-0.043816059827804454,0.9175402522087097,1.2184696791468346e-07,0.0,0.0,0.0,1.2184696791468346e-07,0.0,0.0,0.0,1.2184696791468346e-07,0.0,1.2249876183515559e-15,10.002783,8.999999999999999e-08,0.0,0.0,0.0,8.999999999999999e-08,0.0,0.0,0.0,8.999999999999999e-08
136.573,455,136,577576530,base_link,0.07511870096358324,-0.030897782839035725,-0.3455329833459445,-0.9348847336443284,1.0,0.0,0.0,0.0,1.0,0.0,0.0,0.0,1.0,0.47345268726348877,-0.4435540437698363,1.0007773637771606,1.2184696791468346e-07,0.0,0.0,0.0,1.2184696791468346e-07,0.0,0.0,0.0,1.2184696791468346e-07,0.0,1.2502079516705585e-15,10.20872265,8.999999999999999e-08,0.0,0.0,0.0,8.999999999999999e-08,0.0,0.0,0.0,8.999999999999999e-08
136.821,456,136,827614311,base_link,0.009039481560967308,-0.0046604196138668045,-0.4644704171145482,-0.8855302365744319,1.0,0.0,0.0,0.0,1.0,0.0,0.0,0.0,1.0,0.2673448324203491,-0.38555192947387684,1.0501515865325928,1.2184696791468346e-07,0.0,0.0,0.0,1.2184696791468346e-07,0.0,0.0,0.0,1.2184696791468346e-07,-0.00980665,1.2273895548581276e-15,10.0223963,8.999999999999999e-08,0.0,0.0,0.0,8.999999999999999e-08,0.0,0.0,0.0,8.999999999999999e-08
137.071,457,137,77675431,base_link,-0.0257757059880064,0.01726892185371781,-0.5774379699809775,-0.8158448309225707,1.0,0.0,0.0,0.0,1.0,0.0,0.0,0.0,1.0,0.08819670230150223,-0.19717136025428758,1.0237274169921875,1.2184696791468346e-07,0.0,0.0,0.0,1.2184696791468346e-07,0.0,0.0,0.0,1.2184696791468346e-07,-0.00980665,1.2093750310588401e-15,9.87529655,8.999999999999999e-08,0.0,0.0,0.0,8.999999999999999e-08,0.0,0.0,0.0,8.999999999999999e-08
137.321,458,137,327711144,base_link,-0.03480381420750213,0.027984860055606037,-0.6512383734515075,-0.7575579998049736,1.0,0.0,0.0,0.0,1.0,0.0,0.0,0.0,1.0,0.0026723979972302914,-0.04532898962497704,0.5638712048530579,1.2184696791468346e-07,0.0,0.0,0.0,1.2184696791468346e-07,0.0,0.0,0.0,1.2184696791468346e-07,-0.00980665,1.2045711580456967e-15,9.83606995,8.999999999999999e-08,0.0,0.0,0.0,8.999999999999999e-08,0.0,0.0,0.0,8.999999999999999e-08
137.571,459,137,577765791,base_link,-0.03241306781957461,0.029780277988357324,-0.6890216569251506,-0.7234028506755968,1.0,0.0,0.0,0.0,1.0,0.0,0.0,0.0,1.0,-0.012788481079041958,0.035763770341873204,0.2986004948616028,1.2184696791468346e-07,0.0,0.0,0.0,1.2184696791468346e-07,0.0,0.0,0.0,1.2184696791468346e-07,-0.00980665,1.202169221539125e-15,9.81645665,8.999999999999999e-08,0.0,0.0,0.0,8.999999999999999e-08,0.0,0.0,0.0,8.999999999999999e-08
137.821,460,137,827800944,base_link,-0.026306485129768128,0.026244227693219085,-0.7086253473026501,-0.7046057951174558,1.0,0.0,0.0,0.0,1.0,0.0,0.0,0.0,1.0,-0.004700357560068369,0.07266655564308168,0.15807366371154785,1.2184696791468346e-07,0.0,0.0,0.0,1.2184696791468346e-07,0.0,0.0,0.0,1.2184696791468346e-07,-0.00980665,1.2009682532858392e-15,9.80665,8.999999999999999e-08,0.0,0.0,0.0,8.999999999999999e-08,0.0,0.0,0.0,8.999999999999999e-08
138.071,461,138,77859261,base_link,-0.020001543315618167,0.020776222572893837,-0.7187622967216408,-0.6946575038477791,1.0,0.0,0.0,0.0,1.0,0.0,0.0,0.0,1.0,0.0009821931598708034,0.0699894204735756,0.07864701002836226,1.2184696791468346e-07,0.0,0.0,0.0,1.2184696791468346e-07,0.0,0.0,0.0,1.2184696791468346e-07,-0.00980665,1.1997672850325534e-15,9.79684335,8.999999999999999e-08,0.0,0.0,0.0,8.999999999999999e-08,0.0,0.0,0.0,8.999999999999999e-08
138.321,462,138,327895363,base_link,-0.014716659777505945,0.015654944140779684,-0.72368584324322,-0.6897950006620021,1.0,0.0,0.0,0.0,1.0,0.0,0.0,0.0,1.0,4.902330692857504e-05,0.0518290400505066,0.03643609955906867,1.2184696791468346e-07,0.0,0.0,0.0,1.2184696791468346e-07,0.0,0.0,0.0,1.2184696791468346e-07,-0.00980665,1.2009682532858392e-15,9.80665,8.999999999999999e-08,0.0,0.0,0.0,8.999999999999999e-08,0.0,0.0,0.0,8.999999999999999e-08
138.571,463,138,577946854,base_link,-0.010944814727026289,0.011925274325926865,-0.7255277595725279,-0.68800252103645,1.0,0.0,0.0,0.0,1.0,0.0,0.0,0.0,1.0,0.00030163663905113935,0.03435343876481056,0.004438579082489009,1.2184696791468346e-07,0.0,0.0,0.0,1.2184696791468346e-07,0.0,0.0,0.0,1.2184696791468346e-07,0.0,1.202169221539125e-15,9.81645665,8.999999999999999e-08,0.0,0.0,0.0,8.999999999999999e-08,0.0,0.0,0.0,8.999999999999999e-08
138.821,464,138,827983912,base_link,-0.008669764183957727,0.009722458453101754,-0.725859114207707,-0.6877200413774671,1.0,0.0,0.0,0.0,1.0,0.0,0.0,0.0,1.0,0.0009789833566173911,0.019620366394519806,-0.004967354238033297,1.2184696791468346e-07,0.0,0.0,0.0,1.2184696791468346e-07,0.0,0.0,0.0,1.2184696791468346e-07,0.0,1.2033701897924109e-15,9.8262633,8.999999999999999e-08,0.0,0.0,0.0,8.999999999999999e-08,0.0,0.0,0.0,8.999999999999999e-08
139.071,465,139,78037593,base_link,-0.0077508980646244984,0.008674771441932688,-0.7251968265373006,-0.6884433416773311,1.0,0.0,0.0,0.0,1.0,0.0,0.0,0.0,1.0,0.0002893204800784588,0.004722318612039088,-0.009622085839509964,1.2184696791468346e-07,0.0,0.0,0.0,1.2184696791468346e-07,0.0,0.0,0.0,1.2184696791468346e-07,0.0,1.2033701897924109e-15,9.8262633,8.999999999999999e-08,0.0,0.0,0.0,8.999999999999999e-08,0.0,0.0,0.0,8.999999999999999e-08
139.319,466,139,326069614,base_link,-0.007729171766766421,0.008359900251366384,-0.7240438417793165,-0.6896599793760941,1.0,0.0,0.0,0.0,1.0,0.0,0.0,0.0,1.0,0.0011250623501837254,0.0021399685647338607,-0.017623113468289375,1.2184696791468346e-07,0.0,0.0,0.0,1.2184696791468346e-07,0.0,0.0,0.0,1.2184696791468346e-07,0.0,1.2033701897924109e-15,9.8262633,8.999999999999999e-08,0.0,0.0,0.0,8.999999999999999e-08,0.0,0.0,0.0,8.999999999999999e-08
139.569,467,139,576120999,base_link,-0.007818370497859786,0.008748910624540003,-0.7226665701932642,-0.6910972131116909,1.0,0.0,0.0,0.0,1.0,0.0,0.0,0.0,1.0,0.001674378290772438,-0.0033797691576182864,-0.017024144530296326,1.2184696791468346e-07,0.0,0.0,0.0,1.2184696791468346e-07,0.0,0.0,0.0,1.2184696791468346e-07,0.0,1.202169221539125e-15,9.81645665,8.999999999999999e-08,0.0,0.0,0.0,8.999999999999999e-08,0.0,0.0,0.0,8.999999999999999e-08
139.819,468,139,826156991,base_link,-0.008163481993083439,0.009137257974112634,-0.7211379319992856,-0.6926831534765783,1.0,0.0,0.0,0.0,1.0,0.0,0.0,0.0,1.0,-0.0014294831780716777,-0.0056677879765629794,-0.020229922607541084,1.2184696791468346e-07,0.0,0.0,0.0,1.2184696791468346e-07,0.0,0.0,0.0,1.2184696791468346e-07,0.0,1.2009682532858392e-15,9.80665,8.999999999999999e-08,0.0,0.0,0.0,8.999999999999999e-08,0.0,0.0,0.0,8.999999999999999e-08
140.069,469,140,76204586,base_link,-0.008311590457683886,0.0094592596471918,-0.7196113591971846,-0.6942628692256063,1.0,0.0,0.0,0.0,1.0,0.0,0.0,0.0,1.0,0.0034486381337046623,-0.00148628721944988,-0.018354440107941628,1.2184696791468346e-07,0.0,0.0,0.0,1.2184696791468346e-07,0.0,0.0,0.0,1.2184696791468346e-07,0.0,1.2009682532858392e-15,9.80665,8.999999999999999e-08,0.0,0.0,0.0,8.999999999999999e-08,0.0,0.0,0.0,8.999999999999999e-08
140.319,470,140,326237057,base_link,-0.008323156877951932,0.009422894222414421,-0.7181791988383374,-0.6957446172842319,1.0,0.0,0.0,0.0,1.0,0.0,0.0,0.0,1.0,0.0014078348176553845,0.0022691539488732793,-0.01838603988289833,1.2184696791468346e-07,0.0,0.0,0.0,1.2184696791468346e-07,0.0,0.0,0.0,1.2184696791468346e-07,0.0,1.2009682532858392e-15,9.80665,8.999999999999999e-08,0.0,0.0,0.0,8.999999999999999e-08,0.0,0.0,0.0,8.999999999999999e-08
140.569,471,140,576288377,base_link,-0.008131454543351424,0.008890762442280062,-0.7167733258528738,-0.6972021465371534,1.0,0.0,0.0,0.0,1.0,0.0,0.0,0.0,1.0,0.0021528289653360844,0.00529492227360606,-0.01596139557659626,1.2184696791468346e-07,0.0,0.0,0.0,1.2184696791468346e-07,0.0,0.0,0.0,1.2184696791468346e-07,0.0,1.2009682532858392e-15,9.80665,8.999999999999999e-08,0.0,0.0,0.0,8.999999999999999e-08,0.0,0.0,0.0,8.999999999999999e-08
140.821,472,140,827323336,base_link,-0.007913429290881154,0.00825954065050954,-0.7154370365433652,-0.6985835700667089,1.0,0.0,0.0,0.0,1.0,0.0,0.0,0.0,1.0,0.0024527371861040592,0.0019100422505289297,-0.015205330215394497,1.2184696791468346e-07,0.0,0.0,0.0,1.2184696791468346e-07,0.0,0.0,0.0,1.2184696791468346e-07,0.0,1.2009682532858392e-15,9.80665,8.999999999999999e-08,0.0,0.0,0.0,8.999999999999999e-08,0.0,0.0,0.0,8.999999999999999e-08
141.071,473,141,77379519,base_link,-0.007527505527954443,0.00750678128021724,-0.714233532183995,-0.6998267259824477,1.0,0.0,0.0,0.0,1.0,0.0,0.0,0.0,1.0,0.0024769804440438747,0.005351387429982422,-0.016348179429769516,1.2184696791468346e-07,0.0,0.0,0.0,1.2184696791468346e-07,0.0,0.0,0.0,1.2184696791468346e-07,0.0,1.2009682532858392e-15,9.80665,8.999999999999999e-08,0.0,0.0,0.0,8.999999999999999e-08,0.0,0.0,0.0,8.999999999999999e-08
141.321,474,141,327412472,base_link,-0.006802572637889455,0.006580609243447478,-0.7130717184207158,-0.7010272070155471,1.0,0.0,0.0,0.0,1.0,0.0,0.0,0.0,1.0,0.0044327909126877785,0.011912128888070582,-0.01289552263915539,1.2184696791468346e-07,0.0,0.0,0.0,1.2184696791468346e-07,0.0,0.0,0.0,1.2184696791468346e-07,0.0,1.2009682532858392e-15,9.80665,8.999999999999999e-08,0.0,0.0,0.0,8.999999999999999e-08,0.0,0.0,0.0,8.999999999999999e-08
141.571,475,141,577462275,base_link,-0.005891683340642784,0.00561998309518866,-0.711945435438048,-0.7021875823569879,1.0,0.0,0.0,0.0,1.0,0.0,0.0,0.0,1.0,-0.0003980315523222089,0.009380510076880453,-0.012191147543489935,1.2184696791468346e-07,0.0,0.0,0.0,1.2184696791468346e-07,0.0,0.0,0.0,1.2184696791468346e-07,0.0,1.2009682532858392e-15,9.80665,8.999999999999999e-08,0.0,0.0,0.0,8.999999999999999e-08,0.0,0.0,0.0,8.999999999999999e-08
141.821,476,141,827496230,base_link,-0.00515301125624013,0.004682886593043194,-0.7109616379052394,-0.703196321431824,1.0,0.0,0.0,0.0,1.0,0.0,0.0,0.0,1.0,-0.0022613760083913803,0.00609562126919627,-0.014571959152817726,1.2184696791468346e-07,0.0,0.0,0.0,1.2184696791468346e-07,0.0,0.0,0.0,1.2184696791468346e-07,0.0,1.2009682532858392e-15,9.80665,8.999999999999999e-08,0.0,0.0,0.0,8.999999999999999e-08,0.0,0.0,0.0,8.999999999999999e-08
142.071,477,142,77550918,base_link,-0.004464797005534975,0.003910587940502142,-0.7100176232631873,-0.7041588936776653,1.0,0.0,0.0,0.0,1.0,0.0,0.0,0.0,1.0,5.9630139730870724e-05,0.007645622827112673,-0.011145979166030886,1.2184696791468346e-07,0.0,0.0,0.0,1.2184696791468346e-07,0.0,0.0,0.0,1.2184696791468346e-07,0.0,1.2009682532858392e-15,9.80665,8.999999999999999e-08,0.0,0.0,0.0,8.999999999999999e-08,0.0,0.0,0.0,8.999999999999999e-08
142.322,478,142,328581382,base_link,-0.003741493102625537,0.003085731355459043,-0.7090676741380941,-0.7051237572112844,1.0,0.0,0.0,0.0,1.0,0.0,0.0,0.0,1.0,0.002706587780267,0.009823200292885302,-0.010341210290789606,1.2184696791468346e-07,0.0,0.0,0.0,1.2184696791468346e-07,0.0,0.0,0.0,1.2184696791468346e-07,0.0,1.2009682532858392e-15,9.80665,8.999999999999999e-08,0.0,0.0,0.0,8.999999999999999e-08,0.0,0.0,0.0,8.999999999999999e-08
142.572,479,142,578628215,base_link,-0.003031235946888579,0.002290241430306645,-0.7082507321978893,-0.7059507537668465,1.0,0.0,0.0,0.0,1.0,0.0,0.0,0.0,1.0,0.003522719256579876,0.007359508424997329,-0.009185482747852804,1.2184696791468346e-07,0.0,0.0,0.0,1.2184696791468346e-07,0.0,0.0,0.0,1.2184696791468346e-07,0.0,1.2009682532858392e-15,9.80665,8.999999999999999e-08,0.0,0.0,0.0,8.999999999999999e-08,0.0,0.0,0.0,8.999999999999999e-08
142.822,480,142,828661195,base_link,-0.0024910736740080108,0.0018401500606163635,-0.707466318046722,-0.7067402756523214,1.0,0.0,0.0,0.0,1.0,0.0,0.0,0.0,1.0,0.0009434891398996115,0.0024542596656829106,-0.010245796293020248,1.2184696791468346e-07,0.0,0.0,0.0,1.2184696791468346e-07,0.0,0.0,0.0,1.2184696791468346e-07,0.0,1.2009682532858392e-15,9.80665,8.999999999999999e-08,0.0,0.0,0.0,8.999999999999999e-08,0.0,0.0,0.0,8.999999999999999e-08
143.072,481,143,78714433,base_link,-0.002012319533130111,0.0013769927774577688,-0.7067345990553492,-0.7074745655916277,1.0,0.0,0.0,0.0,1.0,0.0,0.0,0.0,1.0,-0.003487316193059087,0.003928753547370433,-0.009056012146174908,1.2184696791468346e-07,0.0,0.0,0.0,1.2184696791468346e-07,0.0,0.0,0.0,1.2184696791468346e-07,0.0,1.1997672850325534e-15,9.79684335,8.999999999999999e-08,0.0,0.0,0.0,8.999999999999999e-08,0.0,0.0,0.0,8.999999999999999e-08
143.322,482,143,328742436,base_link,-0.001507755039731919,0.0007989088536656761,-0.7060847024247655,-0.708125328893914,1.0,0.0,0.0,0.0,1.0,0.0,0.0,0.0,1.0,-0.001069796271622181,0.006606006529182195,-0.005423950031399728,1.2184696791468346e-07,0.0,0.0,0.0,1.2184696791468346e-07,0.0,0.0,0.0,1.2184696791468346e-07,0.0,1.2009682532858392e-15,9.80665,8.999999999999999e-08,0.0,0.0,0.0,8.999999999999999e-08,0.0,0.0,0.0,8.999999999999999e-08
143.572,483,143,578789341,base_link,-0.0011356511317786974,0.00038894645275016715,-0.7053903994093845,-0.7088179903460641,1.0,0.0,0.0,0.0,1.0,0.0,0.0,0.0,1.0,0.0051379455253481865,0.0036182338371872893,-0.007415666244924069,1.2184696791468346e-07,0.0,0.0,0.0,1.2184696791468346e-07,0.0,0.0,0.0,1.2184696791468346e-07,0.0,1.2009682532858392e-15,9.80665,8.999999999999999e-08,0.0,0.0,0.0,8.999999999999999e-08,0.0,0.0,0.0,8.999999999999999e-08
143.822,484,143,828819876,base_link,-0.0010147915180541288,1.1272355151071964e-05,-0.7048017365592347,-0.7094036102348197,1.0,0.0,0.0,0.0,1.0,0.0,0.0,0.0,1.0,-0.00037377013359218836,5.434779450297235e-05,-0.009841973893344402,1.2184696791468346e-07,0.0,0.0,0.0,1.2184696791468346e-07,0.0,0.0,0.0,1.2184696791468346e-07,0.0,1.2009682532858392e-15,9.80665,8.999999999999999e-08,0.0,0.0,0.0,8.999999999999999e-08,0.0,0.0,0.0,8.999999999999999e-08
144.072,485,144,78870208,base_link,-0.0008756198634394512,-0.0002488743769728027,-0.704312622271799,-0.7098893586045795,1.0,0.0,0.0,0.0,1.0,0.0,0.0,0.0,1.0,-0.001964891329407692,0.00031922431662678637,-0.0067660752683877945,1.2184696791468346e-07,0.0,0.0,0.0,1.2184696791468346e-07,0.0,0.0,0.0,1.2184696791468346e-07,0.0,1.2009682532858392e-15,9.80665,8.999999999999999e-08,0.0,0.0,0.0,8.999999999999999e-08,0.0,0.0,0.0,8.999999999999999e-08
144.322,486,144,328901782,base_link,-0.0007882294694980347,-0.0005523574324069388,-0.7037907402194166,-0.7104066916752515,1.0,0.0,0.0,0.0,1.0,0.0,0.0,0.0,1.0,0.005198035854846239,0.003578676376491784,-0.006632678676396609,1.2184696791468346e-07,0.0,0.0,0.0,1.2184696791468346e-07,0.0,0.0,0.0,1.2184696791468346e-07,0.0,1.2009682532858392e-15,9.80665,8.999999999999999e-08,0.0,0.0,0.0,8.999999999999999e-08,0.0,0.0,0.0,8.999999999999999e-08
144.572,487,144,578945803,base_link,-0.0006711695657368118,-0.000720250631077055,-0.7033129600760997,-0.7108796740373414,1.0,0.0,0.0,0.0,1.0,0.0,0.0,0.0,1.0,0.0020718832965940237,0.0005829632282257072,-0.0061148363165557384,1.2184696791468346e-07,0.0,0.0,0.0,1.2184696791468346e-07,0.0,0.0,0.0,1.2184696791468346e-07,0.0,1.2009682532858392e-15,9.80665,8.999999999999999e-08,0.0,0.0,0.0,8.999999999999999e-08,0.0,0.0,0.0,8.999999999999999e-08
144.822,488,144,828975423,base_link,-0.000668689954509513,-0.0008508055483334441,-0.7028540167017918,-0.7113332975404855,1.0,0.0,0.0,0.0,1.0,0.0,0.0,0.0,1.0,-0.0005234518321231008,-0.0012677296763286,-0.006189563311636448,1.2184696791468346e-07,0.0,0.0,0.0,1.2184696791468346e-07,0.0,0.0,0.0,1.2184696791468346e-07,0.0,1.2009682532858392e-15,9.80665,8.999999999999999e-08,0.0,0.0,0.0,8.999999999999999e-08,0.0,0.0,0.0,8.999999999999999e-08
145.072,489,145,79016897,base_link,-0.0007236959022413003,-0.0009744863544457327,-0.7024520139816132,-0.7117300715114976,1.0,0.0,0.0,0.0,1.0,0.0,0.0,0.0,1.0,-0.002194514498114586,0.0002480812836438411,-0.00511255394667387,1.2184696791468346e-07,0.0,0.0,0.0,1.2184696791468346e-07,0.0,0.0,0.0,1.2184696791468346e-07,0.0,1.2009682532858392e-15,9.80665,8.999999999999999e-08,0.0,0.0,0.0,8.999999999999999e-08,0.0,0.0,0.0,8.999999999999999e-08
145.32,490,145,327047572,base_link,-0.0006357551572042787,-0.0012075721366119484,-0.7021049725944034,-0.7120721487624178,1.0,0.0,0.0,0.0,1.0,0.0,0.0,0.0,1.0,0.0036666986998170614,0.002934018615633249,-0.004312737844884396,1.2184696791468346e-07,0.0,0.0,0.0,1.2184696791468346e-07,0.0,0.0,0.0,1.2184696791468346e-07,0.0,1.2009682532858392e-15,9.80665,8.999999999999999e-08,0.0,0.0,0.0,8.999999999999999e-08,0.0,0.0,0.0,8.999999999999999e-08
145.57,491,145,577093254,base_link,-0.0005273411900027062,-0.0014427770621855175,-0.7017814342754122,-0.7123906644615463,1.0,0.0,0.0,0.0,1.0,0.0,0.0,0.0,1.0,0.00172434002161026,0.0017155590467154975,-0.0031364806927740574,1.2184696791468346e-07,0.0,0.0,0.0,1.2184696791468346e-07,0.0,0.0,0.0,1.2184696791468346e-07,0.0,1.2009682532858392e-15,9.80665,8.999999999999999e-08,0.0,0.0,0.0,8.999999999999999e-08,0.0,0.0,0.0,8.999999999999999e-08
145.82,492,145,827126490,base_link,-0.0004136213519782827,-0.0014724356322249627,-0.701453500430372,-0.7127135803284965,1.0,0.0,0.0,0.0,1.0,0.0,0.0,0.0,1.0,-0.0044598765671253204,0.00014699134044349142,-0.004299746360629797,1.2184696791468346e-07,0.0,0.0,0.0,1.2184696791468346e-07,0.0,0.0,0.0,1.2184696791468346e-07,0.0,1.2009682532858392e-15,9.80665,8.999999999999999e-08,0.0,0.0,0.0,8.999999999999999e-08,0.0,0.0,0.0,8.999999999999999e-08
146.07,493,146,77177517,base_link,-0.0002929124784804465,-0.0014276845672360442,-0.7011459489753434,-0.7130162930498305,1.0,0.0,0.0,0.0,1.0,0.0,0.0,0.0,1.0,-0.0022097439505159855,-0.0005435898201540115,-0.002168047707527876,1.2184696791468346e-07,0.0,0.0,0.0,1.2184696791468346e-07,0.0,0.0,0.0,1.2184696791468346e-07,0.0,1.2009682532858392e-15,9.80665,8.999999999999999e-08,0.0,0.0,0.0,8.999999999999999e-08,0.0,0.0,0.0,8.999999999999999e-08
146.32,494,146,327210321,base_link,0.031361342110540556,0.026736310852255696,-0.7259263257283877,-0.6865366745611772,1.0,0.0,0.0,0.0,1.0,0.0,0.0,0.0,1.0,-0.5186392664909363,0.04519412294030197,0.6141833662986755,1.2184696791468346e-07,0.0,0.0,0.0,1.2184696791468346e-07,0.0,0.0,0.0,1.2184696791468346e-07,0.0,1.2009682532858392e-15,9.80665,8.999999999999999e-08,0.0,0.0,0.0,8.999999999999999e-08,0.0,0.0,0.0,8.999999999999999e-08
146.57,495,146,577256209,base_link,0.09189941696250284,0.06581900953604215,-0.7831439362310468,-0.6114801143865501,1.0,0.0,0.0,0.0,1.0,0.0,0.0,0.0,1.0,-0.5576691031455994,0.15307269990444194,0.8289468884468079,1.2184696791468346e-07,0.0,0.0,0.0,1.2184696791468346e-07,0.0,0.0,0.0,1.2184696791468346e-07,0.0,-0.009806649999998796,9.8262633,8.999999999999999e-08,0.0,0.0,0.0,8.999999999999999e-08,0.0,0.0,0.0,8.999999999999999e-08
146.822,496,146,828284087,base_link,0.12311172312978186,0.06861906498237952,-0.8429647595925662,-0.5191775627220486,1.0,0.0,0.0,0.0,1.0,0.0,0.0,0.0,1.0,0.1051257848739624,-0.054909337311983,0.9172448515892029,1.2184696791468346e-07,0.0,0.0,0.0,1.2184696791468346e-07,0.0,0.0,0.0,1.2184696791468346e-07,0.0,1.2249876183515559e-15,10.002783,8.999999999999999e-08,0.0,0.0,0.0,8.999999999999999e-08,0.0,0.0,0.0,8.999999999999999e-08
147.072,497,147,78334968,base_link,0.07503140134990562,0.030533199608707366,-0.905324389709101,-0.41692416808212024,1.0,0.0,0.0,0.0,1.0,0.0,0.0,0.0,1.0,0.4840923845767975,-0.4489275515079497,0.9976203441619873,1.2184696791468346e-07,0.0,0.0,0.0,1.2184696791468346e-07,0.0,0.0,0.0,1.2184696791468346e-07,-0.00980665,1.2514089199238443e-15,10.2185293,8.999999999999999e-08,0.0,0.0,0.0,8.999999999999999e-08,0.0,0.0,0.0,8.999999999999999e-08
147.322,498,147,328365429,base_link,0.009833273600192904,0.002233923776665971,-0.9544924892380724,-0.2980644297848571,1.0,0.0,0.0,0.0,1.0,0.0,0.0,0.0,1.0,0.26146751642227173,-0.38106563687324513,1.0508403778076172,1.2184696791468346e-07,0.0,0.0,0.0,1.2184696791468346e-07,0.0,0.0,0.0,1.2184696791468346e-07,-0.00980665,1.2273895548581276e-15,10.0223963,8.999999999999999e-08,0.0,0.0,0.0,8.999999999999999e-08,0.0,0.0,0.0,8.999999999999999e-08
147.572,499,147,578407062,base_link,-0.03058136465031302,-0.007077291938252218,-0.9851073168951092,-0.16905107593465485,1.0,0.0,0.0,0.0,1.0,0.0,0.0,0.0,1.0,0.0886605754494667,-0.20166942477226243,1.0209344625473022,1.2184696791468346e-07,0.0,0.0,0.0,1.2184696791468346e-07,0.0,0.0,0.0,1.2184696791468346e-07,-0.00980665,1.2081740628055542e-15,9.8654899,8.999999999999999e-08,0.0,0.0,0.0,8.999999999999999e-08,0.0,0.0,0.0,8.999999999999999e-08
147.822,500,147,828435612,base_link,-0.04504948573733111,-0.0062985044357704596,-0.9960763007430824,-0.07591360730890878,1.0,0.0,0.0,0.0,1.0,0.0,0.0,0.0,1.0,0.007382809650152922,-0.036249957978725364,0.5629045367240906,1.2184696791468346e-07,0.0,0.0,0.0,1.2184696791468346e-07,0.0,0.0,0.0,1.2184696791468346e-07,-0.00980665,1.2045711580456967e-15,9.83606995,8.999999999999999e-08,0.0,0.0,0.0,8.999999999999999e-08,0.0,0.0,0.0,8.999999999999999e-08
