Time,header.seq,header.frame_id,child_frame_id,pose.x,pose.y,pose.z,orientation.x,orientation.y,orientation.z,orientation.w,linear.x,linear.y,linear.z,angular.x,angular.y,angular.z
114.814,368,map,base_link,5.285233362073427e-11,5.343336884067185e-12,0.749,-3.574766376443056e-05,0.002296956962597377,0.6831796157162691,-0.7302467633482449,0.0,0.0,-1.11
115.064,369,map,base_link,-3.2603608701720077e-10,-4.3121534121226546e-10,1.07,-0.0001093154366865181,0.0017546571898653515,0.6796830124530978,-0.7335038594383558,0.0,0.0,-1.33
115.314,370,map,base_link,-3.580716834150621e-10,-1.845916752785115e-10,1.439,-0.0001386229175060374,0.0015460335324404644,0.677747215612302,-0.73529334438289,0.0,0.01,-1.47
115.564,371,map,base_link,1.376054825641404e-10,-1.687660011739922e-10,1.811,-0.00017126822468404974,0.001641505789895464,0.6767170146460456,-0.7362413722513022,0.0,0.01,-1.39
115.815,372,map,base_link,1.7214230041417977e-10,-9.617406870887635e-11,2.136,-0.00015036649118794728,0.0017174474796661152,0.6762026207401763,-0.736713678078662,0.0,0.0,-1.2
116.065,373,map,base_link,-3.319833297155128e-10,-1.880282596289362e-10,2.397,-0.00019558067840419943,0.0018130659543107617,0.6760478813042266,-0.7368554381451696,0.0,0.0,-0.97
116.315,374,map,base_link,5.7313487289434306e-11,1.84640525091595e-10,2.596,-0.00011877556308061522,0.0018902060464878138,0.6759975291931328,-0.7369014544280984,-0.01,0.0,-0.74
116.565,375,map,base_link,2.3026613948928798e-10,-3.4623437450420624e-10,2.734,-2.4899277428968253e-05,0.001954276456666384,0.6706513857780831,-0.7417701119197871,-0.01,0.0,-0.52
116.815,376,map,base_link,1.610581668032296e-10,-4.4500847451445225e-11,2.823,-0.03183722675458143,0.02910292083161467,0.7010524507353533,-0.7118039563739452,-0.08,0.0,-0.33
117.065,377,map,base_link,-0.0545349429186579,-9.014005097895961e-10,2.876,0.09450686173718979,-0.06771981741049356,-0.7622309427767193,0.6367781947336064,-0.44,-0.02,-0.2
117.315,378,map,base_link,-0.2635855610781037,-0.022191568758247904,2.905,0.12820949860883488,-0.07146491459520711,-0.8247728279669957,0.5460813791878417,-1.13,-0.09,-0.11
117.565,379,map,base_link,-0.6725976369883037,-0.05547893667039805,2.922,0.07992825883619924,-0.03549544342872615,-0.890822252258378,0.4458556513228499,-1.77,-0.14,-0.07
117.815,380,map,base_link,-1.2088579130159642,-0.11095790356036939,2.939,0.011237347981630725,-0.009204975488208159,-0.9441054454595694,0.32932339469006655,-2.04,-0.16,-0.06
118.065,381,map,base_link,-1.745118185434297,-0.15534112269851308,2.956,-0.030888594207737013,-0.0012561209432842982,-0.9788817416789253,0.20207635367771082,-2.01,-0.14,-0.05
118.315,382,map,base_link,-2.226843514147279,-0.19972435864588167,2.973,-0.045060060458914454,-0.0024290336313161475,-0.992913270381601,0.1099405668857969,-1.8,-0.11,-0.04
118.565,383,map,base_link,-2.6176772684539826,-0.23301181135593207,2.986,-0.04311416611045763,-0.00460305026520298,-0.9973321109219337,0.058725132037789396,-1.54,-0.09,-0.01
118.816,384,map,base_link,-2.926708609917839,-0.2552034716466247,2.994,-0.0340973696317612,-0.0050789859100369055,-0.9989221455385429,0.031082478006024813,-1.31,-0.06,0.0
119.066,385,map,base_link,-3.172115846426964,-0.27739511979134,2.997,-0.024269803000916447,-0.004653156281694386,-0.9995601899532456,0.01639364082644207,-1.12,-0.04,0.01
119.316,386,map,base_link,-3.3902556134681765,-0.2884909809088301,2.997,-0.01688365677936292,-0.003773004407138202,-0.9998125888643593,0.008688712208831382,-0.98,-0.03,0.02
119.566,387,map,base_link,-3.5811279083119145,-0.29958683775497974,2.995,-0.01262159911791539,-0.0033842333909713993,-0.9999018872595846,0.005045597564491299,-0.88,-0.02,0.02
119.817,388,map,base_link,-3.75382188428682,-0.32177847250824465,2.993,-0.0107856640302409,-0.0033684443510513208,-0.9999289962478681,0.003784903804802563,-0.8,-0.02,0.01
120.066,389,map,base_link,-3.9265158648232124,-0.33287432917366866,2.99,-0.010850265010524125,-0.0035024472894712184,-0.9999267387518671,0.004064694483099484,-0.73,-0.02,0.01
120.316,390,map,base_link,-4.090120681923423,-0.34397018412079294,2.989,-0.011875225328189914,-0.003332929995381349,-0.9999104896850606,0.00518490297236318,-0.67,-0.01,0.01
120.566,391,map,base_link,-4.244636345365822,-0.355066038049779,2.987,-0.012874708940483894,-0.0032636956468378143,-0.9998881629135703,0.006873996344780197,-0.6,-0.01,0.0
120.816,392,map,base_link,-4.38097369827894,-0.36616188585059084,2.986,-0.013588606527149043,-0.0032306887761284976,-0.9998633934546437,0.008837808101930356,-0.53,0.0,0.0
121.066,393,map,base_link,-4.508221891057933,-0.37725772969280325,2.985,-0.013813699462335498,-0.0031636734838404487,-0.9998402323385767,0.010894157810179383,-0.46,0.0,0.0
121.316,394,map,base_link,-4.608202612141276,-0.3883535638203728,2.985,-0.01380793938239764,-0.002989513102979001,-0.9998182185717039,0.012803649226820313,-0.38,0.0,0.0
121.566,395,map,base_link,-4.699094182849899,-0.3883536110677308,2.984,-0.013250189430884875,-0.0027923075429622944,-0.9997996553182272,0.014740580863223052,-0.32,0.0,0.0
121.817,396,map,base_link,-4.771807434159268,-0.3994494315307817,2.984,-0.012375671889659543,-0.0025332848241034424,-0.9997832894340813,0.01654688434864482,-0.25,0.01,0.0
122.067,397,map,base_link,-4.8354315311852725,-0.3994494654720151,2.983,-0.011359340056270146,-0.002316311099735432,-0.9997656024352625,0.018284974258443998,-0.2,0.01,0.0
122.317,398,map,base_link,-4.889966472952752,-0.39944949515744077,2.983,-0.010143378677580214,-0.0020456638525325993,-0.9997480070663731,0.01992108167798029,-0.14,0.01,0.0
122.567,399,map,base_link,-4.92632310124926,-0.3994495145773147,2.982,-0.008851121176931508,-0.001772389348033717,-0.9997297352582868,0.02142364885601833,-0.1,0.01,0.0
122.817,400,map,base_link,-4.95359057341004,-0.3994495294166984,2.982,-0.007740230062538119,-0.0016953584517010421,-0.999706600015298,0.022889484139061778,-0.06,0.01,0.0
123.067,401,map,base_link,-4.980858042694421,-0.39944954462209137,2.981,-0.006406356653916588,-0.001689823610943195,-0.9996851746183654,0.024200304519468807,-0.03,0.01,0.0
123.317,402,map,base_link,-4.9990363583196356,-0.39944955501912305,2.981,-0.005188373233822111,-0.0016446745974549961,-0.9996611496879639,0.02545509051629785,-0.01,0.01,0.0
123.567,403,map,base_link,-5.008125514855202,-0.3994495594614751,2.981,-0.004100301729290652,-0.0017210431039512853,-0.9996355537314199,0.026626776981833966,0.0,0.01,0.0
123.817,404,map,base_link,-5.017214670990928,-0.39944956480145843,2.981,-0.00326306478672358,-0.0018080201598540016,-0.9996097541891986,0.02768434216500454,0.01,0.01,0.0
124.067,405,map,base_link,-5.017214670990928,-0.39944956480145843,2.981,-0.002650280982456647,-0.0020176243340630264,-0.9995834751059837,0.028666731550808566,0.02,0.01,0.0
124.317,406,map,base_link,-5.035392986693664,-0.39944957503995626,2.981,-0.002086254419803389,-0.0021389392756379784,-0.9995559936680445,0.029646045327482995,0.03,0.01,0.0
124.567,407,map,base_link,-5.035392986693664,-0.39944957503995626,2.981,-0.0015498302762452687,-0.002243532124893172,-0.9995298893487998,0.03053792540588146,0.03,0.01,0.0
124.818,408,map,base_link,-5.035392986693664,-0.39944957503995626,2.981,-0.0012715759626324144,-0.002220164577116443,-0.9995027559842466,0.03142761116784687,0.03,0.01,0.0
125.068,409,map,base_link,-5.035392980443065,-0.41054535774131207,2.98,-0.0010478547473543305,-0.0024108628135020662,-0.999477816666875,0.03220533700707956,0.03,0.01,0.0
125.318,410,map,base_link,-5.035392980443065,-0.41054535774131207,2.98,-0.0010324880779812268,-0.002520088169998021,-0.9994525925500288,0.032971174819993565,0.03,0.01,0.0
125.568,411,map,base_link,-5.035392980443065,-0.41054535774131207,2.98,-0.000911170428032442,-0.002602175331008784,-0.9994302898674283,0.033637689390119796,0.03,0.02,0.0
125.818,412,map,base_link,-5.035392980443065,-0.41054535774131207,2.98,-0.0007838650657526143,-0.0026716839331497404,-0.9994100837505067,0.03423057344429459,0.03,0.02,0.0
126.068,413,map,base_link,-5.035392980443065,-0.41054535774131207,2.98,-0.0006757711787214192,-0.0025522076058153527,-0.9993904135911952,0.034811360095099386,0.03,0.02,0.0
126.321,414,map,base_link,-5.035392974437261,-0.4216411398621043,2.98,-0.0004639764792119874,-0.002474476127193414,-0.9993733215477968,0.03530758944259488,0.03,0.02,0.0
126.568,415,map,base_link,-5.035392974437261,-0.4216411398621043,2.98,-0.0002792545434878314,-0.0024223498295159033,-0.9993552491154929,0.03582094783104406,0.03,0.02,0.0
126.818,416,map,base_link,-5.035392974437261,-0.4216411398621043,2.98,4.073137152921295e-05,-0.0023828656842880313,-0.999339178126877,0.03627019923826996,0.03,0.02,0.0
127.068,417,map,base_link,-5.026303816224814,-0.42164113499160005,2.98,0.00024024951924812195,-0.002275414615610608,-0.999322672240023,0.036728211439642,0.03,0.02,0.0
127.318,418,map,base_link,-5.026303816224814,-0.42164113499160005,2.98,0.0004057816745909316,0.03990847292968489,-0.9964964437487026,0.07349820899751142,0.03,-0.04,0.0
127.568,419,map,base_link,-5.017214620283056,-0.47712004144690656,2.979,0.011170129705673302,0.1109818473549373,-0.9796893103756468,0.1666346689489719,0.06,-0.43,0.0
127.819,420,map,base_link,-4.999036184068551,-0.6990356780310942,2.975,0.02961044260099185,0.13623337390935525,-0.9519681200109382,0.2726176590118237,0.11,-1.12,0.01
128.069,421,map,base_link,-4.962679329865054,-1.1095796057106553,2.972,0.026065437861972515,0.07530503996645566,-0.9183089397378494,0.38776079624204035,0.15,-1.73,0.0
128.319,422,map,base_link,-4.91723325812553,-1.6421771361923205,2.973,0.003466699708149154,0.007744124067251347,-0.863376622565562,0.5044886699846169,0.18,-1.98,-0.01
128.569,423,map,base_link,-4.862698036317305,-2.1747746623378177,2.979,-0.017063627159061165,-0.028527836173174455,-0.7884066800031361,0.6142555674292953,0.18,-1.93,-0.02
128.819,424,map,base_link,-4.817252012633675,-2.651893285079029,2.984,-0.027204267191265414,-0.038215741945199014,-0.7264188780979827,0.6856493990787365,0.16,-1.72,-0.01
129.069,425,map,base_link,-4.780895187080186,-3.0402456506268827,2.988,0.028306875737022005,0.035354630379583946,0.689708026602975,-0.7226697786237928,0.13,-1.47,-0.01
129.319,426,map,base_link,-4.753627566705645,-3.3509275492728623,2.99,0.024417289604518735,0.028704144899618953,0.6694948309302785,-0.7418601885743625,0.11,-1.24,0.0
129.569,427,map,base_link,-4.735449111962519,-3.6172263131614173,2.988,0.01874645952120422,0.02192808840051607,0.6586890944091406,-0.7518619594719401,0.09,-1.05,0.0
129.819,428,map,base_link,-4.717270692741403,-3.8280461704779976,2.986,0.013493940833715497,0.016610251193448628,0.6532895116792635,-0.7568056732384714,0.08,-0.9,0.01
130.069,429,map,base_link,-4.69909228200265,-4.027770244306674,2.983,0.00996415503074028,0.013477491577427109,0.6510316998394672,-0.7588654680768113,0.07,-0.79,0.0
130.319,430,map,base_link,-4.680913883455009,-4.2053027548857616,2.981,0.008042418808470625,0.011886598916837136,0.65031659994597,-0.7595277138463168,0.06,-0.71,0.0
130.569,431,map,base_link,-4.6627354898034055,-4.37173948197599,2.981,0.007563904158558564,0.011548041132336798,0.65086363325634,-0.7590691411223637,0.05,-0.64,0.0
130.819,432,map,base_link,-4.653646256783724,-4.527080432194719,2.981,0.00782727039656113,0.011720711981969873,0.6520203249858163,-0.7580704812576237,0.04,-0.57,0.0
131.069,433,map,base_link,-4.635467875878116,-4.671325594820658,2.981,0.008514582426918127,0.01238856658861386,0.6533304085734232,-0.7569236437958975,0.03,-0.51,0.0
131.319,434,map,base_link,-4.626378649586396,-4.815570761661614,2.982,0.009034633946956718,0.012702254271480291,0.6547417715098109,-0.7556918953952473,0.02,-0.44,0.0
131.569,435,map,base_link,-4.617289440083969,-4.926528581913547,2.983,0.00914900839750358,0.012717057349922702,0.6562000332731298,-0.7544243424161525,0.01,-0.37,0.0
131.819,436,map,base_link,-4.608200236921895,-5.026390619200628,2.983,0.009069952982222818,0.012583681126278943,0.6576417672753283,-0.7531710913578636,0.0,-0.31,0.0
132.069,437,map,base_link,-4.6082001916826165,-5.115156878800699,2.984,0.00875256681472778,0.0119769710551912,0.6590126982590602,-0.7519855106794344,0.0,-0.24,0.0
132.319,438,map,base_link,-4.599110999924206,-5.192827351110772,2.984,0.00827953526586729,0.011100563653549653,0.6603186170784343,-0.7508578765132444,0.0,-0.18,0.0
132.569,439,map,base_link,-4.599110971874062,-5.248306264363429,2.984,0.007334338943954729,0.010048540408949994,0.661546297439525,-0.7498011274010999,0.0,-0.13,0.0
132.819,440,map,base_link,-4.590021794595658,-5.29268938913083,2.984,0.006312862362592824,0.009184557432950295,0.6626757652870892,-0.7488234917353506,-0.01,-0.08,0.0
133.069,441,map,base_link,-4.590021778116451,-5.325976736984449,2.985,0.005431742807097671,0.008119412990878594,0.66385170265644,-0.747800433393099,-0.01,-0.04,0.0
133.32,442,map,base_link,-4.58093261584027,-5.348168296670835,2.985,0.004335679064914443,0.006972278146115154,0.6648811956249948,-0.7469039998077243,-0.01,-0.01,0.0
133.57,443,map,base_link,-4.580932604269332,-5.370359861690126,2.986,0.0034231438967295387,0.006013920220564641,0.6658314584087033,-0.7460700931164458,-0.02,0.01,0.0
133.82,444,map,base_link,-4.580932598483862,-5.381455644199772,2.986,0.0026347170673955227,0.00520343786235435,0.666694977817059,-0.7453078485122094,-0.02,0.03,0.0
134.07,445,map,base_link,-4.580932593098233,-5.392551426191533,2.986,0.0019348292376673087,0.004477170293499758,0.6675429128695985,-0.7445553511053129,-0.02,0.04,0.0
134.32,446,map,base_link,-4.571843430499734,-5.41474298737651,2.986,0.0013960733001302543,0.0038692521779658973,0.6683448501209331,-0.7438401986876961,-0.02,0.05,0.0
134.57,447,map,base_link,-4.571843430499734,-5.41474298737651,2.986,0.001005928994822794,0.00341063937528115,0.6690341998219316,-0.7432231126078742,-0.02,0.06,0.0
134.82,448,map,base_link,-4.571843430499734,-5.41474298737651,2.986,0.0006370579736752739,0.003098253472136845,0.6696950278462434,-0.74262949352997,-0.02,0.06,0.0
135.07,449,map,base_link,-4.571843430499734,-5.41474298737651,2.986,0.000405953085830337,0.002693099450071222,0.6702926254546115,-0.7420918936887858,-0.02,0.06,0.0
135.32,450,map,base_link,-4.571843430499734,-5.41474298737651,2.986,0.00023713022728334945,0.0024822370736494377,0.6708731182901477,-0.7415679614330833,-0.02,0.06,0.0
135.57,451,map,base_link,-4.571843430499734,-5.41474298737651,2.986,4.655942046236643e-05,0.002266746530035758,0.6714049237678876,-0.7410872337536424,-0.02,0.06,0.0
135.82,452,map,base_link,-4.571843430499734,-5.41474298737651,2.985,-6.317272921804856e-05,0.0021947486469943104,0.6719040379296564,-0.7406349592757592,-0.02,0.06,0.0
136.07,453,map,base_link,-4.571843430499734,-5.41474298737651,2.985,-0.00016741999692614236,0.0021732565115598038,0.6724095722529564,-0.740176070992082,-0.02,0.06,0.0
136.321,454,map,base_link,-4.571843430499734,-5.41474298737651,2.984,-0.00036040025096191746,0.0019846853463246906,0.672831232618748,-0.7397932573013025,-0.02,0.05,0.0
136.57,455,map,base_link,-4.571843430499734,-5.41474298737651,2.984,-0.000601562116609576,0.0017755651328911208,0.673235140316379,-0.7394260824008471,-0.02,0.05,0.0
136.82,456,map,base_link,-4.571843435807842,-5.403647204783789,2.983,-0.0008881290208452342,0.0018750730858872419,0.6736135344693687,-0.7390808491007255,-0.02,0.05,0.0
137.07,457,map,base_link,-4.571843435807842,-5.403647204783789,2.983,-0.001018094394596049,0.0018362267835354664,0.6740060452440988,-0.7387228456799025,-0.02,0.05,0.0
137.32,458,map,base_link,-4.562754284302919,-5.403647200106908,2.983,-0.0012124677123702147,0.0017444378219940641,0.674328872011348,-0.7384281002444548,-0.02,0.04,0.0
137.57,459,map,base_link,-4.56275429016591,-5.392551417058982,2.983,-0.0012911067199290348,0.0015385901783159911,0.6747150968299693,-0.7380755407771119,-0.02,0.04,0.0
137.82,460,map,base_link,-4.56275429016591,-5.392551417058982,2.983,-0.0013598818189497054,0.0013996816659961721,0.674977374665602,-0.7378358457693716,-0.03,0.04,0.0
138.07,461,map,base_link,-4.562754295551539,-5.381455635067223,2.983,-0.0015092452702939547,0.0011622313929616486,0.6752375218201361,-0.7375978989416282,-0.03,0.03,0.0
138.32,462,map,base_link,-4.562754295551539,-5.381455635067223,2.983,-0.0015110363858256385,0.0010218016565938304,0.6754783770387306,-0.7373775388791943,-0.03,0.03,0.0
138.57,463,map,base_link,-4.562754295551539,-5.381455635067223,2.982,-0.0013056326742776148,0.0009454955788626572,0.6757233449126747,-0.7371535542215452,-0.03,0.02,0.0
138.82,464,map,base_link,-4.562754295551539,-5.381455635067223,2.982,0.028903182617092425,-0.029089810510283594,0.6475138977509349,-0.7609494997557135,0.04,0.02,0.0
139.07,465,map,base_link,-4.499130235849428,-5.37035982027515,2.981,0.07118698583328964,-0.08712174507039053,0.5694196521889704,-0.8143116567290762,0.43,0.05,0.0
139.321,466,map,base_link,-4.280990591786238,-5.348168140514281,2.978,0.07522232846095173,-0.118005927781037,0.4742774814265649,-0.8691818411133102,1.12,0.1,0.01
139.571,467,map,base_link,-3.862889615452585,-5.31488060475311,2.976,0.034642332606863155,-0.0716175335828567,0.36847974484124985,-0.9262254128001407,1.74,0.15,0.0
139.821,468,map,base_link,-3.326629659946658,-5.270497260241493,2.977,0.002929467039844868,-0.0075739612569731335,0.2467106371048115,-0.9690551660628399,1.98,0.18,-0.01
140.071,469,map,base_link,-2.790369709305562,-5.215018174032528,2.982,-0.007968350114631647,0.03191145617510492,0.11620367505962254,-0.992680648680064,1.93,0.18,-0.01
140.321,470,map,base_link,-2.3177338091975033,-5.170634910238582,2.988,-0.007199147799042964,0.04545960535372108,0.023067794286607216,-0.99867385738228,1.72,0.15,-0.01
140.571,471,map,base_link,-1.9359894244867601,-5.148443262594307,2.992,-0.00394072859006255,0.04472007420203103,-0.02747371302725304,-0.9986139297616675,1.48,0.13,0.0
140.821,472,map,base_link,-1.6178691005661494,-5.126251634478279,2.993,-0.001439899377378645,0.037442327338705214,-0.05418283366739218,-0.997827750340216,1.25,0.1,0.0
141.071,473,map,base_link,-1.363372840737728,-5.104060027447665,2.991,-0.00027247670916700497,0.028910238908146906,-0.06817512443805263,-0.9972543688801632,1.06,0.09,0.01
141.321,474,map,base_link,-1.1452331853200781,-5.092964207201453,2.989,4.1923075413138873e-05,0.021576409543598005,-0.07504116902248131,-0.9969469794053253,0.91,0.08,0.01
141.571,475,map,base_link,-0.9543609901958144,-5.081868402315179,2.986,0.00039062262190178926,0.016242495957580167,-0.07777407058853691,-0.9968386141613519,0.8,0.07,0.01
141.821,476,map,base_link,-0.7816670963065566,-5.081868385527486,2.984,0.0008713367748545397,0.01317932474660268,-0.07822299073101929,-0.9968483886191235,0.72,0.07,0.0
142.071,477,map,base_link,-0.6180623555542487,-5.07077259070675,2.983,0.0012747559523621868,0.011974189598878407,-0.07724926265520016,-0.9969390880088613,0.65,0.06,0.0
142.321,478,map,base_link,-0.46354676819587326,-5.07077258104887,2.983,0.0014728500470161826,0.011943319221652426,-0.07567541407674644,-0.9970598876411696,0.59,0.06,0.0
142.571,479,map,base_link,-0.3181203295109187,-5.059676792272813,2.983,0.0014003277300210196,0.012437331733622351,-0.0738022815503333,-0.9971943517186415,0.53,0.06,0.0
142.821,480,map,base_link,-0.19087219645920844,-5.059676788936576,2.983,0.001330133339625342,0.012963523320361702,-0.07173826190266352,-0.9973383576237335,0.46,0.06,0.0
143.071,481,map,base_link,-0.07271321911076192,-5.048581004417702,2.983,0.001068582433750942,0.013334874029029997,-0.06956315077076053,-0.9974878482072133,0.4,0.06,0.0
143.321,482,map,base_link,0.027267457990024585,-5.037485221170502,2.983,0.0007676445521603955,0.013267125026022829,-0.06751343132595533,-0.9976298565630346,0.34,0.06,0.0
143.571,483,map,base_link,0.11815898149693616,-5.026389440127009,2.983,0.00020514621844199124,0.012930448835223755,-0.06559383613405151,-0.9977626020598125,0.28,0.06,0.0
143.821,484,map,base_link,0.1908721977590127,-5.026389441587343,2.984,-1.0921452601396619e-05,0.012276663447474198,-0.06371799691127017,-0.9978924292151607,0.22,0.06,0.0
144.071,485,map,base_link,0.2454071146179629,-5.015293659938562,2.985,-9.610257633076552e-05,0.011288172733000385,-0.06195890055068448,-0.9980148608929604,0.16,0.05,0.0
144.321,486,map,base_link,0.2999420285229906,-5.0041978800437175,2.985,-0.00039043839350959335,0.01010220373397805,-0.060331551738680045,-0.9981271947514411,0.12,0.05,0.0
144.571,487,map,base_link,0.33629863869198906,-5.004197880594477,2.985,-0.0004082982766750571,0.008828561326999633,-0.058744006454679865,-0.9982339562963511,0.08,0.04,0.0
144.821,488,map,base_link,0.3635660941899687,-4.99310209919549,2.985,-0.0005204269365281606,0.0077542417286927436,-0.05728661524806211,-0.9983275237137547,0.04,0.04,0.0
145.071,489,map,base_link,0.3908335525970168,-4.993102100319885,2.986,-0.0006933092435555091,0.006707798323101553,-0.05592532852326859,-0.9984121806115518,0.01,0.03,0.0
145.322,490,map,base_link,0.409011856010728,-4.982006318755438,2.986,-0.0010423311954537353,0.005696917698698261,-0.054620225016291823,-0.9984904054088769,0.0,0.03,0.0
145.572,491,map,base_link,0.4181010110489189,-4.982006319065696,2.986,-0.0012583934367215582,0.004667237403255525,-0.05346483774187333,-0.9985580325981136,-0.02,0.02,0.0
145.822,492,map,base_link,0.42719016273334753,-4.982006319852512,2.986,-0.0010672913564213568,0.003755362856467377,-0.052351995374339044,-0.9986210626255096,-0.03,0.02,0.0
146.072,493,map,base_link,0.42719016310051966,-4.970910536694037,2.986,-0.001024031561480178,0.0032366388067324513,-0.05131712822594742,-0.9986766382965196,-0.04,0.01,0.0
146.322,494,map,base_link,0.4453684673465783,-4.970910537563238,2.986,-0.0010203104463942301,0.0026901085183130267,-0.05034390260317262,-0.9987277976272788,-0.05,0.01,0.0
146.572,495,map,base_link,0.4453684673465783,-4.970910537563238,2.986,-0.0010599194049902999,0.0021766142560303192,-0.049456244816806605,-0.9987733570584747,-0.05,0.01,0.0
146.822,496,map,base_link,0.4453684673465783,-4.970910537563238,2.985,-0.0010747726417218396,0.001731069170182101,-0.048649323048833126,-0.9988138423300846,-0.05,0.0,0.0
147.072,497,map,base_link,0.44536846771375044,-4.95981475592375,2.984,-0.0011248396616247152,0.001333549249695954,-0.04781717173759542,-0.9988545812425108,-0.05,0.0,0.0
147.322,498,map,base_link,0.44536846771375044,-4.95981475592375,2.984,-0.0012469087874649196,0.0009906435047565543,-0.04708716243713684,-0.9988895149001921,-0.05,0.0,0.0
147.572,499,map,base_link,0.44536846771375044,-4.95981475592375,2.983,-0.0013283190516643131,0.0007950826159202191,-0.04645268106587552,-0.9989192919520189,-0.05,0.0,0.0
147.822,500,map,base_link,0.44536846771375044,-4.95981475592375,2.983,-0.0016142292259667275,0.000661160923229396,-0.0458365335301123,-0.9989474307110373,-0.05,0.0,0.0
148.072,501,map,base_link,0.4362793161516976,-4.948718971777643,2.983,-0.0016833841858498611,0.0005042934613580679,-0.045285027296035674,-0.9989725612891402,-0.05,0.0,0.0
148.322,502,map,base_link,0.4362793161516976,-4.948718971777643,2.983,-0.0016851381256611114,0.000335236952914687,-0.04467043502693441,-0.9990003003804289,-0.04,0.0,0.0
148.572,503,map,base_link,0.4362793161516976,-4.948718971777643,2.983,-0.0017042928743630915,0.00010112638794230425,-0.04422066033665384,-0.999020329301983,-0.04,-0.01,0.0
148.822,504,map,base_link,0.427190164467269,-4.948718971370574,2.983,-0.0016428932533844609,-4.8168957031285645e-05,-0.04378362887624743,-0.9990396851096239,-0.04,-0.01,0.0
149.072,505,map,base_link,0.427190164467269,-4.948718971370574,2.982,-0.0014599765371655776,-0.0003535662444582134,-0.04333727712376395,-0.9990593695426311,-0.04,-0.01,0.0
149.322,506,map,base_link,0.4181010128276944,-4.937623188964665,2.982,0.04125202556108753,-0.0006615509199130856,-0.08005471844178502,-0.9959362804882119,-0.04,0.06,0.0
149.572,507,map,base_link,0.40901186110230303,-4.871048494411437,2.981,0.11233701086768391,-0.01187479849507141,-0.17292624622121433,-0.9784354340056658,-0.06,0.44,0.0
149.822,508,map,base_link,0.39083356636348926,-4.660228619790882,2.978,0.13692733299356313,-0.030775515529661738,-0.27834542941235374,-0.950172402802989,-0.11,1.13,0.01
150.072,509,map,base_link,0.3544769717994512,-4.238588884023025,2.975,0.07567318916417108,-0.026834902810167042,-0.3931558724817065,-0.9159595604425126,-0.15,1.75,0.0
150.322,510,map,base_link,0.3090312238982779,-3.717087108551238,2.976,0.008461520790514264,-0.004004080887992019,-0.5092894985689225,-0.8605443490312219,-0.18,1.99,-0.01
150.572,511,map,base_link,0.2544963180443571,-3.184489556026259,2.981,-0.027433170634655685,0.016447738111229276,-0.6183198658018454,-0.7852753890290604,-0.18,1.94,-0.02
150.822,512,map,base_link,0.2090505583479121,-2.7073709099382905,2.987,-0.03703341099941917,0.026790710686668,-0.6887236310043182,-0.7235817468585559,-0.16,1.74,-0.01
151.072,513,map,base_link,0.18178310132558884,-2.319018527398806,2.991,-0.034777642864671325,0.028639269655464802,-0.72480161798042,-0.6874830342367325,-0.13,1.49,0.0
151.323,514,map,base_link,0.1545156435459027,-1.9972408368377141,2.993,-0.028553214135801912,0.025460296827459566,-0.7434873422153225,-0.6676548952966409,-0.11,1.26,0.0
151.573,515,map,base_link,0.1363373347253517,-1.73094205775908,2.991,-0.02189122686038364,0.02037289909514058,-0.7530453819174688,-0.6572886519192158,-0.09,1.07,0.01
151.823,516,map,base_link,0.11815902716702875,-1.5201221887610195,2.989,-0.01595159522859713,0.015483071771531014,-0.7577728707119867,-0.6521396303791815,-0.07,0.92,0.01
152.073,517,map,base_link,0.10906987429880677,-1.3314938883148333,2.986,-0.011654348717642506,0.011884219783863099,-0.7596691382108502,-0.6500967173629478,-0.07,0.81,0.01
152.323,518,map,base_link,0.09998071738733239,-1.153961370005089,2.984,-0.00917391733583765,0.00981220119090592,-0.7599421561191736,-0.6498518902807362,-0.06,0.72,0.0
152.573,519,map,base_link,0.09998071979811674,-0.9986204161736401,2.982,-0.007875741654804855,0.008853581167378678,-0.7593922505909434,-0.6505251697946216,-0.06,0.65,0.0
152.823,520,map,base_link,0.09089156573862545,-0.8432794622811564,2.982,-0.007382839649043261,0.008731894155130739,-0.7582892693849099,-0.6518179436306425,-0.05,0.59,0.0
153.073,521,map,base_link,0.08180241093255858,-0.7101300730816742,2.982,-0.007513833660586022,0.008934738736586302,-0.7569520165193021,-0.6533661740821852,-0.05,0.53,0.0
153.323,522,map,base_link,0.07271325517176863,-0.5769806840483405,2.982,-0.008068817651236168,0.009057430592462282,-0.7555274015513519,-0.6550047348209296,-0.05,0.47,0.0
153.573,523,map,base_link,0.07271325601188028,-0.4660228613430928,2.982,-0.008434595532909116,0.009056952939321862,-0.7540480517134687,-0.6567026457299935,-0.05,0.41,0.0
153.823,524,map,base_link,0.06362410135687568,-0.36616081932383393,2.982,-0.008503281091082397,0.009054600570497577,-0.7527203125905847,-0.6582232443728548,-0.05,0.34,0.0
154.073,525,map,base_link,0.05453494209150411,-0.2773945600200891,2.982,-0.008549171285258906,0.008842993075106649,-0.7513695271256896,-0.6597670398335509,-0.05,0.28,0.0
154.323,526,map,base_link,0.04544578582092773,-0.21081986572545697,2.983,-0.008045224843965911,0.008205855649371596,-0.7501151356564473,-0.6612073967745532,-0.04,0.23,0.0
154.573,527,map,base_link,0.03635662939530815,-0.14424517187325003,2.983,-0.007579162578177743,0.0072739345527299566,-0.7489537320960721,-0.6625390202471859,-0.04,0.18,0.0
154.823,528,map,base_link,0.03635662955835861,-0.0998620415859417,2.983,-0.0069794616505083635,0.006246742132007508,-0.7478698178687592,-0.6637793314413716,-0.04,0.13,0.0
155.073,529,map,base_link,0.027267473426613398,-0.06657469436657082,2.983,-0.006206859138951844,0.005431180842782241,-0.7468256430952885,-0.6649687481300086,-0.03,0.09,0.0
155.323,530,map,base_link,0.027267473210260684,-0.03328734713277548,2.983,-0.005374563592130782,0.004497621100500249,-0.7458325321561948,-0.6660966292123907,-0.03,0.06,0.0
155.573,531,map,base_link,0.01817831414502935,-0.011095783340005827,2.983,-0.004693022956039005,0.003582229294138762,-0.7449610442936282,-0.6670818432949326,-0.02,0.03,0.0
155.823,532,map,base_link,0.018178314047071487,-3.695672656789384e-10,2.983,-0.004136224091069434,0.002896916069969105,-0.7441254919807241,-0.6680207719165604,-0.02,0.01,0.0
156.073,533,map,base_link,0.00908915675667954,0.011095782399902276,2.983,-0.003718337189722684,0.0022164014269791974,-0.7432709873488779,-0.6689764576565321,-0.02,0.0,0.0
156.323,534,map,base_link,0.009089157038124629,0.03328734766436048,2.983,-0.003228694334512191,0.0014872110973789283,-0.742518902471733,-0.6698156785326983,-0.01,-0.01,0.0
156.573,535,map,base_link,-1.543090100142308e-10,0.033287347083645,2.983,-0.0027635068258607225,0.0009915722894794237,-0.7418321289023844,-0.6705792066136366,-0.01,-0.02,0.0
156.823,536,map,base_link,-1.543090100142308e-10,0.033287347083645,2.983,-0.0022462827311899945,0.0006111358399058446,-0.7411902381804146,-0.6712910036287816,0.0,-0.03,0.0
157.074,537,map,base_link,-1.543090100142308e-10,0.033287347083645,2.984,-0.001821726942932762,0.0002608184176586007,-0.740579204622451,-0.671966557921952,0.0,-0.03,0.0
157.324,538,map,base_link,-0.009089156567499312,0.04438312979805037,2.984,-0.0014981486430896743,-0.00010286182599030556,-0.7400001779551645,-0.6726049967078842,0.0,-0.04,0.0
157.574,539,map,base_link,-0.009089156567499312,0.04438312979805037,2.985,-0.001330792471212611,-0.0003689805121771354,-0.7395056705422867,-0.6731489107772389,0.0,-0.04,0.0
157.824,540,map,base_link,-0.009089156567499312,0.04438312979805037,2.985,-0.0012502215695514842,-0.0005099512813121944,-0.7390309782995312,-0.6736700898877395,0.0,-0.04,0.0
158.074,541,map,base_link,-0.009089156567499312,0.04438312979805037,2.985,-0.0011806354074899426,-0.0007703242828303199,-0.7385741791040938,-0.674170745925131,0.0,-0.03,0.0
158.324,542,map,base_link,-0.01817831415977289,0.04438312973521996,2.984,-0.0011644111456676775,-0.0009362121224790846,-0.7381679665691642,-0.6746153131857378,0.0,-0.03,0.0
158.574,543,map,base_link,-0.01817831415977289,0.04438312973521996,2.984,-0.0009712322640238047,-0.0011458272294513536,-0.7377889599956398,-0.6750297728962787,0.0,-0.03,0.0
158.824,544,map,base_link,-0.018178314061814582,0.03328734752427431,2.983,-0.0008759461431696822,-0.0012760550475028746,-0.7374114303068283,-0.6754420677265425,0.0,-0.03,0.0
159.074,545,map,base_link,-0.018178314061814582,0.03328734752427431,2.983,-0.0008685351668298378,-0.0014080601706903907,-0.7371220179841704,-0.6757576441418656,0.01,-0.03,0.0
159.324,546,map,base_link,-0.02726747365328741,0.03328734777238895,2.983,-0.0012404850968885045,-0.0018518395195130319,-0.7621626854424767,-0.6473817056468545,0.01,-0.02,0.0
159.574,547,map,base_link,-0.02726747365328741,0.03328734777238895,2.983,-0.0012479735975641337,-0.0022954578044656316,-0.8203706148406364,-0.571826221628008,0.02,-0.02,0.0
159.824,548,map,base_link,-0.02726747365328741,0.03328734777238895,2.983,-0.0005157205162276944,-0.0019864912101959344,-0.8788263849557169,-0.4771372684990003,0.02,-0.01,0.0
160.074,549,map,base_link,-0.02726747363285109,0.022191564960484245,2.983,0.00014769775108981265,-0.0016411228564601323,-0.9297657660706586,-0.36814793920947836,0.02,-0.01,0.0
160.324,550,map,base_link,-0.018178314041378263,0.022191564332623148,2.983,0.0003898231000945972,-0.0014802611787168478,-0.9687765329042062,-0.24793080921680355,0.02,0.0,0.0
160.574,551,map,base_link,-0.02726747363285109,0.022191564960484245,2.982,0.0004083158202938135,-0.0011589106270079182,-0.9928650076327603,-0.1192374388468167,0.02,0.0,0.0
160.824,552,map,base_link,-0.02726747363285109,0.022191564960484245,2.982,0.0001227848287427867,-0.0008949040121375989,-0.9998885250040426,0.014903745701495497,0.01,0.0,0.0
161.074,553,map,base_link,-0.02726747363285109,0.022191564960484245,2.982,-0.000271438911180956,-0.000697044676845338,-0.9885393042507303,0.15096186406214562,0.01,0.0,0.0
161.324,554,map,base_link,-0.02726747361241455,0.01109578176883308,2.982,-0.0005597523679010857,-0.0005213063790800576,-0.9583701959946374,0.28552755094061644,0.01,0.0,0.0
161.574,555,map,base_link,-0.02726747361241455,0.01109578176883308,2.982,-0.0007814146277873251,-0.0002930294962517039,-0.9095950285981654,0.41549511125210187,0.01,0.0,0.0
161.824,556,map,base_link,-0.02726747361241455,0.01109578176883308,2.982,-0.0011558426468822158,-0.00014766639468555425,-0.8431518577099665,0.5376742387939413,0.01,0.0,0.0
162.074,557,map,base_link,-0.02726747361241455,0.01109578176883308,2.982,-0.0013024529177381391,0.00010696994396038158,-0.7611957590060391,0.6485208621509782,0.02,0.0,0.0
162.324,558,map,base_link,-0.036356629752167136,-9.71862590404271e-11,2.982,0.001871938849738669,-0.0008347162380734765,0.6976715237983705,-0.7164148546579729,0.02,0.0,0.0
162.574,559,map,base_link,-0.036356629752167136,-9.71862590404271e-11,2.982,0.002077042102621534,-0.0010683706189114864,0.6635217634251968,-0.7481533358486359,0.03,0.0,0.0
162.824,560,map,base_link,-0.036356629752167136,-9.71862590404271e-11,2.982,0.0016918878010821503,-0.0007121450875258566,0.6455204072107348,-0.7637408161408751,0.03,0.01,0.0
163.075,561,map,base_link,-0.036356629752167136,-9.71862590404271e-11,2.982,0.001224895804603613,-0.00010036118725689395,0.6366467564604978,-0.7711545869968143,0.04,0.01,0.0
163.325,562,map,base_link,-0.03635662965420883,-0.011095783067624598,2.982,0.0008879532643820551,0.0005484008871208704,0.6330169519417096,-0.7741372290168549,0.04,0.01,0.0
163.575,563,map,base_link,-0.03635662965420883,-0.011095783067624598,2.982,0.0007907688155506784,0.0009365265460256655,0.6322540052506611,-0.7747602018994045,0.03,0.01,0.0
163.825,564,map,base_link,-0.02726747333897661,-0.011095782811591626,2.982,0.0007674851798884682,0.0011125745074013703,0.6332528385472519,-0.7739438064978053,0.03,0.02,0.0
164.075,565,map,base_link,-0.02726747333897661,-0.011095782811591626,2.982,0.0009292925553133744,0.0011042399887236753,0.6352242065081006,-0.7723264365121446,0.02,0.02,0.0
164.325,566,map,base_link,-0.027267473318540292,-0.022191565243749656,2.982,0.0008862134958953847,0.0010294020328973901,0.6377076725195785,-0.770277274341361,0.02,0.02,0.0
164.577,567,map,base_link,-0.036356629633772286,-0.02219156549978263,2.982,0.0009052842214148657,0.0009962907972361672,0.6403242242398339,-0.7681035579378479,0.02,0.03,0.0
164.825,568,map,base_link,-0.036356629633772286,-0.02219156549978263,2.982,0.0007878339035053986,0.0009799653222129217,0.6429603394408496,-0.7658984403247046,0.01,0.03,0.0
165.075,569,map,base_link,-0.027267473318540292,-0.022191565243749656,2.982,0.0007048833715165669,0.0008832863712925668,0.6454596835584464,-0.7637935060245336,0.01,0.03,0.0
165.325,570,map,base_link,-0.027267473143060217,-0.033287347233482256,2.982,0.0005273500483104468,0.0008444797073047323,0.6478951176107834,-0.7617289054066804,0.01,0.03,0.0
165.575,571,map,base_link,-0.027267473143060217,-0.033287347233482256,2.982,0.00027404594415839155,0.0008492359184899555,0.6501298968209374,-0.7598225588627734,0.01,0.03,0.0
165.825,572,map,base_link,-0.027267473143060217,-0.033287347233482256,2.982,1.81678986268519e-05,0.000942928465395249,0.6522636382135854,-0.757991594161976,0.01,0.03,0.0
166.075,573,map,base_link,-0.027267473143060217,-0.033287347233482256,2.982,-6.029033671073004e-05,0.0008962485785827702,0.654194901585199,-0.7563254748079642,0.01,0.03,0.0
166.325,574,map,base_link,-0.01817831357202393,-0.022191565049438866,2.982,-0.0001415387941938088,0.00088712653913458,0.6560199286873512,-0.7547430331830273,0.0,0.03,0.0
166.575,575,map,base_link,-0.01817831357202393,-0.022191565049438866,2.982,-0.00024411704010175104,0.0009137303242653707,0.6577351311529963,-0.7532486991365575,0.0,0.03,0.0
166.825,576,map,base_link,-0.01817831357202393,-0.022191565049438866,2.982,-0.00036201938966956863,0.0011392194609370371,0.6593568316239525,-0.7518291958362644,0.0,0.03,0.0
167.075,577,map,base_link,-0.009089156057271897,-0.022191565207821062,2.982,-0.0005308954793700465,0.0013011929171255193,0.6608491915239222,-0.7505174022693681,0.0,0.03,0.0
167.325,578,map,base_link,-1.4187984120894725e-10,-0.022191565193396157,2.982,-0.0007977747092650332,0.0013637467231424982,0.6622328131773173,-0.7492964733012191,0.0,0.03,0.0
167.575,579,map,base_link,-1.4187984120894725e-10,-0.022191565193396157,2.982,-0.0009195510869566503,0.001338371950777156,0.6634966412981693,-0.7481774991085793,0.0,0.03,0.0
167.825,580,map,base_link,-1.4187984120894725e-10,-0.022191565193396157,2.982,-0.0010168109459569954,0.0012008109321525106,0.6647040179870262,-0.7471051416102747,0.0,0.02,0.0
168.075,581,map,base_link,-1.6231616051243236e-10,-0.011095782761237905,2.982,-0.0010734955715856786,0.0011334464892277154,0.665838906808651,-0.7460939036650645,-0.01,0.02,0.0
168.325,582,map,base_link,0.009089156552755773,-0.011095783402836457,2.982,-0.0011354787023691807,0.0010315880203687292,0.6668995584521457,-0.7451460430349246,-0.01,0.02,0.0
168.575,583,map,base_link,0.009089156552755773,-0.011095783402836457,2.982,-0.0010953013145808689,0.000997793687407235,0.6678348922957358,-0.7443079748028572,-0.01,0.02,0.0
168.825,584,map,base_link,0.009089156552755773,-0.011095783402836457,2.982,-0.0013377092937364395,0.001013941886087664,0.6687484479516875,-0.7434868497948746,-0.01,0.02,0.0
169.076,585,map,base_link,0.009089156552755773,-0.011095783402836457,2.982,-0.0015045551244849355,0.00102164619139358,0.6695694612344887,-0.7427472175209365,-0.02,0.01,0.0
169.326,586,map,base_link,0.027267473316226143,-2.583311342618799e-10,2.982,-0.0014874751768082053,0.001071683741206852,0.670372071745167,-0.7420228597123202,-0.02,0.01,0.0
169.576,587,map,base_link,0.027267473316226143,-2.583311342618799e-10,2.982,-0.0015042197117486201,0.0010333085062079733,0.6710811579679137,-0.741381648691842,-0.02,0.01,0.0
169.826,588,map,base_link,0.027267473316226143,-2.583311342618799e-10,2.982,-0.0015072182340066128,0.0011065041816093557,0.6717648141178305,-0.740762133518532,-0.02,0.0,0.0
170.076,589,map,base_link,0.027267473316226143,-2.583311342618799e-10,2.982,-0.0014113056692239684,0.0011878913713945826,0.6723874343019202,-0.7401970922148229,-0.02,0.0,0.0
170.326,590,map,base_link,0.027267473316226143,-2.583311342618799e-10,2.982,-0.0013756443230990107,0.001192667307591971,0.6729411996427339,-0.7396937386315959,-0.03,0.0,0.0
170.576,591,map,base_link,0.027267473316226143,-2.583311342618799e-10,2.982,-0.0012432523550901457,0.001195231152752137,0.6734935347818516,-0.7391911013757674,-0.03,0.0,0.0
170.826,592,map,base_link,0.027267473316226143,-2.583311342618799e-10,2.982,-0.0011129282992661258,0.001169997794842769,0.6740164837860599,-0.7387145403201678,-0.03,0.0,0.0
171.076,593,map,base_link,0.027267473316226143,-2.583311342618799e-10,2.982,-0.0010517862487908715,0.0011760727106274974,0.6744527909876242,-0.7383162894909405,-0.03,0.0,0.0
171.326,594,map,base_link,0.027267473316226143,-2.583311342618799e-10,2.982,-0.0009882063089505873,0.0011548633353958015,0.674879145360959,-0.7379267097048522,-0.03,0.0,0.0
171.577,595,map,base_link,0.027267473316226143,-2.583311342618799e-10,2.982,-0.000953008506314638,0.0011194989220135738,0.6753060881139928,-0.7375361183380287,-0.03,0.0,0.0
171.826,596,map,base_link,0.027267473316226143,-2.583311342618799e-10,2.982,-0.0009962772262567519,0.0011371636858096268,0.6756585456582663,-0.7372131604694783,-0.03,0.0,0.0
172.076,597,map,base_link,0.027267473316226143,-2.583311342618799e-10,2.982,-0.0010008422297724969,0.0010928570324580259,0.675946295069114,-0.7369493945724334,-0.03,0.0,0.0
172.326,598,map,base_link,0.027267473316226143,-2.583311342618799e-10,2.982,-0.0009915798712973266,0.0009812647043466749,0.6762596823545809,-0.7366619957012988,-0.03,0.0,0.0
172.576,599,map,base_link,0.027267473316226143,-2.583311342618799e-10,2.982,-0.0009112834089090663,0.0010667633622819792,0.6765350773728651,-0.7364090715509749,-0.03,0.0,0.0
172.826,600,map,base_link,0.027267473316226143,-2.583311342618799e-10,2.982,-0.0009720039830205245,0.0011105957316212291,0.6768308819312918,-0.7361370653957643,-0.03,0.0,0.0
173.076,601,map,base_link,0.027267473316226143,-2.583311342618799e-10,2.982,-0.0010765242021300039,0.001098392796944977,0.6770384133087439,-0.7359460724355312,-0.03,0.0,0.0
173.326,602,map,base_link,0.027267473316226143,-2.583311342618799e-10,2.982,-0.0010938874346902014,0.0010033965939646445,0.6772409320264717,-0.7357598226279218,-0.03,0.0,0.0
173.576,603,map,base_link,0.027267473316226143,-2.583311342618799e-10,2.982,-0.0010552926247556801,0.001001966748340864,0.6774744707043935,-0.7355448483701814,-0.03,0.0,0.0
173.826,604,map,base_link,0.027267473316226143,-2.583311342618799e-10,2.982,-0.001013639550970209,0.0010716995884478215,0.6776778531486033,-0.7353574310134855,-0.03,0.0,0.0
174.077,605,map,base_link,0.027267473316226143,-2.583311342618799e-10,2.982,-0.0010462356095214118,0.0010804755625130685,0.6779057267173088,-0.7351473074476199,-0.03,0.0,0.0
174.326,606,map,base_link,0.027267473316226143,-2.583311342618799e-10,2.982,-0.0009690351133659136,0.001037715456654945,0.6780000851379993,-0.7350604523918055,-0.03,0.0,0.0
174.576,607,map,base_link,0.027267473316226143,-2.583311342618799e-10,2.981,-0.0009697259713321094,0.0010333166798800876,0.6781598183769629,-0.734913091887132,-0.03,0.0,0.0
174.826,608,map,base_link,0.027267473316226143,-2.583311342618799e-10,2.98,-0.0010810804276564225,0.0010510516080231777,0.6783254413222171,-0.7347600439671756,-0.03,0.0,0.0
175.077,609,map,base_link,0.02726747325228951,-2.120010833550623e-10,2.978,-0.0010716939053103769,0.0010059688479986345,0.6784466379212559,-0.7346482144483811,-0.03,0.0,0.0
175.327,610,map,base_link,0.02726747325228951,-2.120010833550623e-10,2.976,-0.001032301856564648,0.0010078166682251108,0.6785567996020502,-0.7345465188619869,-0.03,0.0,0.0
175.577,611,map,base_link,0.02726747325228951,-2.120010833550623e-10,2.974,-0.0010154459210950958,0.0009751493740981933,0.6786588539019024,-0.7344522979566717,-0.03,0.0,0.0
175.827,612,map,base_link,0.02726747325228951,-2.120010833550623e-10,2.973,-0.0009616238235763527,0.001017636577997399,0.6787204274280045,-0.7343954119460198,-0.03,0.0,0.0
176.077,613,map,base_link,0.02726747325228951,-2.120010833550623e-10,2.973,-0.0009383664225302871,0.001000859379482107,0.6787749047338156,-0.7343451139978797,-0.03,0.0,0.0
176.327,614,map,base_link,0.02726747325228951,-2.120010833550623e-10,2.972,-0.0009009956850049997,0.0009726703947882229,0.6789149988869297,-0.7342156811219978,-0.03,0.0,0.0
176.577,615,map,base_link,0.02726747325228951,-2.120010833550623e-10,2.972,-0.0009694462676330743,0.0009453024281075322,0.6789855794176102,-0.7341503589321372,-0.03,0.0,0.0
176.827,616,map,base_link,0.02726747325228951,-2.120010833550623e-10,2.973,-0.0010332333484018843,0.0009625747970827431,0.6790754306751562,-0.734067139526051,-0.03,0.0,0.0
177.077,617,map,base_link,0.02726747325228951,-2.120010833550623e-10,2.973,-0.0010421982885050634,0.0009654358410570887,0.6791267045245458,-0.7340196870370674,-0.03,0.0,0.0
177.327,618,map,base_link,0.02726747325228951,-2.120010833550623e-10,2.973,-0.0009372832222320367,0.0009965802986854097,0.6791675225000936,-0.733982019336274,-0.03,0.0,0.0
177.577,619,map,base_link,0.02726747325228951,-2.120010833550623e-10,2.973,-0.0008790512776912073,0.0009672271730272641,0.6791610028011565,-0.7339881634022271,-0.03,0.0,0.0
177.827,620,map,base_link,0.02726747325228951,-2.120010833550623e-10,2.973,-0.000888314937842284,0.0009545750008674417,0.6791765075724204,-0.7339738219070684,-0.03,0.0,0.0
178.077,621,map,base_link,0.02726747325228951,-2.120010833550623e-10,2.973,-0.0008771797670492291,0.0009425833661188971,0.6791492248846619,-0.7339990956607625,-0.03,0.0,0.0
178.327,622,map,base_link,0.02726747325228951,-2.120010833550623e-10,2.973,-0.0008596722819876301,0.0009565206932397656,0.6791900669554252,-0.733961306187742,-0.03,0.0,0.0
178.577,623,map,base_link,0.02726747325228951,-2.120010833550623e-10,2.974,-0.0008450477260534895,0.0009531677686513968,0.679212470214338,-0.7339405954645666,-0.03,0.0,0.0
178.827,624,map,base_link,0.02726747325228951,-2.120010833550623e-10,2.974,-0.0008268720732976402,0.000979757490791587,0.6792186448487026,-0.7339348668974146,-0.03,0.0,0.0
179.077,625,map,base_link,0.02726747325228951,-2.120010833550623e-10,2.974,-0.0008674451095892563,0.0009352622200791367,0.6792253560650758,-0.7339286671753819,-0.03,0.0,0.0
179.327,626,map,base_link,0.027267473588192814,-3.0380964410881006e-10,2.965,-0.0008639714215411557,0.000930752387983982,0.6793010385737968,-0.7338586282424809,-0.03,0.0,0.1
179.577,627,map,base_link,0.027267473127052355,1.3270340382121049e-10,2.906,-0.000920489906704266,0.0009542157546331608,0.679305379947806,-0.7338545107475951,-0.02,0.0,0.33
179.827,628,map,base_link,0.0272674725910258,-5.391913582286634e-10,2.794,-0.0009329069022379762,0.0009789061973857355,0.6793007083218604,-0.7338587868934918,-0.02,0.0,0.46
180.077,629,map,base_link,0.027267471604808247,4.178879464689089e-13,2.661,-0.000840456334057542,0.0008913688356263496,0.6793472808874462,-0.7338158972423412,-0.02,0.0,0.51
180.327,630,map,base_link,0.027267471354333828,-6.966649479522857e-11,2.527,-0.0007272929686595126,0.0007887648545300313,0.6793421590959592,-0.7338208771694782,-0.02,0.0,0.51
180.577,631,map,base_link,0.018178312298481103,-4.354552274321577e-10,2.397,-0.0006549889678631878,0.0007132582127919422,0.6793582508874821,-0.7338061250788757,-0.02,0.0,0.5
180.827,632,map,base_link,0.01817831177603979,-4.6006110032692504e-10,2.272,-0.0006820124284851686,0.0008108701609766423,0.6793357477002627,-0.7338268319195982,-0.02,0.0,0.49
181.078,633,map,base_link,0.018178311589501894,-5.764749788639278e-10,2.149,-0.0006749023648909456,0.0008399331131743703,0.6793729780269363,-0.7337923382987692,-0.02,0.0,0.49
181.328,634,map,base_link,0.018178311067060582,-6.010805186917878e-10,2.028,-0.0007325008549278054,0.0008884343237620372,0.679299258923571,-0.733860471038492,-0.02,0.0,0.49
181.578,635,map,base_link,0.018178310944459097,-3.8407799163309164e-10,1.906,-0.0007254145282500201,0.0009166526279669294,0.6792825999526209,-0.7338758634287749,-0.02,0.0,0.49
181.828,636,map,base_link,0.018178310821857724,-5.468219210769121e-10,1.783,-0.0005897589064939254,0.0010363059851359138,0.6793286241665388,-0.7338332226346359,-0.02,0.0,0.49
182.078,637,map,base_link,0.01817831023548,-5.250976320425593e-10,1.659,-0.000548688532894835,0.0009921536587620353,0.6793652556290853,-0.7337994031177995,-0.02,0.0,0.49
182.328,638,map,base_link,0.018178310112878515,-3.0809510498386317e-10,1.535,-0.0004969557782454671,0.0009312404829992765,0.6793439970982472,-0.7338192007795201,-0.02,0.01,0.49
182.578,639,map,base_link,0.018178309590437203,-3.327007558340256e-10,1.41,-0.0005255712130918926,0.0009425605373291374,0.6793486173854588,-0.7338148890633106,-0.02,0.01,0.49
182.828,640,map,base_link,0.018178309403899306,-4.4911474539333085e-10,1.285,-0.0006719073680476373,0.0009757433125595116,0.6792710590233305,-0.7338865204095246,-0.02,0.01,0.49
183.078,641,map,base_link,0.018178308803936283,-1.0746795675586895e-09,1.16,-0.0007261462282020307,0.0009567614439514939,0.6791730940713586,-0.7339771560537374,-0.02,0.01,0.49
183.328,642,map,base_link,0.018178308694920098,-2.1038792930028194e-10,1.034,-0.0007547712921367217,0.0009046075312620464,0.6791558397557698,-0.733993158913042,-0.02,0.01,0.49
183.578,643,map,base_link,0.0181783085083822,-3.2680202988188967e-10,0.909,-0.0008402183678243643,0.000914286305536774,0.6790907241920056,-0.7340532994476785,-0.02,0.01,0.49
183.828,644,map,base_link,0.01817830798594089,-3.5140762522090085e-10,0.783,-0.0008705003610907948,0.0009134808716807304,0.6790572970214771,-0.734084188049098,-0.02,0.01,0.49
184.078,645,map,base_link,0.018178307799402993,-4.678217813136598e-10,0.658,-0.0008653348787420711,0.0009384680531469293,0.679035560448484,-0.7341042692422339,-0.02,0.01,0.49
184.328,646,map,base_link,0.018178307199439997,-7.136400081986238e-10,0.532,-0.0008302160465397537,0.0008818081568667278,0.6789936292456913,-0.7341431635583452,-0.02,0.01,0.49
184.578,647,map,base_link,0.018178306690583956,-9.095654784907481e-11,0.407,-0.0008300973532573547,0.0009620205283091017,0.6789978094145925,-0.7341391967910936,-0.02,0.01,0.49
184.828,648,map,base_link,0.018178306090620933,-7.165213283810701e-10,0.281,-0.0008407072828023392,0.0010230354099176919,0.6790055973553093,-0.7341318991638862,-0.02,0.01,0.49
185.078,649,map,base_link,0.018178305904083026,-4.5318889613232827e-10,0.155,-0.0008254738819661854,0.00099665089939299,0.6789937342181485,-0.7341429248942942,-0.02,0.01,0.49
185.328,650,map,base_link,0.018178306114749215,-5.800395563165806e-10,0.076,-0.0008108962791152413,0.0010153284124385926,0.6790063968761483,-0.7341312039116101,-0.02,0.01,0.0
185.578,651,map,base_link,0.018178306114749215,-5.800395563165806e-10,0.073,-0.0008056658762220496,0.0010138749414143988,0.6790086745009969,-0.7341291050711028,-0.02,0.01,0.0
185.828,652,map,base_link,0.018178306114749215,-5.800395563165806e-10,0.07,-0.0008027164007924464,0.001010383653242566,0.679011392657408,-0.7341265990363656,-0.02,0.01,0.0
186.078,653,map,base_link,0.01817830605081274,-5.337097187807505e-10,0.067,-0.000796803431875316,0.0010085120893426956,0.6790122706477464,-0.7341257959760358,-0.02,0.01,0.0
186.328,654,map,base_link,0.01817830605081274,-5.337097187807505e-10,0.064,-0.0007910207852661461,0.001006778638154115,0.6790125358254594,-0.7341255593389799,-0.02,0.01,0.0
186.578,655,map,base_link,0.01817830605081274,-5.337097187807505e-10,0.061,-0.0007847341471445845,0.0010002052524436106,0.6790132456446428,-0.734124918539685,-0.02,0.01,0.0
186.829,656,map,base_link,0.018178305909354542,-7.085925275360228e-10,0.058,-0.0007794060033971517,0.0009951489097187972,0.6790140407031752,-0.7341241957141016,-0.02,0.01,0.0
187.079,657,map,base_link,0.018178305909354542,-7.085925275360228e-10,0.055,-0.0007754657752113451,0.0009919871273810332,0.6790132577064515,-0.7341249283829305,-0.02,0.01,0.0
187.329,658,map,base_link,0.018178305909354542,-7.085925275360228e-10,0.052,-0.0007700449613505645,0.0009896133777161874,0.6790143113902343,-0.7341239627088644,-0.02,0.01,0.0
187.579,659,map,base_link,0.01817830544557821,-5.24124329989066e-10,0.047,-0.0007620835912556542,0.0009811720522596983,0.6790256129153592,-0.7341135290504626,-0.02,0.01,0.0
187.829,660,map,base_link,0.01817830544557821,-5.24124329989066e-10,0.041,-0.000752642857017258,0.0009745264597450265,0.6790484631583684,-0.7340924114232262,-0.02,0.01,0.0
188.079,661,map,base_link,0.01817830538164173,-4.777944906039777e-10,0.036,-0.0007434637879278875,0.0009660627229815809,0.6790770907548501,-0.7340659498957436,-0.02,0.01,0.0
188.329,662,map,base_link,0.01817830538164173,-4.777944906039777e-10,0.031,-0.0007344795984636597,0.0009574093335146235,0.6791072050482044,-0.7340381106990996,-0.02,0.01,0.0
188.579,663,map,base_link,0.018178305795066838,3.1356188479048086e-11,0.027,-0.0007289220120465224,0.0009483869568337315,0.6791384560552454,-0.7340092143439195,-0.02,0.01,0.0
188.829,664,map,base_link,0.018178305795066838,3.1356188479048086e-11,0.023,-0.0007184372729987833,0.0009387652210259418,0.6791687441353996,-0.7339812119920295,-0.02,0.01,0.0
189.079,665,map,base_link,0.018178305795066838,3.1356188479048086e-11,0.02,-0.0007105950725772034,0.0009329177355607062,0.6792031379859235,-0.733949400210407,-0.02,0.01,0.0
189.329,666,map,base_link,0.01817830565360864,-1.43526617674139e-10,0.017,-0.0007040862299983409,0.000927706909662761,0.6792377918849095,-0.7339173425514504,-0.02,0.01,0.0
189.579,667,map,base_link,0.01817830565360864,-1.43526617674139e-10,0.015,-0.0006970064267686945,0.000920736733039924,0.6792743712865891,-0.7338835022938712,-0.02,0.01,0.0
189.829,668,map,base_link,0.01817830565360864,-1.43526617674139e-10,0.013,-0.0006908203760107183,0.0009147681104607836,0.6793134845523895,-0.733847310870458,-0.02,0.01,0.0
190.079,669,map,base_link,0.01817830565360864,-1.43526617674139e-10,0.011,-0.0006843462977960233,0.0009109939751998031,0.6793503185275594,-0.7338132231546564,-0.02,0.01,0.0
190.329,670,map,base_link,0.018178305589672164,-9.719678187303238e-11,0.009,-0.0006789463990621112,0.0009077367265902506,0.6793910863647055,-0.7337754880166056,-0.02,0.01,0.0
190.579,671,map,base_link,0.018178305589672164,-9.719678187303238e-11,0.008,-0.0006766088221113024,0.0009041368169959392,0.6794316775543952,-0.7337379097966373,-0.02,0.01,0.0
190.829,672,map,base_link,0.018178305589672164,-9.719678187303238e-11,0.007,-0.0006742519819206588,0.00090171887785247,0.6794692038526502,-0.7337031642995525,-0.02,0.01,0.0
191.079,673,map,base_link,0.018178305589672164,-9.719678187303238e-11,0.006,-0.0006709707853414415,0.0009018430634196555,0.6795102234531953,-0.7336651775162036,-0.01,0.01,0.0
191.329,674,map,base_link,0.018178305589672164,-9.719678187303238e-11,0.005,-0.0006693719472722556,0.000900259991021392,0.6795502811296561,-0.7336280780407399,-0.01,0.01,0.0
191.579,675,map,base_link,0.018178305589672164,-9.719678187303238e-11,0.004,-0.0006667365200362698,0.0009000828014737021,0.6795912094652824,-0.7335901671443517,-0.01,0.01,0.0
191.829,676,map,base_link,0.018178305589672164,-9.719678187303238e-11,0.003,-0.000663143213182927,0.0008990544735922736,0.6796305627770869,-0.7335537131535989,-0.01,0.01,0.0
192.079,677,map,base_link,0.018178305589672164,-9.719678187303238e-11,0.002,-0.000662930081897947,0.0009031446870018781,0.6796713938993444,-0.7335158765618527,-0.01,0.01,0.0
192.329,678,map,base_link,0.018178305589672164,-9.719678187303238e-11,0.002,-0.0006598933680489643,0.0009092806950452432,0.6797119579286369,-0.7334782832491902,-0.01,0.01,0.0
192.579,679,map,base_link,0.018178305589672164,-9.719678187303238e-11,0.001,-0.0006566474439951742,0.0009107874776988329,0.6797521762331931,-0.7334410120701887,-0.01,0.01,0.0
192.83,680,map,base_link,0.018178305589672164,-9.719678187303238e-11,0.001,-0.0006541765863108981,0.0009106212191356574,0.6797930066912016,-0.7334031707565256,-0.01,0.01,0.0
193.08,681,map,base_link,0.018178305589672164,-9.719678187303238e-11,0.0,-0.000650545344099495,0.0009135813774456016,0.6798338309258192,-0.7333653281199942,-0.01,0.01,0.0
193.33,682,map,base_link,0.018178305589672164,-9.719678187303238e-11,0.0,-0.0006514064383169452,0.0009174646064152461,0.6798748265760466,-0.7333273171759923,-0.01,0.01,0.0
193.58,683,map,base_link,0.018178305589672164,-9.719678187303238e-11,0.0,-0.0006497607717768678,0.0009184692275583392,0.6799187960684865,-0.7332865503866802,-0.01,0.01,0.0
193.83,684,map,base_link,0.018178305589672164,-9.719678187303238e-11,0.0,-0.000647954974114471,0.0009215292383700878,0.6799604003062362,-0.73324796962119,-0.01,0.01,0.0
194.08,685,map,base_link,0.018178305589672164,-9.719678187303238e-11,0.0,-0.0006493777639281196,0.000927123663844848,0.6800013870442007,-0.7332099510837227,-0.01,0.01,0.0
194.33,686,map,base_link,0.018178305589672164,-9.719678187303238e-11,0.0,-0.0006501339740676358,0.0009294090761023933,0.6800419390852198,-0.733172336227847,-0.01,0.01,0.0
194.58,687,map,base_link,0.018178305589672164,-9.719678187303238e-11,0.0,-0.0006482717770664001,0.000927490759403551,0.680082931732693,-0.7331343161184445,-0.01,0.01,0.0
194.83,688,map,base_link,0.018178305589672164,-9.719678187303238e-11,0.0,-0.0006478366244394092,0.0009315372379364576,0.6801242637630435,-0.7330959680607037,-0.01,0.01,0.0
195.08,689,map,base_link,0.018178305589672164,-9.719678187303238e-11,0.0,-0.0006461844384656541,0.0009371534622110577,0.680166989697874,-0.7330563213794641,-0.01,0.01,0.0
195.33,690,map,base_link,0.018178305589672164,-9.719678187303238e-11,0.0,-0.0006445533969042369,0.0009409113928672167,0.6802078807788731,-0.7330183750513926,-0.01,0.01,0.0
195.58,691,map,base_link,0.018178305589672164,-9.719678187303238e-11,0.0,-0.0006431205355751311,0.000939772486702484,0.680251572499939,-0.7329778314076151,-0.01,0.01,0.0
195.83,692,map,base_link,0.018178305589672164,-9.719678187303238e-11,0.0,-0.0006424837147584211,0.0009382978455881753,0.6802925536749421,-0.7329397985007058,-0.01,0.01,0.0
196.08,693,map,base_link,0.018178305589672164,-9.719678187303238e-11,0.0,-0.0006417386004244325,0.0009405840749958442,0.6803337897150307,-0.7329015200183109,-0.01,0.01,0.0
196.33,694,map,base_link,0.018178305589672164,-9.719678187303238e-11,0.0,-0.0006395597447541999,0.0009470404395291414,0.6803752800079185,-0.7328629970409786,-0.01,0.01,0.0
196.58,695,map,base_link,0.018178305589672164,-9.719678187303238e-11,0.0,-0.0006381786090244766,0.0009471059259188113,0.6804166021199901,-0.7328246333727564,-0.01,0.01,0.0
196.83,696,map,base_link,0.018178305589672164,-9.719678187303238e-11,0.001,-0.000636041598771587,0.0009485319921870253,0.6804580075715161,-0.7327861868716872,-0.01,0.01,0.0
197.08,697,map,base_link,0.018178305589672164,-9.719678187303238e-11,0.001,-0.0006347154529097219,0.0009489960987957154,0.6804967916367812,-0.7327501710097003,-0.01,0.01,0.0
197.33,698,map,base_link,0.018178305589672164,-9.719678187303238e-11,0.001,-0.0006342324776372509,0.0009515023211030761,0.6805356583162324,-0.7327140712123585,-0.01,0.01,0.0
197.58,699,map,base_link,0.018178305589672164,-9.719678187303238e-11,0.001,-0.0006336067870845666,0.0009504743489112569,0.6805766241532918,-0.7326760223980723,-0.01,0.01,0.0
197.83,700,map,base_link,0.018178305589672164,-9.719678187303238e-11,0.002,-0.0006315049486466867,0.000952008070440541,0.6806160996294277,-0.7326393518009789,-0.01,0.01,0.0
198.08,701,map,base_link,0.018178305589672164,-9.719678187303238e-11,0.002,-0.0006314000129104443,0.0009539805045892381,0.680657493808702,-0.7326008922853409,-0.02,0.01,0.0
198.33,702,map,base_link,0.018178305589672164,-9.719678187303238e-11,0.002,-0.000632246485617825,0.0009577223215304309,0.6806981847140979,-0.73256307875791,-0.02,0.01,0.0
198.58,703,map,base_link,0.018178305589672164,-9.719678187303238e-11,0.002,-0.0006322812366624593,0.0009613754101502229,0.6807386989909997,-0.7325254259572154,-0.01,0.01,0.0
198.831,704,map,base_link,0.018178305589672164,-9.719678187303238e-11,0.003,-0.0006285203173469338,0.0009639269385219027,0.68077668051204,-0.732490127631817,-0.02,0.01,0.0
199.081,705,map,base_link,0.018178305589672164,-9.719678187303238e-11,0.003,-0.0006250510642746537,0.0009653750191305098,0.6808143997834446,-0.7324550705741256,-0.02,0.01,0.0
199.331,706,map,base_link,0.018178305589672164,-9.719678187303238e-11,0.003,-0.0006245148501624729,0.0009655239472869036,0.6808527301808144,-0.732419440996783,-0.02,0.01,0.0
199.581,707,map,base_link,0.018178305589672164,-9.719678187303238e-11,0.003,-0.0006193783478806187,0.0009635839554840564,0.6808896648072695,-0.7323851119698345,-0.02,0.01,0.0
199.831,708,map,base_link,0.018178305589672164,-9.719678187303238e-11,0.004,-0.0006162421269664952,0.0009637033277531892,0.6809281662443631,-0.7323493182468502,-0.02,0.01,0.0
200.081,709,map,base_link,0.018178305589672164,-9.719678187303238e-11,0.004,-0.0006139382278292297,0.0009670643703969717,0.6809661374674298,-0.7323140088029486,-0.02,0.01,0.0
200.331,710,map,base_link,0.018178305589672164,-9.719678187303238e-11,0.004,-0.0006133630149970726,0.0009702036108570415,0.6810055911242944,-0.7322773158771312,-0.02,0.01,0.0
200.581,711,map,base_link,0.018178305589672164,-9.719678187303238e-11,0.004,-0.00061536178030955,0.0009695123681597688,0.6810433896008297,-0.7322421613487301,-0.02,0.01,0.0
200.831,712,map,base_link,0.018178305589672164,-9.719678187303238e-11,0.005,-0.0006143665239752629,0.0009704835810501014,0.6810808348521085,-0.7322073320532564,-0.02,0.01,0.0
201.081,713,map,base_link,0.018178305589672164,-9.719678187303238e-11,0.005,-0.0006131257632438167,0.0009726080459241878,0.6811207205950122,-0.7321702275335418,-0.02,0.01,0.0
201.331,714,map,base_link,0.018178305589672164,-9.719678187303238e-11,0.005,-0.0006125174829924578,0.000975029020584337,0.6811560654534985,-0.7321373427415455,-0.02,0.01,0.0
