Time,header.seq,header.frame_id,child_frame_id,pose.x,pose.y,pose.z,orientation.x,orientation.y,orientation.z,orientation.w,linear.x,linear.y,linear.z,angular.x,angular.y,angular.z
114.815,368,map,base_link,2.773026253066746e-11,-2.466558624014681e-10,0.747,-0.04194501886035685,0.00043927039511963066,0.045754830964255366,-0.9980715995747783,0.0,-0.08,-1.1
115.065,369,map,base_link,3.5059621872335356e-11,-0.055478894828065006,1.068,-0.10802112838289941,-0.012070995309698707,0.13733500040966395,-0.9845429521141249,-0.01,-0.48,-1.32
115.315,370,map,base_link,4.4833192713866765e-10,-0.27739449243936154,1.441,-0.09407914953330307,-0.02093663034992404,0.2450850883633932,-0.9646989533500017,-0.02,-1.1,-1.55
115.565,371,map,base_link,-8.483341806808653e-11,-0.6546510461481159,1.879,-0.04429672578025562,-0.011848571455498507,0.36209166197871856,-0.9310139847312187,-0.03,-1.52,-1.81
115.813,372,map,base_link,-6.054712287095754e-12,-1.0984823518746625,2.377,-0.012184658519667654,-0.0007418060072200606,0.4792358939005795,-0.877601243058554,-0.04,-1.68,-2.07
116.063,373,map,base_link,6.224631921014634e-11,-1.5423137435136127,2.943,-0.0006095121053260436,0.0046468781033514265,0.5930860187349909,-0.8051254619001712,-0.05,-1.7,-2.32
116.313,374,map,base_link,-0.009089155841664698,-1.9528578768457794,3.558,0.005923509244849345,0.01072000294542838,0.6681558777137347,-0.7439205042554375,-0.05,-1.66,-2.45
116.565,375,map,base_link,-0.01817831235559031,-2.34121052877488,4.187,-0.014467385348284867,-0.021012977002456558,-0.7109093312095296,0.7028207967596704,-0.06,-1.55,-2.44
116.815,376,map,base_link,-0.027267471237741425,-2.685180102553942,4.786,-0.017061746300407726,-0.02485092415071149,-0.7322511853515707,0.6803672022762821,-0.06,-1.39,-2.31
117.065,377,map,base_link,-0.036356631483550395,-2.9736707851818815,5.333,-0.01574648648209699,-0.0232917999923748,-0.7427385802912918,0.6689909876548868,-0.07,-1.23,-2.11
117.316,378,map,base_link,-0.03635663322909077,-3.2177783359223326,5.825,-0.012853294426107867,-0.019386718111039435,-0.7473011458914602,0.6640782674749938,-0.07,-1.08,-1.89
117.566,379,map,base_link,-0.045445793192507855,-3.439694316590053,6.257,-0.009624717420106182,-0.01539961459079293,-0.7485686118538418,0.6628086073914929,-0.06,-0.95,-1.68
117.816,380,map,base_link,-0.05453495314645229,-3.628322938345093,6.64,-0.006918041672860987,-0.012273320346699717,-0.7477513310634327,0.6638293856104475,-0.06,-0.85,-1.47
118.066,381,map,base_link,-0.05453495517464324,-3.794759967844674,6.973,-0.005433622833655533,-0.010392408324159429,-0.7457334821893976,0.6661411615669766,-0.06,-0.77,-1.27
118.316,382,map,base_link,-0.06362411535324042,-3.9611969827426146,7.257,-0.005304000880629799,-0.00982615523204644,-0.7431208222815432,0.6690640909058092,-0.05,-0.7,-1.06
118.566,383,map,base_link,-0.06362411649043787,-4.116538190287818,7.489,-0.006077500668186399,-0.010136095671093168,-0.74034455035511,0.6721237016425358,-0.05,-0.64,-0.85
118.814,384,map,base_link,-0.07271327853237253,-4.260783585619574,7.666,-0.007258062504091254,-0.010680325496731723,-0.7376564042019574,0.6750527983171457,-0.05,-0.57,-0.62
119.064,385,map,base_link,-0.07271327899105051,-4.393933162487639,7.79,-0.00830094332715574,-0.01126362291078025,-0.7353074372909192,0.6775892544923242,-0.05,-0.51,-0.41
119.314,386,map,base_link,-0.08180243836484524,-4.515986911848136,7.868,-0.008912622989035076,-0.011301212543468102,-0.7332994627510131,0.6797534447691884,-0.04,-0.44,-0.25
119.566,387,map,base_link,-0.09089159754227549,-4.615849066907439,7.915,-0.008929138514068395,-0.011085895398920631,-0.7316328403548368,0.6815502625066729,-0.04,-0.37,-0.14
119.816,388,map,base_link,-0.09089159692325,-4.704615417404859,7.943,-0.008624803430485458,-0.01045680121193334,-0.7301935039666148,0.6831059323700511,-0.03,-0.3,-0.07
120.066,389,map,base_link,-0.09998075605671297,-4.782285971079961,7.961,-0.008001324138162439,-0.009613913215328033,-0.7289488257238145,0.6844539144168849,-0.03,-0.23,-0.03
120.317,390,map,base_link,-0.09998075575166121,-4.837764933593862,7.974,-0.0070282581926796005,-0.008702846588377647,-0.7277617034859489,0.6857388475121312,-0.02,-0.18,-0.01
120.567,391,map,base_link,-0.10906991384718245,-4.882148106782864,7.984,-0.005999677159267156,-0.007667537191539732,-0.7267825595176979,0.6867986050716068,-0.02,-0.13,0.0
120.817,392,map,base_link,-0.10906991333031257,-4.926531279909397,7.992,-0.005096183418727496,-0.007040045438580083,-0.7258759639346143,0.687770711543302,-0.02,-0.09,0.0
121.067,393,map,base_link,-0.1090699133541091,-4.948722861100751,7.997,-0.004142780567712546,-0.006294822639031228,-0.725018905014969,0.6886877376198928,-0.01,-0.05,0.01
121.317,394,map,base_link,-0.10906991313575976,-4.970914451537338,8.001,-0.0033235127322552853,-0.005355422502206062,-0.7241814880889402,0.6895806305445573,-0.01,-0.02,0.01
121.567,395,map,base_link,-0.10906991291476209,-4.993106034448495,8.002,-0.0024434591940532516,-0.004620485629618138,-0.7233916757513875,0.6904181081586092,-0.01,0.0,0.02
121.815,396,map,base_link,-0.10906991288178602,-5.0042018263151595,8.003,-0.0015949494050263974,-0.004039560820739816,-0.7226519893583006,0.6911984088243127,-0.01,0.01,0.02
122.065,397,map,base_link,-0.10906991229392493,-5.015297617118044,8.002,-0.0011495505147912592,-0.0036584181945410444,-0.7219294048177065,0.69195608890267,-0.01,0.02,0.02
122.315,398,map,base_link,-0.10906991210590333,-5.026393408162538,8.001,-0.0006490660174367598,-0.003261273688611534,-0.7212326338516187,0.6926849433001194,-0.01,0.03,0.02
122.567,399,map,base_link,-0.10906991258061738,-5.026393400720183,7.999,-4.398787199658113e-05,-0.0028070580607510737,-0.7205266037668765,0.6934216118309848,-0.01,0.04,0.01
122.817,400,map,base_link,-0.10906991258061738,-5.026393400720183,7.997,0.0004149004279425416,-0.00242049420871592,-0.7198488075197825,0.6941265470919318,-0.01,0.04,0.01
123.067,401,map,base_link,-0.10906991258061738,-5.026393400720183,7.995,0.0009139388680065094,-0.002050344501854786,-0.7192176736300289,0.6947811876708944,-0.01,0.05,0.01
123.318,402,map,base_link,-0.10906991207027916,-5.037489190984788,7.994,0.0012912073394991306,-0.0017876834941895536,-0.7186474816229075,0.6953710765687511,-0.01,0.05,0.01
123.568,403,map,base_link,-0.10906991207027916,-5.037489190984788,7.992,0.0015228819385862023,-0.0016694672150899508,-0.7180893213244844,0.695947282708655,-0.01,0.04,0.01
123.818,404,map,base_link,-0.10906991258061738,-5.026393400720183,7.99,0.0017941092677676094,-0.0016674291463167792,-0.7175725124271284,0.6964794973730354,-0.02,0.04,0.01
124.068,405,map,base_link,-0.09998075396557837,-5.026393392372791,7.989,0.0018739972198622645,-0.001713781763107133,-0.7171225775120244,0.6969424365821031,-0.02,0.04,0.0
124.318,406,map,base_link,-0.09998075396557837,-5.026393392372791,7.987,0.025996516794082946,-0.029119489318327675,0.69072830310212,-0.7220600028737783,0.05,0.03,0.0
124.568,407,map,base_link,-0.027267477171632803,-5.02639339198886,7.984,0.06558934842931262,-0.08915826661560051,0.6154019492785823,-0.7804032814454592,0.43,0.02,0.01
124.816,408,map,base_link,0.18178318833797813,-5.037489176057239,7.979,0.06920000451623082,-0.1207145993202144,0.5226784263008531,-0.8410984529563572,1.11,0.0,0.02
125.066,409,map,base_link,0.5998845231006833,-5.037489194685245,7.975,0.03044841277255506,-0.07386764485038105,0.41743501531655014,-0.9051875348189246,1.73,0.0,0.0
125.316,410,map,base_link,1.1361449286412288,-5.037489245841572,7.974,-2.8047859823498314e-05,-0.008965830705057303,0.29775690795089205,-0.9545996212342689,1.98,0.01,-0.01
125.568,411,map,base_link,1.6814944958825744,-5.037489331652506,7.978,-0.008972611619003165,0.03170194760292288,0.17041652772519483,-0.9848211440850586,1.93,0.0,-0.02
125.818,412,map,base_link,2.1541307876087257,-5.048585231744603,7.982,-0.005377350998212413,0.04577196276975771,0.08012749032552569,-0.995718633357124,1.72,-0.01,-0.02
126.068,413,map,base_link,2.544964640344858,-5.0596811251383755,7.985,-0.0007006620871036844,0.04451421997746089,0.030759766595341468,-0.9985348416812695,1.47,-0.02,-0.01
126.319,414,map,base_link,2.8630852155404356,-5.070777011752975,7.986,0.0014115948617322385,0.03670499587092721,0.0032074392561238806,-0.9993200003059479,1.24,-0.01,0.0
126.569,415,map,base_link,3.1175816753044323,-5.081872887464012,7.984,0.0017440720663671355,0.027523838447160602,-0.011880640107365557,-0.9995490217695182,1.05,-0.01,0.0
126.819,416,map,base_link,3.335721497163127,-5.092968757077341,7.981,0.0015029883676187798,0.02009332329954603,-0.019873399296918948,-0.999599443469799,0.9,0.0,0.0
127.069,417,map,base_link,3.526593833191307,-5.104064613240962,7.978,0.0009856978230815328,0.015497220794702908,-0.023652296989211674,-0.9995996365518427,0.8,0.0,0.0
127.319,418,map,base_link,3.708377020632759,-5.1040646855948815,7.976,0.0004242968057548689,0.013294099853590972,-0.024786964358896768,-0.9996042683378128,0.71,0.0,0.0
127.569,419,map,base_link,3.8810710481072555,-5.104064758419028,7.975,7.891407866367006e-05,0.012785774260331938,-0.024422435934474573,-0.999619958970487,0.64,0.0,0.0
127.817,420,map,base_link,4.044675917124407,-5.104064830483475,7.975,-0.00012043690483414789,0.013456084762106333,-0.023183422632227835,-0.9996406595336558,0.58,0.0,0.0
128.067,421,map,base_link,4.19010246642799,-5.104064897783069,7.975,-0.00027140680766049623,0.014228849007441487,-0.0215011250651565,-0.9996675286389973,0.51,0.0,0.0
128.317,422,map,base_link,4.326439859183676,-5.104064962091933,7.976,-0.0005416964340983994,0.01482028476188964,-0.01966883469946662,-0.9996965552937124,0.44,0.0,0.0
128.567,423,map,base_link,4.444598928859806,-5.104065019349315,7.976,-0.000732202012388806,0.014813719131057805,-0.017769503255601837,-0.9997320952934183,0.38,0.0,0.0
128.817,424,map,base_link,4.544579684240624,-5.104065069451328,7.977,-0.0007741621839714366,0.01448547831546782,-0.015907797172881655,-0.9997682299313133,0.31,0.0,0.0
129.069,425,map,base_link,4.635471277320747,-5.104065115450842,7.977,-0.0007989151002615094,0.013670826334291866,-0.014092970512773972,-0.9998069105702991,0.24,0.0,0.0
129.319,426,map,base_link,4.699095391083506,-5.104065149004307,7.977,-0.0008512003146428944,0.012471597698581494,-0.012310290183621508,-0.9998460838871472,0.18,0.0,0.0
129.569,427,map,base_link,4.7627195081225056,-5.104065182682175,7.978,-0.0009538896798809308,0.011201499982389632,-0.010694014321798895,-0.9998796200294855,0.13,0.0,0.0
129.819,428,map,base_link,4.808165305823324,-5.104065206206954,7.978,-0.0010620149355127458,0.009827415431133645,-0.009137480282830013,-0.9999093961376209,0.08,0.0,0.0
130.069,429,map,base_link,4.844521942900327,-5.104065226340323,7.978,-0.0010939931830207324,0.008509930277089177,-0.007689870555883881,-0.9999336228752529,0.05,0.0,0.0
130.32,430,map,base_link,4.871789419508561,-5.104065239981631,7.978,-0.0011793617149624454,0.007133461016282805,-0.006464470767447549,-0.9999529656226692,0.01,0.0,0.0
130.57,431,map,base_link,4.889967739646421,-5.104065250790743,7.978,-0.0011406575024262011,0.0058762014306887895,-0.005096098505768365,-0.9999690989911776,0.0,0.0,0.0
130.82,432,map,base_link,4.899056898915672,-5.104065255349402,7.978,-0.0011613138251532465,0.0048732817771582875,-0.003895767593098953,-0.9999798625321312,-0.02,0.0,0.0
131.07,433,map,base_link,4.908146057385244,-5.104065260391277,7.979,-0.001250437935908455,0.003950125721555243,-0.00279375209736693,-0.9999875138525336,-0.03,0.0,0.0
131.32,434,map,base_link,4.926324375046543,-5.104065270213024,7.979,-0.0012588516293314414,0.0030081685117881183,-0.0017739993719503853,-0.9999931095467649,-0.05,-0.01,0.0
131.57,435,map,base_link,4.926324375046543,-5.104065270213024,7.979,-0.0011691391424219985,0.0021759484506261636,-0.0008018748097720073,-0.9999966276737112,-0.05,-0.01,0.0
131.82,436,map,base_link,4.926324375046543,-5.104065270213024,7.979,-0.0011565999425326844,0.0015159781461928164,7.170119050287092e-05,-0.9999981794712289,-0.05,-0.01,0.0
132.07,437,map,base_link,4.926324375046543,-5.104065270213024,7.979,-0.001356899179354131,0.0010965765515629886,0.0009553066799842803,-0.999998021864859,-0.06,-0.01,0.0
132.32,438,map,base_link,4.92632438124373,-5.0929694797548,7.979,-0.0013954603368983732,0.0007109726031009955,0.0017174311610603232,-0.9999972988156581,-0.05,-0.01,0.0
132.57,439,map,base_link,4.926324388825808,-5.092969487521421,7.98,-0.0013602646484623545,0.00043480626267964516,0.0023877281851833465,-0.9999961296813673,-0.05,-0.01,0.0
132.82,440,map,base_link,4.926324388825808,-5.092969487521421,7.98,-0.0013506764249261005,0.00041542908452327264,0.0030798259409782203,-0.9999942588655415,-0.05,-0.02,0.0
133.07,441,map,base_link,4.926324388825808,-5.092969487521421,7.981,-0.001264799806304106,0.00033889868786084583,0.003722254663059532,-0.9999922150943739,-0.05,-0.02,0.0
133.318,442,map,base_link,4.926324394945473,-5.08187369614517,7.981,-0.0010476482790254219,8.470284141698673e-05,0.0043270403421213355,-0.9999900859410507,-0.05,-0.02,0.0
133.568,443,map,base_link,4.926324394945473,-5.08187369614517,7.981,-0.0009069289220458317,-0.00010598841470243719,0.004892807253631115,-0.9999876132650669,-0.04,-0.02,0.0
133.818,444,map,base_link,4.9172352356762214,-5.081873691586511,7.981,-0.0008820022829646804,-0.00012940835009292288,0.005394749367097107,-0.9999850508906212,-0.04,-0.02,0.0
134.068,445,map,base_link,4.9172352356762214,-5.081873691586511,7.981,-0.0010023870782016665,-0.0001723400734990962,0.0059164006181676165,-0.9999819806990373,-0.04,-0.02,0.0
134.318,446,map,base_link,4.9172352356762214,-5.081873691586511,7.981,-0.0009456577547031659,-0.0002598636365584622,0.006355691444021483,-0.9999793214804843,-0.04,-0.02,0.0
134.568,447,map,base_link,4.9172352356762214,-5.081873691586511,7.981,-0.0009784167895542967,-0.0005375469658826056,0.006770153474317697,-0.9999764591058029,-0.03,-0.02,0.0
134.818,448,map,base_link,4.908146077284172,-5.081873686323423,7.981,-0.0010382211422594004,-0.0006999154823022081,0.007121117337166583,-0.99997386060989,-0.03,-0.02,0.0
135.07,449,map,base_link,4.908146077284172,-5.081873686323423,7.981,-0.0009486828514675767,-0.0009664664652061819,0.007508244759998672,-0.9999708956784906,-0.03,-0.02,0.0
135.32,450,map,base_link,4.899056918814601,-5.0818736812815475,7.981,-0.0009361468947853672,-0.001011841040885437,0.007867977010960647,-0.999968096863322,-0.02,-0.02,0.0
135.57,451,map,base_link,4.899056918814601,-5.0818736812815475,7.981,-0.000868997489745109,-0.0010483703196573523,0.008167383170886,-0.9999657192200017,-0.02,-0.02,0.0
135.82,452,map,base_link,4.899056918814601,-5.0818736812815475,7.981,0.04092671780783627,-0.0034103326407019918,-0.028051114962509394,-0.9987624884576501,-0.01,0.05,0.0
136.07,453,map,base_link,4.899056948768287,-5.026394725580323,7.98,0.11096576625035795,-0.018223521012514537,-0.1216654239477164,-0.9861805243554547,0.0,0.43,0.0
136.321,454,map,base_link,4.889967902621126,-4.804478889470932,7.977,0.13536107665871694,-0.03824065557138485,-0.22897900870777232,-0.9632152639770974,0.01,1.13,0.01
136.573,455,map,base_link,4.89905728577608,-4.393934620042044,7.974,0.07511870096358324,-0.030897782839035725,-0.3455329833459445,-0.9348847336443284,0.03,1.74,0.0
136.821,456,map,base_link,4.9081467351334,-3.861336649971925,7.975,0.009039481560967308,-0.0046604196138668045,-0.4644704171145482,-0.8855302365744319,0.03,1.99,-0.01
137.071,457,map,base_link,4.917236193745514,-3.3287386850532874,7.98,-0.0257757059880064,0.01726892185371781,-0.5774379699809775,-0.8158448309225707,0.02,1.94,-0.02
137.321,458,map,base_link,4.917236454801838,-2.851619664793405,7.986,-0.03480381420750213,0.027984860055606037,-0.6512383734515075,-0.7575579998049736,0.03,1.74,-0.01
137.571,459,map,base_link,4.92632583662858,-2.4632669832981158,7.99,-0.03241306781957461,0.029780277988357324,-0.6890216569251506,-0.7234028506755968,0.03,1.5,0.0
137.821,460,map,base_link,4.935415170899772,-2.1525848350702512,7.991,-0.026306485129768128,0.026244227693219085,-0.7086253473026501,-0.7046057951174558,0.03,1.27,0.0
138.071,461,map,base_link,4.935415317102344,-1.8862858471872346,7.99,-0.020001543315618167,0.020776222572893837,-0.7187622967216408,-0.6946575038477791,0.02,1.08,0.0
138.321,462,map,base_link,4.94450459345513,-1.664370026577802,7.987,-0.014716659777505945,0.015654944140779684,-0.72368584324322,-0.6897950006620021,0.02,0.93,0.01
138.571,463,map,base_link,4.9535938597287075,-1.4757415820753645,7.985,-0.010944814727026289,0.011925274325926865,-0.7255277595725279,-0.68800252103645,0.02,0.81,0.01
138.821,464,map,base_link,4.9626831203599835,-1.2982089300053428,7.983,-0.008669764183957727,0.009722458453101754,-0.725859114207707,-0.6877200413774671,0.02,0.73,0.0
139.072,465,map,base_link,4.971772367940027,-1.1428678580281049,7.982,-0.0077508980646244984,0.008674771441932688,-0.7251968265373006,-0.6884433416773311,0.01,0.66,0.0
139.319,466,map,base_link,4.980861619518467,-0.9875267878120004,7.982,-0.007729171766766421,0.008359900251366384,-0.7240438417793165,-0.6896599793760941,0.01,0.59,0.0
139.569,467,map,base_link,4.980861699233035,-0.8432815031839747,7.982,-0.007818370497859786,0.008748910624540003,-0.7226665701932642,-0.6910972131116909,0.01,0.53,0.0
139.819,468,map,base_link,4.989950931228512,-0.7212278057127897,7.983,-0.008163481993083439,0.009137257974112634,-0.7211379319992856,-0.6926831534765783,0.0,0.47,0.0
140.069,469,map,base_link,4.989950998691526,-0.5991741029728122,7.983,-0.008311590457683886,0.0094592596471918,-0.7196113591971846,-0.6942628692256063,0.0,0.41,0.0
140.319,470,map,base_link,4.999040216991137,-0.49931198829342716,7.983,-0.008323156877951932,0.009422894222414421,-0.7181791988383374,-0.6957446172842319,0.0,0.34,0.0
140.569,471,map,base_link,4.999040260004115,-0.42164145079713844,7.984,-0.008131454543351424,0.008890762442280062,-0.7167733258528738,-0.6972021465371534,0.0,0.28,0.0
140.821,472,map,base_link,4.9990403033394095,-0.34397091290070936,7.984,-0.007913429290881154,0.00825954065050954,-0.7154370365433652,-0.6985835700667089,0.0,0.23,0.0
141.071,473,map,base_link,4.999040340142974,-0.27739616613743,7.984,-0.007527505527954443,0.00750678128021724,-0.714233532183995,-0.6998267259824477,0.0,0.17,0.0
141.321,474,map,base_link,4.999040364760282,-0.23301300169551586,7.984,-0.006802572637889455,0.006580609243447478,-0.7130717184207158,-0.7010272070155471,0.0,0.13,0.0
141.571,475,map,base_link,4.999040383323223,-0.19972562906317215,7.984,-0.005891683340642784,0.00561998309518866,-0.711945435438048,-0.7021875823569879,0.0,0.08,0.0
141.821,476,map,base_link,4.999040401963687,-0.16643825507037535,7.984,-0.00515301125624013,0.004682886593043194,-0.7109616379052394,-0.703196321431824,0.0,0.05,0.0
142.071,477,map,base_link,4.999040414394739,-0.14424667294982685,7.984,-0.004464797005534975,0.003910587940502142,-0.7100176232631873,-0.7041588936776653,0.0,0.02,0.0
142.322,478,map,base_link,4.9990404265034725,-0.12205509084967403,7.984,-0.003741493102625537,0.003085731355459043,-0.7090676741380941,-0.7051237572112844,0.0,0.0,0.0
142.572,479,map,base_link,4.999040432635363,-0.11095929881889166,7.984,-0.003031235946888579,0.002290241430306645,-0.7082507321978893,-0.7059507537668465,0.0,-0.01,0.0
142.822,480,map,base_link,4.999040432635363,-0.11095929881889166,7.984,-0.0024910736740080108,0.0018401500606163635,-0.707466318046722,-0.7067402756523214,0.0,-0.02,0.0
143.072,481,map,base_link,4.999040439089569,-0.09986350790695386,7.984,-0.002012319533130111,0.0013769927774577688,-0.7067345990553492,-0.7074745655916277,0.0,-0.03,0.0
143.322,482,map,base_link,4.999040445066413,-0.08876771745783651,7.984,-0.001507755039731919,0.0007989088536656761,-0.7060847024247655,-0.708125328893914,0.0,-0.04,0.0
143.572,483,map,base_link,4.999040445066413,-0.08876771745783651,7.984,-0.0011356511317786974,0.00038894645275016715,-0.7053903994093845,-0.7088179903460641,0.0,-0.04,0.0
143.822,484,map,base_link,4.999040445066413,-0.08876771745783651,7.984,-0.0010147915180541288,1.1272355151071964e-05,-0.7048017365592347,-0.7094036102348197,0.0,-0.04,0.0
144.072,485,map,base_link,4.999040445066413,-0.08876771745783651,7.984,-0.0008756198634394512,-0.0002488743769728027,-0.704312622271799,-0.7098893586045795,0.0,-0.04,0.0
144.322,486,map,base_link,4.999040445066413,-0.08876771745783651,7.984,-0.0007882294694980347,-0.0005523574324069388,-0.7037907402194166,-0.7104066916752515,0.0,-0.04,0.0
144.572,487,map,base_link,4.989951281566198,-0.08876771256117655,7.984,-0.0006711695657368118,-0.000720250631077055,-0.7033129600760997,-0.7108796740373414,0.0,-0.04,0.0
144.822,488,map,base_link,4.989951281566198,-0.08876771256117655,7.984,-0.000668689954509513,-0.0008508055483334441,-0.7028540167017918,-0.7113332975404855,0.0,-0.04,0.0
145.072,489,map,base_link,4.989951281566198,-0.08876771256117655,7.984,-0.0007236959022413003,-0.0009744863544457327,-0.7024520139816132,-0.7117300715114976,0.0,-0.03,0.0
145.32,490,map,base_link,4.980862110967142,-0.09986349747800505,7.984,-0.0006357551572042787,-0.0012075721366119484,-0.7021049725944034,-0.7120721487624178,0.0,-0.03,0.0
145.57,491,map,base_link,4.980862110967142,-0.09986349747800505,7.984,-0.0005273411900027062,-0.0014427770621855175,-0.7017814342754122,-0.7123906644615463,0.01,-0.03,0.0
145.82,492,map,base_link,4.980862110967142,-0.09986349747800505,7.984,-0.0004136213519782827,-0.0014724356322249627,-0.701453500430372,-0.7127135803284965,0.01,-0.03,0.0
146.07,493,map,base_link,4.980862110967142,-0.09986349747800505,7.984,-0.0002929124784804465,-0.0014276845672360442,-0.7011459489753434,-0.7130162930498305,0.01,-0.02,0.0
146.32,494,map,base_link,4.971772944190687,-0.0998634928366875,7.983,0.031361342110540556,0.026736310852255696,-0.7259263257283877,-0.6865366745611772,-0.05,-0.02,0.0
146.57,495,map,base_link,4.908148788269626,-0.11095924891129494,7.982,0.09189941696250284,0.06581900953604215,-0.7831439362310468,-0.6114801143865501,-0.44,-0.01,0.0
146.822,496,map,base_link,4.690008841312679,-0.0998633414866461,7.979,0.12311172312978186,0.06861906498237952,-0.8429647595925662,-0.5191775627220486,-1.14,0.01,0.01
147.072,497,map,base_link,4.280996443468091,-0.09986313760474985,7.976,0.07503140134990562,0.030533199608707366,-0.905324389709101,-0.41692416808212024,-1.75,0.03,0.0
147.322,498,map,base_link,3.7447357413162754,-0.09986289846901109,7.978,0.009833273600192904,0.002233923776665971,-0.9544924892380724,-0.2980644297848571,-2.0,0.03,0.0
147.572,499,map,base_link,3.2084750459018476,-0.09986269137523962,7.983,-0.03058136465031302,-0.007077291938252218,-0.9851073168951092,-0.16905107593465485,-1.95,0.02,-0.01
147.822,500,map,base_link,2.7267493308670128,-0.09986253268071987,7.988,-0.04504948573733111,-0.0062985044357704596,-0.9960763007430824,-0.07591360730890878,-1.74,0.03,-0.01
148.072,501,map,base_link,2.3359152640916863,-0.09986242255874433,7.992,-0.04452635532115463,-0.003663791664546488,-0.9986907340637786,-0.024915818421318573,-1.5,0.03,0.0
148.323,502,map,base_link,2.0087053427874664,-0.09986234368373603,7.994,-0.03796157508955798,-0.00220162556987735,-0.9992742440162143,0.0022487568551006177,-1.27,0.04,0.0
148.573,503,map,base_link,1.7451195735450287,-0.09986228848371592,7.992,-0.02960309515595868,-0.0017365986591840392,-0.9994270565422863,0.016315625440229183,-1.07,0.04,0.01
148.823,504,map,base_link,1.5269796269649043,-0.09986224861501158,7.99,-0.022181072697675427,-0.0018930557297450689,-0.9994845476389169,0.023131264232933768,-0.92,0.04,0.01
149.073,505,map,base_link,1.3361071744658808,-0.08876642805063018,7.987,-0.016613614911813422,-0.0020002263300272238,-0.9995303238426395,0.025673305459539997,-0.81,0.05,0.01
149.323,506,map,base_link,1.163413049515823,-0.08876640390060109,7.985,-0.013270957726158475,-0.001926995606254828,-0.9995714318379314,0.026021549193535,-0.72,0.05,0.01
149.573,507,map,base_link,0.9998080885433431,-0.08876638456415797,7.984,-0.011834940383989006,-0.0018692726073851642,-0.9996148430721254,0.025032089723327322,-0.65,0.05,0.0
149.823,508,map,base_link,0.8452922960809715,-0.0776705774579658,7.983,-0.011385915460383722,-0.0019306616225992037,-0.9996620768618317,0.023288743184581462,-0.58,0.05,0.0
150.073,509,map,base_link,0.7089548267842041,-0.07767056580081233,7.983,-0.011509857873715975,-0.0018215787772905942,-0.9997075137958276,0.021191788094691966,-0.52,0.05,0.0
150.323,510,map,base_link,0.5817065266507031,-0.07767055647087284,7.983,-0.011901410569348321,-0.0015600003345612183,-0.999747410176338,0.01900101763381895,-0.46,0.06,0.0
150.573,511,map,base_link,0.47263655244018343,-0.06657475889429687,7.983,-0.012138494980575116,-0.0013805356177215952,-0.9997832454344164,0.01685862419179196,-0.4,0.05,0.0
150.823,512,map,base_link,0.37265574397016943,-0.06657475410071179,7.983,-0.012316819491871724,-0.0011884758366450961,-0.9998150719805583,0.014720914485902348,-0.34,0.05,0.0
151.074,513,map,base_link,0.2817640989881447,-0.06657475068110674,7.983,-0.012203312248589945,-0.0011674864499080979,-0.9998439217479724,0.012721960901790508,-0.28,0.05,0.0
151.321,514,map,base_link,0.2090507835154316,-0.05547895711517814,7.983,-0.011613857575700978,-0.001244913444554583,-0.9998726644932703,0.010873053934161103,-0.23,0.05,0.0
151.571,515,map,base_link,0.14542663338338446,-0.05547895657384805,7.984,-0.010628662699867456,-0.0010271302545100656,-0.9999015171337502,0.009106731920796307,-0.17,0.05,0.0
151.821,516,map,base_link,0.09998080846068591,-0.05547895552741444,7.984,-0.009660067103636837,-0.0010055520802917041,-0.9999251229852482,0.007444487323063519,-0.13,0.04,0.0
152.071,517,map,base_link,0.05453498656090927,-0.04438316426681155,7.984,-0.008364114484683646,-0.0009955796732718687,-0.9999473527042186,0.005860224383607281,-0.09,0.04,0.0
152.321,518,map,base_link,0.0272674943547635,-0.04438316393717168,7.984,-0.007218587375444974,-0.0010194435996933745,-0.9999637943943185,0.004388921458365335,-0.05,0.04,0.0
152.571,519,map,base_link,0.009089164037248132,-0.044383164428955624,7.984,-0.006145941679327442,-0.0010594004783607011,-0.9999758393207036,0.0030701541256309413,-0.02,0.03,0.0
152.824,520,map,base_link,-0.009089164448340181,-0.0443831636704175,7.984,-0.005029942866874662,-0.0011155521265005437,-0.9999851509351099,0.0017757047881625796,0.0,0.03,0.0
153.073,521,map,base_link,-0.027267492689134087,-0.04438316425193589,7.984,-0.004184027109313759,-0.0011593194932234586,-0.999990384412019,0.0006172349335264447,0.01,0.03,0.0
153.323,522,map,base_link,-0.036356658408889686,-0.04438316399014086,7.984,-0.003276905793034334,-0.001213009002863281,-0.999993810881741,-0.0004107259372848062,0.02,0.03,0.0
153.573,523,map,base_link,-0.036356658408889686,-0.04438316399014086,7.984,-0.002520560406578291,-0.0012564853218753808,-0.9999949102978904,-0.0014991324779833894,0.03,0.03,0.0
153.823,524,map,base_link,-0.036356658408889686,-0.04438316399014086,7.984,-0.0020109694313806205,-0.001368099801625665,-0.9999941664378666,-0.0023982066456393336,0.04,0.03,0.0
154.074,525,map,base_link,-0.04544582252928642,-0.04438316428090028,7.984,-0.0015304185562834839,-0.0013830848271486186,-0.9999922291343142,-0.003359548539427548,0.04,0.03,0.0
154.324,526,map,base_link,-0.054534986172321,-0.044383164108839246,7.984,-0.0010180712624257644,-0.0014354632963084328,-0.9999895952068873,-0.004208616636758533,0.04,0.03,0.0
154.574,527,map,base_link,-0.054534986172321,-0.044383164108839246,7.984,-0.0005769749368316195,-0.0013798158643636412,-0.9999866368265846,-0.004948674202156944,0.04,0.03,0.0
154.824,528,map,base_link,-0.04544582252928642,-0.04438316428090028,7.984,-0.00033453795034008905,-0.0014191524186895387,-0.9999831626874032,-0.005616799130360339,0.04,0.02,0.0
155.074,529,map,base_link,-0.04544582252928642,-0.04438316428090028,7.984,-0.0001586656904773199,-0.0014334272676951192,-0.9999792577379737,-0.006277276899903816,0.04,0.02,0.0
155.324,530,map,base_link,-0.04544582252928642,-0.04438316428090028,7.984,-3.563850771419367e-05,-0.0013686464022231474,-0.9999757206597181,-0.006832541840329942,0.04,0.02,0.0
155.574,531,map,base_link,-0.04544582252928642,-0.04438316428090028,7.984,9.177907228231531e-05,-0.00132046343795347,-0.9999715866648908,-0.007421173479430054,0.03,0.02,0.0
155.824,532,map,base_link,-0.04544582252928642,-0.04438316428090028,7.984,0.00020717558259012982,-0.0014255374757449048,-0.999967522793135,-0.007929582595852358,0.03,0.02,0.0
156.074,533,map,base_link,-0.036356658408889686,-0.04438316399014086,7.983,0.0004912619972724619,-0.001501765586674472,-0.9999636116418495,-0.008383242449156836,0.03,0.02,0.0
156.324,534,map,base_link,-0.036356658408889686,-0.04438316399014086,7.983,0.0007467756460058901,-0.0020067584751395353,-0.9995861520563487,0.02868692844727261,0.03,0.03,0.0
156.574,535,map,base_link,-0.027267492689134087,-0.04438316425193589,7.983,0.0011097560357447719,-0.0024456464109296337,-0.9923258274096894,0.12362135539966118,0.02,0.03,0.0
156.824,536,map,base_link,-0.027267492689134087,-0.04438316425193589,7.984,0.0014289018724483557,-0.0018349794569191675,-0.9724690680747348,0.23302039122722396,0.02,0.03,0.0
157.072,537,map,base_link,-0.027267492387567316,-0.03328737284958461,7.984,0.0013196182743909434,-0.0010495626224295682,-0.9378073882040179,0.34715192589969895,0.01,0.03,0.0
157.322,538,map,base_link,-0.0181783279448533,-0.03328737329792286,7.984,0.0011119221166497222,-0.00048410145534555035,-0.886547148672668,0.46263666354424354,0.0,0.03,0.0
157.572,539,map,base_link,-0.0181783279448533,-0.03328737329792286,7.984,0.0007526008100856391,-0.00027597512746947006,-0.8184825018749595,0.5745308969535549,0.0,0.03,0.0
157.822,540,map,base_link,-0.0181783279448533,-0.03328737329792286,7.983,0.0005012973142817855,-0.00025138100807814705,-0.73418672907981,0.6789473708261056,0.0,0.02,0.0
158.073,541,map,base_link,-0.018178327769057923,-0.04438316423745414,7.983,-0.00019020364687695173,0.0005153828484579084,0.63492335577814,-0.7725749351943264,0.0,0.02,0.0
158.322,542,map,base_link,-0.009089164448340181,-0.0443831636704175,7.983,4.5355334831101554e-05,0.0005840148780200293,0.5226381651883922,-0.8525544001165126,0.0,0.02,0.0
158.572,543,map,base_link,-0.009089164448340181,-0.0443831636704175,7.983,0.0003734272122927127,0.0006875506092334481,0.39959423438900094,-0.9166917888087277,0.0,0.02,0.0
158.824,544,map,base_link,-0.009089164448340181,-0.0443831636704175,7.983,0.00067963213120223,0.0007591348101222378,0.2675324497091306,-0.9635483123160653,0.0,0.02,0.0
159.074,545,map,base_link,-0.009089164448340181,-0.0443831636704175,7.983,0.0008736934909213381,0.000831103207825254,0.13237900890426552,-0.9911984382194448,0.0,0.02,0.0
159.324,546,map,base_link,3.942135506918021e-10,-0.04438316425689459,7.983,0.0017410355393196355,0.0007452923039806892,0.03924247136269865,-0.9992279228364169,0.0,0.03,0.0
159.574,547,map,base_link,3.942135506918021e-10,-0.04438316425689459,7.983,0.0020233437261551975,0.0008033450002176961,-0.00770641719128895,-0.9999679354114562,0.0,0.03,0.0
159.824,548,map,base_link,0.009089164037248132,-0.044383164428955624,7.983,0.0015667734872206111,0.0009569388709430279,-0.03163360932504239,-0.9994978460456568,-0.01,0.04,0.0
160.075,549,map,base_link,0.009089164037248132,-0.044383164428955624,7.983,0.0009160345437238464,0.001311200992257707,-0.043320683656774606,-0.9990599381419425,-0.01,0.04,0.0
160.325,550,map,base_link,0.0272674943547635,-0.04438316393717168,7.983,0.0003667353790199302,0.0014359795687026848,-0.048074805131114284,-0.9988426385469562,-0.01,0.04,0.0
160.575,551,map,base_link,0.0272674943547635,-0.04438316393717168,7.983,2.19839421621113e-05,0.001548162894635682,-0.049110921300119736,-0.9987921305844432,-0.02,0.04,0.0
160.825,552,map,base_link,0.0272674943547635,-0.04438316393717168,7.983,-5.678809631539053e-06,0.0015514931939582264,-0.04783401058756842,-0.9988540935831062,-0.02,0.03,0.0
161.075,553,map,base_link,0.0272674943547635,-0.04438316393717168,7.983,5.544689705914618e-05,0.0014553996356685148,-0.04530499049894687,-0.9989721400386662,-0.03,0.03,0.0
161.325,554,map,base_link,0.03635665879747707,-0.04438316400576303,7.983,0.00015889681606543537,0.001390585523280656,-0.04210418597741877,-0.9991122452191662,-0.03,0.02,0.0
161.575,555,map,base_link,0.03635665879747707,-0.04438316400576303,7.983,0.00024117565240843497,0.0014875025659363938,-0.03871346401407405,-0.9992492165993686,-0.03,0.02,0.0
161.825,556,map,base_link,0.03635665879747707,-0.04438316400576303,7.983,0.0002418508124709435,0.001508482337209769,-0.035278242062939724,-0.999376361350503,-0.03,0.02,0.0
162.075,557,map,base_link,0.03635665879747707,-0.04438316400576303,7.983,0.0003343597959653407,0.0015426833945548243,-0.031991155099489854,-0.9994869055304683,-0.04,0.02,0.0
162.325,558,map,base_link,0.04544582251803497,-0.04438316395661168,7.983,0.000297685342170586,0.001491349787394757,-0.02880363233049893,-0.9995839324558086,-0.04,0.02,0.0
162.575,559,map,base_link,0.04544582251803497,-0.04438316395661168,7.983,0.0002857049418520888,0.001358863836237438,-0.025855815252157355,-0.9996647181327383,-0.04,0.02,0.0
162.825,560,map,base_link,0.04544582251803497,-0.04438316395661168,7.983,6.957082113316514e-05,0.0012266297629332863,-0.023010328856376883,-0.9997344724001702,-0.04,0.02,0.0
163.073,561,map,base_link,0.04544582226471672,-0.03328737323829278,7.983,-0.0002091227087738701,0.0010722273384419258,-0.02046703275117534,-0.9997899315189116,-0.04,0.02,0.0
163.323,562,map,base_link,0.04544582226471672,-0.03328737323829278,7.983,-0.00044932417613420024,0.0008990539485268286,-0.01811632158669052,-0.9998353808012348,-0.04,0.02,0.0
163.573,563,map,base_link,0.04544582226471672,-0.03328737323829278,7.983,-0.000659477161503636,0.000765963360142879,-0.015758632706317832,-0.9998753141693377,-0.04,0.01,0.0
163.823,564,map,base_link,0.03635665862168169,-0.03328737306623175,7.983,-0.0007070472814855456,0.0007769518265154408,-0.013543054527601461,-0.9999077367957824,-0.04,0.01,0.0
164.073,565,map,base_link,0.03635665884572559,-0.022191581885092848,7.983,-0.0008013271789635137,0.0007982820726313896,-0.011609128938194324,-0.9999319720589903,-0.04,0.01,0.0
164.323,566,map,base_link,0.03635665884572559,-0.022191581885092848,7.983,-0.0010721882447580248,0.0007896436332314497,-0.009885077125832364,-0.9999502548254673,-0.04,0.01,0.0
164.573,567,map,base_link,0.03635665884572559,-0.022191581885092848,7.983,-0.0011525358477540637,0.0005642810304152132,-0.008132461575451722,-0.9999661075840331,-0.04,0.0,0.0
164.825,568,map,base_link,0.036356659069769925,-0.011095791083699957,7.983,-0.0011938936948374197,0.0005659994644494426,-0.0064838071178766055,-0.9999781070142035,-0.04,0.0,0.0
165.075,569,map,base_link,0.036356659069769925,-0.011095791083699957,7.983,-0.0011823030047233166,0.00047957893885816643,-0.004958679328886717,-0.9999868917455665,-0.04,0.0,0.0
165.325,570,map,base_link,0.027267494296215222,6.212372838376723e-10,7.983,-0.0012234289795014276,0.00028802045546988354,-0.003575352110306851,-0.9999928185357316,-0.04,0.0,0.0
165.576,571,map,base_link,0.027267494296215222,6.212372838376723e-10,7.983,-0.001091335338359848,8.667444028830803e-05,-0.0022581344970628026,-0.9999968511466995,-0.03,0.0,0.0
165.825,572,map,base_link,0.027267494296215222,6.212372838376723e-10,7.983,-0.0009390327694431935,0.00019165863310170408,-0.0010047350193088112,-0.9999990359955189,-0.03,0.0,0.0
166.076,573,map,base_link,0.027267494296215222,6.212372838376723e-10,7.982,-0.0008191095608957548,0.0002991375207366012,0.00012327767772685186,-0.9999996121893673,-0.03,0.0,0.0
166.326,574,map,base_link,0.027267494296215222,6.212372838376723e-10,7.982,-0.0007809471210416375,0.00021280154622593212,0.0011590468161628564,-0.9999990007232877,-0.03,-0.01,0.0
166.576,575,map,base_link,0.027267494296215222,6.212372838376723e-10,7.981,-0.0008633459575924555,0.00029261421269353093,0.002142137862749749,-0.9999972901243568,-0.02,-0.01,0.0
166.826,576,map,base_link,0.027267494296215222,6.212372838376723e-10,7.981,-0.0009587977962455059,0.0004466261760046357,0.0030250616748896397,-0.9999948651036703,-0.02,-0.01,0.0
167.076,577,map,base_link,0.01817833065318064,4.1355230351314276e-10,7.981,-0.0010281039188669474,0.0005478847134984355,0.0038733934897585143,-0.999991819790315,-0.02,-0.01,0.0
167.326,578,map,base_link,0.01817833065318064,4.1355230351314276e-10,7.981,-0.0010558379899442197,0.0004979301934689937,0.004644529879429593,-0.9999885327411812,-0.02,-0.01,0.0
167.576,579,map,base_link,0.01817833065318064,4.1355230351314276e-10,7.981,-0.0009986099292547096,0.0004040557700748025,0.005405317483027083,-0.9999848109146716,-0.02,-0.01,0.0
167.826,580,map,base_link,0.01817833065318064,4.1355230351314276e-10,7.981,-0.0009949383655583738,0.0004984115498280032,0.00611581924950938,-0.9999806790325916,-0.02,-0.01,0.0
168.076,581,map,base_link,0.01817833065318064,4.1355230351314276e-10,7.981,-0.0010930382567468293,0.0005500895899199873,0.006729271654886015,-0.9999766095123461,-0.02,-0.01,0.0
168.326,582,map,base_link,0.018178330799702103,0.011095791753224837,7.981,-0.0011758816680534304,0.0005303562497108454,0.007278851236631412,-0.9999726768013346,-0.02,-0.01,0.0
168.576,583,map,base_link,0.018178330799702103,0.011095791753224837,7.981,-0.0011366374761582348,0.0005135970496194909,0.007823244794664341,-0.9999686200647504,-0.02,-0.01,0.0
168.826,584,map,base_link,0.018178330799702103,0.011095791753224837,7.981,-0.0011219955821754994,0.00047344508945797425,0.008320861205530494,-0.999964639497047,-0.02,-0.01,0.0
169.074,585,map,base_link,0.018178330799702103,0.011095791753224837,7.982,-0.0011423481566554,0.00038974789148393184,0.00875312597596456,-0.9999609621994845,-0.02,-0.01,0.0
169.324,586,map,base_link,0.018178330799702103,0.011095791753224837,7.982,-0.0009775040372705783,0.00029576264964548246,0.009167874790265984,-0.999957452635932,-0.02,-0.01,0.0
169.574,587,map,base_link,0.018178330799702103,0.011095791753224837,7.982,-0.0008659029272576789,0.00022168706809808986,0.009603125978696836,-0.9999534894375846,-0.02,-0.01,0.0
169.824,588,map,base_link,0.018178330799702103,0.011095791753224837,7.982,-0.0009197748520707625,0.00014716066366186238,0.010047157168359966,-0.9999490921995955,-0.02,-0.01,0.0
170.074,589,map,base_link,0.018178330799702103,0.011095791753224837,7.983,-0.0009592920738746916,0.00021394576052494003,0.010327393522956307,-0.9999461880166105,-0.02,-0.01,0.0
170.324,590,map,base_link,0.018178330799702103,0.011095791753224837,7.983,-0.000966436625531542,0.00020505767368200544,0.0105752233895271,-0.9999435927100393,-0.02,-0.01,0.0
170.576,591,map,base_link,0.018178330799702103,0.011095791753224837,7.983,-0.0009117044135604142,0.00016248799799580268,0.01087733219056064,-0.9999404112431545,-0.02,-0.01,0.0
170.826,592,map,base_link,0.018178330799702103,0.011095791753224837,7.983,-0.0009182087563255659,0.00013732092912711628,0.01115461851593369,-0.9999373542984611,-0.02,-0.01,0.0
171.076,593,map,base_link,0.018178330799702103,0.011095791753224837,7.983,-0.001123062166786358,0.00024556637322288696,0.01141117150886023,-0.9999342296337901,-0.01,-0.01,0.0
171.326,594,map,base_link,0.009089164125221316,0.01109579108937897,7.983,-0.001234707013650389,0.00026978453841201535,0.011692132832362256,-0.9999308459812227,-0.01,-0.01,0.0
171.577,595,map,base_link,0.009089164125221316,0.01109579108937897,7.983,-0.0011630784800118349,0.00023154058991989662,0.011838634512750634,-0.9999292176800707,-0.01,-0.01,0.0
171.826,596,map,base_link,0.018178330799702103,0.011095791753224837,7.981,-0.0012007191571778825,0.0002667597696742175,0.012098620342986477,-0.9999260525151483,-0.01,-0.02,0.0
172.077,597,map,base_link,0.018178330337213833,0.011095791495686846,7.979,-0.0011950880676373458,0.0002713932258163645,0.012407226053814835,-0.99992227640546,-0.01,-0.02,0.0
172.327,598,map,base_link,0.018178330337213833,0.011095791495686846,7.977,-0.0011295013875945645,0.00033374111492462025,0.012471301471159657,-0.9999215366633017,-0.01,-0.02,0.0
172.577,599,map,base_link,0.018178330337213833,0.011095791495686846,7.975,-0.0009270897735786026,0.0004272561046190412,0.012512640811800424,-0.999921192783055,-0.01,-0.02,0.0
172.827,600,map,base_link,0.018178330337213833,0.011095791495686846,7.974,-0.0008311738342846468,0.0004582050648276974,0.012571241253748089,-0.9999205283878896,-0.01,-0.02,0.0
173.077,601,map,base_link,0.018178330337213833,0.011095791495686846,7.973,-0.0008657625855257879,0.00035116633344251663,0.012733550936469218,-0.9999184885868948,-0.01,-0.02,0.0
173.327,602,map,base_link,0.009089163740256367,0.011095791053053361,7.973,-0.0009624982394211799,0.00020563245419081018,0.012838614914614521,-0.9999170972033167,-0.01,-0.02,0.0
173.577,603,map,base_link,0.018178330337213833,0.011095791495686846,7.973,-0.0010152085517129384,0.00019984574513127223,0.012906017965904903,-0.9999161785437509,-0.01,-0.02,0.0
173.827,604,map,base_link,0.018178330337213833,0.011095791495686846,7.973,-0.0010069538995474245,0.00024334189932951204,0.012908418941555644,-0.9999161462587717,-0.01,-0.02,0.0
174.077,605,map,base_link,0.018178330337213833,0.011095791495686846,7.973,-0.0009968598689217454,0.00032517237766391396,0.012997797923791576,-0.9999149752766278,-0.01,-0.02,0.0
174.327,606,map,base_link,0.018178330337213833,0.011095791495686846,7.972,-0.0007856285764390904,0.00035326005313640667,0.013081459924731698,-0.9999140630080728,-0.01,-0.02,0.0
174.577,607,map,base_link,0.018178330337213833,0.011095791495686846,7.972,-0.000671590190651356,0.00032501473295208763,0.013152680271858008,-0.9999132214015902,-0.01,-0.02,0.0
174.827,608,map,base_link,0.018178330337213833,0.011095791495686846,7.972,-0.0005808798942218448,0.0002781643586916898,0.013108692716814196,-0.999913869980007,-0.01,-0.01,0.0
175.075,609,map,base_link,0.018178330337213833,0.011095791495686846,7.972,-0.0006012789637792226,0.0003117766422272686,0.01310824941472899,-0.999913853817525,-0.01,-0.01,0.0
175.325,610,map,base_link,0.018178330337213833,0.011095791495686846,7.972,-0.0005677505503125026,0.0002747978697873436,0.013199766237993793,-0.9999126803459919,-0.01,-0.01,0.0
175.575,611,map,base_link,0.018178330337213833,0.011095791495686846,7.972,-0.0006581347365907064,0.00029466293366237447,0.013213675122114243,-0.9999124355773314,-0.01,-0.01,0.0
175.825,612,map,base_link,0.018178330337213833,0.011095791495686846,7.972,-0.0008142863166810724,0.0003034781176147694,0.013221073300469843,-0.9999122201771564,-0.01,-0.01,0.0
176.075,613,map,base_link,0.018178330337213833,0.011095791495686846,7.973,-0.0008984321869204453,0.0003384167182175101,0.01327602717888382,-0.9999114087738352,-0.01,-0.01,0.0
176.325,614,map,base_link,0.018178330751927874,0.01109579118308357,7.965,-0.0009874310779395398,0.00035452979535459536,0.013337607826725772,-0.9999104997478279,-0.01,-0.01,0.1
176.577,615,map,base_link,0.018178330596378522,0.01109579147635431,7.907,-0.0010310128310740809,0.0003611371954875204,0.013349863533109574,-0.9999102898441017,-0.01,-0.01,0.32
176.827,616,map,base_link,0.018178330437677914,0.011095791055837356,7.797,-0.001032062110935306,0.0003688422110682133,0.013414758775963764,-0.999909417422501,-0.01,-0.01,0.46
177.077,617,map,base_link,0.018178329509046964,0.01109579056266874,7.665,-0.0009620794882788222,0.00032458810586840037,0.013430382231282123,-0.9999092928254749,-0.01,-0.01,0.51
177.327,618,map,base_link,0.018178329457617437,0.011095790394181737,7.53,-0.0008747765705010856,0.0002867009438292955,0.013371022562978674,-0.9999101801282656,-0.01,-0.01,0.51
177.577,619,map,base_link,0.01817832908387107,0.011095790964792407,7.4,-0.000706675783655405,0.00025466625401266,0.013283600073714208,-0.9999114869444783,-0.01,-0.01,0.5
177.827,620,map,base_link,0.018178328555079837,0.011095789953739388,7.274,-0.000639208351880678,0.0002284658131772028,0.013308784577238053,-0.9999112037921825,-0.01,-0.01,0.49
178.078,621,map,base_link,0.018178328488775986,0.011095789959716829,7.151,-0.000618382608524508,0.000309378645671663,0.013192459818004654,-0.9999127366384297,-0.01,-0.01,0.49
178.329,622,map,base_link,0.018178327945109984,0.01109578950287382,7.03,-0.0005972919130956563,0.00027563771057253117,0.013261264454054456,-0.9999118491803678,-0.01,-0.01,0.49
178.578,623,map,base_link,0.018178327493841184,0.011095789472525208,6.908,-0.000641827734756602,0.00026525127855627477,0.013285039485426142,-0.9999115087970478,-0.01,-0.01,0.49
178.828,624,map,base_link,0.018178327427537333,0.011095789478503093,6.785,-0.0007456788836201558,0.0002887508404596236,0.013299239386857231,-0.9999112414698046,-0.01,-0.01,0.49
179.078,625,map,base_link,0.018178326883871776,0.011095789021660085,6.662,-0.0008795795536282075,0.000333778544113122,0.01333247808973248,-0.9999106759904502,-0.01,-0.01,0.49
179.328,626,map,base_link,0.01817832683244225,0.011095788853173083,6.537,-0.000923684557157466,0.000335345230948215,0.01337948632046082,-0.9999100077988097,-0.01,-0.01,0.49
179.579,627,map,base_link,0.01817832636629868,0.011095788997289358,6.413,-0.0009256606639088907,0.00031961812650532756,0.013354289921145401,-0.9999103479499003,-0.01,-0.01,0.49
179.828,628,map,base_link,0.01817832543766773,0.01109578850412074,6.287,-0.0009344212721931995,0.0003037150715735542,0.013332310120438617,-0.9999106380676694,-0.01,-0.01,0.5
180.078,629,map,base_link,0.018178325771203596,0.011095788371959792,6.162,-0.0009295233952320341,0.00027874314114781747,0.013203957893552665,-0.9999123530512382,-0.01,-0.01,0.49
180.328,630,map,base_link,0.018178324842572202,0.011095787499044274,6.037,-0.0009752526983936391,0.00028243820215573734,0.013149408548775832,-0.9999130273007018,-0.01,-0.01,0.49
180.579,631,map,base_link,0.018178324853791228,0.011095788105981441,5.911,-0.0009402091712066311,0.0002755182179707981,0.013086785467812112,-0.9999138843633213,-0.01,-0.01,0.49
180.828,632,map,base_link,0.018178324324999995,0.01109578747467399,5.786,-0.0009285745237649825,0.0003011749903306793,0.013054759455463472,-0.9999143064775795,-0.01,-0.01,0.49
181.076,633,map,base_link,0.01817832378133355,0.011095787017830983,5.661,-0.000956999854416954,0.0003194171850491284,0.012999246342523973,-0.9999149972464992,-0.01,-0.01,0.49
181.326,634,map,base_link,0.018178323729904466,0.011095786849344424,5.536,-0.001032620921310725,0.00039311910617103,0.012948665176373608,-0.9999155520450471,-0.01,-0.01,0.49
181.576,635,map,base_link,0.01817832326376112,0.011095786993460255,5.41,-0.0010991153189505642,0.0003600743181405031,0.012916612121867566,-0.9999159081759297,-0.02,-0.01,0.49
181.826,636,map,base_link,0.018178322812492098,0.01109578696311253,5.284,-0.0011790103547183457,0.00030181487920186704,0.012887032887849925,-0.9999162181031518,-0.02,-0.01,0.49
182.076,637,map,base_link,0.018178322761062793,0.011095786794625528,5.159,-0.0011656032313874115,0.0002502548943725268,0.012864211053920493,-0.9999165419251523,-0.02,-0.01,0.49
182.326,638,map,base_link,0.018178322217397014,0.01109578633778252,5.033,-0.0011370062762890924,0.00024183070491977553,0.0128779353790201,-0.9999164002630477,-0.02,-0.01,0.49
182.578,639,map,base_link,0.01817832216596771,0.011095785789549506,4.907,-0.0011115032319813803,0.0002690387315340661,0.012881367461462345,-0.9999163777791865,-0.01,-0.01,0.49
182.828,640,map,base_link,0.018178321699824362,0.01109578593366578,4.781,-0.0010162049995970687,0.00024683657007964056,0.012865441830039182,-0.9999166899325286,-0.01,-0.01,0.49
183.078,641,map,base_link,0.018178321171032685,0.01109578530235833,4.655,-0.0009214830135765334,0.00028813959192792993,0.012873650312620943,-0.9999166650137699,-0.01,-0.01,0.49
183.328,642,map,base_link,0.018178321104729056,0.01109578530833577,4.53,-0.000906943859478981,0.0002857228761224913,0.012863822591849816,-0.9999168054811358,-0.01,-0.01,0.49
183.578,643,map,base_link,0.018178320176097884,0.011095784815167153,4.404,-0.0009513374640633201,0.00028790972217895003,0.01290099856417587,-0.999916284646404,-0.01,-0.01,0.49
183.828,644,map,base_link,0.018178320202191012,0.011095785247639656,4.279,-0.0009617670506015002,0.00045151985594686715,0.012899644067026927,-0.9999162316498837,-0.01,-0.01,0.49
184.079,645,map,base_link,0.01817831965852501,0.011095784790796648,4.153,-0.0009271891005949337,0.0004697223172951853,0.012869425007413227,-0.999916645316646,-0.02,-0.01,0.49
184.329,646,map,base_link,0.018178319607095705,0.011095784622309868,4.028,-0.0009035755116576993,0.0004950326988197462,0.012844440201321528,-0.9999169759784242,-0.02,-0.01,0.49
184.579,647,map,base_link,0.018178319063429926,0.011095783785720403,3.902,-0.0008854972530332607,0.00048144764335617283,0.012883916231842985,-0.9999164909157725,-0.02,-0.01,0.49
184.829,648,map,base_link,0.01817831868968356,0.011095784356331295,3.777,-0.00093153657605235,0.0004172891705322709,0.012837527282558492,-0.9999170745629985,-0.02,-0.01,0.48
185.079,649,map,base_link,0.018178318545857275,0.011095783761349898,3.652,-0.0009492785074499064,0.0003875498840521796,0.01280935809061734,-0.9999174311015431,-0.02,-0.01,0.48
185.329,650,map,base_link,0.018178318094588253,0.011095783731001507,3.526,-0.0009859204687203867,0.0003062826004126132,0.012820153482380636,-0.9999172854873979,-0.02,-0.01,0.48
185.579,651,map,base_link,0.018178317550922474,0.011095783274158721,3.401,-0.0009401261521186484,0.0003078212136052194,0.012845793368143232,-0.9999170000563354,-0.02,-0.01,0.48
185.829,652,map,base_link,0.01817831709965323,0.011095783243810553,3.276,-0.0009335463619744762,0.00025278576447961026,0.012826000546470595,-0.9999172757286121,-0.02,-0.01,0.48
186.079,653,map,base_link,0.018178317033349822,0.011095783249788216,3.151,-0.000921564997776493,0.0002316607850998503,0.012805759166306219,-0.9999175513928187,-0.02,-0.01,0.48
186.329,654,map,base_link,0.018178316504558145,0.011095782618480765,3.026,-0.0009380199673542939,0.00028863606079081286,0.012790920814229667,-0.9999177111905205,-0.02,-0.01,0.48
186.579,655,map,base_link,0.018178316438254516,0.011095782624458428,2.901,-0.0009081917441809785,0.0002835652334498233,0.0127540414504545,-0.9999182112578979,-0.02,-0.01,0.48
186.827,656,map,base_link,0.018178315587145888,0.011095782352502193,2.776,-0.0008997776346473941,0.0002913306901052006,0.01275612266217463,-0.9999181900842011,-0.02,-0.01,0.48
187.077,657,map,base_link,0.018178315443319493,0.011095781757520573,2.651,-0.00097936341194687,0.0002850725243383269,0.012715936347737766,-0.9999186289612587,-0.02,-0.01,0.48
187.327,658,map,base_link,0.01817831499205058,0.011095781727172405,2.526,-0.0009612781628401256,0.0002433332760049498,0.012735351754070423,-0.9999184104460277,-0.02,-0.01,0.48
187.577,659,map,base_link,0.01817831444838469,0.011095781270329619,2.401,-0.0009640970610566654,0.00025437793476452085,0.012691594064109857,-0.9999189613407853,-0.02,-0.01,0.48
187.827,660,map,base_link,0.01817831447447804,0.011095781702802121,2.276,-0.0008867474521090783,0.0001825439443341857,0.012665155150101304,-0.9999193838513625,-0.02,-0.01,0.48
188.077,661,map,base_link,0.01817831393081204,0.011095781245959002,2.151,-0.0008514240154085421,0.00011756994748552588,0.012665932074199304,-0.999919414462558,-0.02,-0.01,0.48
188.327,662,map,base_link,0.018178313879382735,0.011095781077472333,2.026,-0.0008336963724653457,8.390886328783096e-05,0.012658810162816891,-0.9999195229791862,-0.02,-0.01,0.48
188.579,663,map,base_link,0.009089155523005044,0.011095780661628085,1.9,-0.0009050155626277838,5.5262168735090056e-05,0.012562457870676225,-0.9999206781266061,-0.02,-0.01,0.48
188.829,664,map,base_link,0.009089154994213366,0.011095780030320745,1.774,-0.0009651584029520725,0.00012991487103333616,0.012617810921776662,-0.9999199180129006,-0.01,-0.01,0.48
189.079,665,map,base_link,0.009089154942784061,0.011095779861833965,1.649,-0.000925115435574824,0.00019287792346593923,0.012581639473666917,-0.9999204014858843,-0.01,-0.01,0.48
189.329,666,map,base_link,0.009089154876480432,0.011095779867811628,1.524,-0.000892225088907717,0.00021751126483657727,0.012639673605675805,-0.9999196944126976,-0.01,-0.01,0.48
189.579,667,map,base_link,0.01817831182320928,0.011095779729321187,1.4,-0.0008597083614029624,0.00020843650133893873,0.012576750666031866,-0.9999205182405464,-0.01,-0.01,0.48
189.83,668,map,base_link,0.01817831137194026,0.011095779698973018,1.274,-0.0008970483091804745,0.0002570232890828664,0.012558163717961923,-0.9999207077400651,-0.01,-0.01,0.48
190.08,669,map,base_link,0.018178311242988188,0.011095779309273746,1.149,-0.0008878205674452577,0.00023058371121278932,0.012499424106564017,-0.999921458417008,-0.01,-0.01,0.48
190.33,670,map,base_link,0.018178310776845008,0.011095779073643286,1.024,-0.0009057064216111217,0.00028011331721528786,0.012496335268017411,-0.9999214683350273,-0.01,-0.01,0.48
190.58,671,map,base_link,0.018178310248053275,0.011095778822082625,0.899,-0.0008935174835701949,0.0002403548824074123,0.01247503763644131,-0.9999217555849089,-0.01,-0.01,0.48
190.83,672,map,base_link,0.018178310259272412,0.01109577904927278,0.774,-0.0009229201120315341,0.0002458833280192708,0.012469780951958276,-0.9999217931032736,-0.01,-0.01,0.48
191.08,673,map,base_link,0.01817830973048068,0.011095778797712008,0.649,-0.0009667027291417133,0.00026849671526736857,0.012445431819896269,-0.9999220492729237,-0.01,-0.01,0.48
191.33,674,map,base_link,0.018178309264337472,0.01109577818233512,0.524,-0.0009460619176568217,0.0002877264685621788,0.012426108310905681,-0.9999223039879513,-0.01,-0.01,0.48
191.58,675,map,base_link,0.018178309135385415,0.011095777792635764,0.399,-0.0009406107730761825,0.00022903601508545736,0.012448515585032793,-0.9999220455883582,-0.01,-0.01,0.48
191.83,676,map,base_link,0.018178308669242194,0.011095777557005401,0.274,-0.0009506166353002125,0.00025459413607785354,0.01240909325314471,-0.9999225199556581,-0.01,-0.01,0.48
192.08,677,map,base_link,0.018178308617812836,0.011095777768265223,0.149,-0.0009537149948402387,0.0002952618511669212,0.012455779760253027,-0.9999219253515306,-0.01,-0.01,0.48
192.33,678,map,base_link,0.01817830826259586,0.011095777383010708,0.119,-0.0009451354852355833,0.00029409094102027575,0.012469610518396845,-0.9999217614608418,-0.02,-0.01,0.01
192.58,679,map,base_link,0.018178308617812836,0.011095777768265223,0.145,-0.0009429266089720802,0.000295235937797719,0.012463650046679431,-0.9999218375216459,-0.02,-0.01,0.0
192.828,680,map,base_link,0.00908915278942507,0.011095777293035347,0.153,-0.0009422903042284493,0.0002939286269874244,0.01245596306795338,-0.9999219342923699,-0.02,-0.01,0.0
193.078,681,map,base_link,0.00908915278942507,0.011095777293035347,0.153,-0.0009445337685279151,0.0002922276489671698,0.012449646455241326,-0.9999220113399347,-0.02,-0.01,0.0
193.328,682,map,base_link,0.00908915278942507,0.011095777293035347,0.15,-0.0009469596513160119,0.000287336993624909,0.012441187250634755,-0.9999221157493545,-0.02,-0.01,0.0
193.578,683,map,base_link,0.009089152881822007,0.011095777719530131,0.145,-0.0009467734076309546,0.00028220436959456674,0.012435053408441754,-0.9999221936868576,-0.02,-0.01,0.0
193.828,684,map,base_link,0.009089152896696227,0.011095777545065764,0.139,-0.0009477278976932341,0.000278483724477799,0.012426355105360831,-0.9999223019602286,-0.02,-0.01,0.0
194.078,685,map,base_link,0.009089152896696227,0.011095777545065764,0.134,-0.0009511435485627303,0.0002775246468086323,0.012417772707011998,-0.9999224056030633,-0.02,-0.01,0.0
194.328,686,map,base_link,0.009089152989093161,0.011095777971560555,0.125,-0.0009547758535895525,0.0002735341679006089,0.01241479558824976,-0.9999224402085547,-0.02,-0.01,0.0
194.58,687,map,base_link,0.00908915252660503,0.011095777714022176,0.111,-0.0009557074966372319,0.0002630350079859699,0.0124282750950937,-0.999922274686351,-0.02,-0.01,0.0
194.83,688,map,base_link,0.009089152556353465,0.011095776985346889,0.097,-0.0009620113949095186,0.00025491746479744425,0.012454267020812926,-0.9999219473459598,-0.02,-0.01,0.0
195.08,689,map,base_link,0.009089152648750402,0.01109577741184168,0.084,-0.000967802186334785,0.0002486645255459451,0.012486396140723499,-0.9999215426403707,-0.02,-0.01,0.0
195.33,690,map,base_link,0.009089152586101901,0.01109577701616471,0.073,-0.0009717860424652147,0.00024159524691293904,0.012517274936040823,-0.9999211544375886,-0.02,-0.01,0.0
195.58,691,map,base_link,0.009089152678498837,0.011095777442659504,0.065,-0.0009718038863331898,0.00023025210165371948,0.012552211643288791,-0.9999207191392916,-0.01,-0.01,0.0
195.831,692,map,base_link,0.009089152693373055,0.01109577726819514,0.057,-0.0009709708173990488,0.00021846101182771668,0.012584586147776078,-0.999920315666177,-0.01,-0.01,0.0
196.081,693,map,base_link,0.018178308029524252,0.011095777455068808,0.05,-0.0009712387129021322,0.00020945894543884067,0.012617732469968279,-0.9999198996167789,-0.01,-0.01,0.0
196.331,694,map,base_link,0.018178308044398468,0.011095777280604444,0.044,-0.0009736903934047869,0.00020626773410664312,0.01265331626499644,-0.9999194482397757,-0.01,-0.01,0.0
196.581,695,map,base_link,0.018178307659433054,0.01109577724427866,0.039,-0.0009731686510378346,0.0001985133173692315,0.012689739498516206,-0.9999189887419376,-0.01,-0.01,0.0
196.831,696,map,base_link,0.018178307659433054,0.01109577724427866,0.035,-0.0009729871830156666,0.00019372034267587266,0.012727709338322235,-0.9999185072711523,-0.01,-0.01,0.0
197.081,697,map,base_link,0.018178307659433054,0.01109577724427866,0.031,-0.000972756574992321,0.000188722211533368,0.012763176174774904,-0.9999180563738732,-0.01,-0.01,0.0
197.331,698,map,base_link,0.018178308151669622,0.011095777532634871,0.028,-0.0009749466305263925,0.00018594276780461563,0.012799295997393823,-0.9999175930677117,-0.01,-0.01,0.0
197.581,699,map,base_link,0.018178308151669622,0.011095777532634871,0.025,-0.0009745194377028086,0.00018079453277255588,0.012838934971796667,-0.9999170862496513,-0.01,-0.01,0.0
197.831,700,map,base_link,0.018178308151669622,0.011095777532634871,0.022,-0.0009749410196336728,0.00017986679501795822,0.012877377645827637,-0.9999165916629802,-0.01,-0.01,0.0
198.081,701,map,base_link,0.018178308151669622,0.011095777532634871,0.019,-0.00097736322430511,0.00017868524289156354,0.012918621404555408,-0.9999160575036873,-0.01,-0.01,0.0
198.331,702,map,base_link,0.01817830768918149,0.011095777275096485,0.017,-0.0009818774279534174,0.00017918710557836908,0.012959743939478185,-0.9999155208544972,-0.01,-0.01,0.0
198.581,703,map,base_link,0.01817830768918149,0.011095777275096485,0.015,-0.0009859218832436842,0.00018028491697285912,0.013000806335779658,-0.9999149836311126,-0.01,-0.01,0.0
198.829,704,map,base_link,0.01817830768918149,0.011095777275096485,0.013,-0.0009863514311151149,0.0001838698348655828,0.013038350464078752,-0.9999144937042936,-0.01,-0.01,0.0
199.079,705,map,base_link,0.01817830768918149,0.011095777275096485,0.012,-0.0009863538623421787,0.00018728647803654746,0.013075358415802818,-0.9999140098189103,-0.01,-0.01,0.0
199.329,706,map,base_link,0.01817830768918149,0.011095777275096485,0.01,-0.000988378891590084,0.00018777016303756427,0.013113501300486108,-0.9999135082261736,-0.01,-0.01,0.0
199.579,707,map,base_link,0.01817830818141806,0.011095777563452695,0.009,-0.000985103653477564,0.00019023434370327586,0.013150987533228908,-0.9999130186714179,-0.01,-0.01,0.0
199.829,708,map,base_link,0.01817830818141806,0.011095777563452695,0.008,-0.0009849048875021104,0.00019337929137227156,0.013190320119172594,-0.9999125001828739,-0.01,-0.01,0.0
200.079,709,map,base_link,0.01817830818141806,0.011095777563452695,0.007,-0.0009870738212249468,0.00019871430283532134,0.013229888471016527,-0.9999119742502045,-0.01,-0.01,0.0
200.331,710,map,base_link,0.01817830818141806,0.011095777563452695,0.006,-0.0009908462246700496,0.00020260546106449823,0.013271603492798656,-0.9999114169342782,-0.01,-0.01,0.0
