Time,header.seq,header.stamp.secs,header.stamp.nsecs,header.frame_id,orientation.x,orientation.y,orientation.z,orientation.w,orientation_covariance_0,orientation_covariance_1,orientation_covariance_2,orientation_covariance_3,orientation_covariance_4,orientation_covariance_5,orientation_covariance_6,orientation_covariance_7,orientation_covariance_8,angular_velocity.x,angular_velocity.y,angular_velocity.z,angular_velocity_covariance_0,angular_velocity_covariance_1,angular_velocity_covariance_2,angular_velocity_covariance_3,angular_velocity_covariance_4,angular_velocity_covariance_5,angular_velocity_covariance_6,angular_velocity_covariance_7,angular_velocity_covariance_8,linear_acceleration.x,linear_acceleration.y,linear_acceleration.z,linear_acceleration_covariance_0,linear_acceleration_covariance_1,linear_acceleration_covariance_2,linear_acceleration_covariance_3,linear_acceleration_covariance_4,linear_acceleration_covariance_5,linear_acceleration_covariance_6,linear_acceleration_covariance_7,linear_acceleration_covariance_8
114.814,368,114,820918334,base_link,-3.574766376443056e-05,0.002296956962597377,0.6831796157162691,-0.7302467633482449,1.0,0.0,0.0,0.0,1.0,0.0,0.0,0.0,1.0,-0.0017541085835546255,0.0058645340614020885,0.04927573353052139,1.2184696791468346e-07,0.0,0.0,0.0,1.2184696791468346e-07,0.0,0.0,0.0,1.2184696791468346e-07,0.0,1.298246681801992e-15,10.60098865,8.999999999999999e-08,0.0,0.0,0.0,8.999999999999999e-08,0.0,0.0,0.0,8.999999999999999e-08
115.064,369,115,70975132,base_link,-0.0001093154366865181,0.0017546571898653515,0.6796830124530978,-0.7335038594383558,1.0,0.0,0.0,0.0,1.0,0.0,0.0,0.0,1.0,-0.0030815391801297665,0.002350375521928076,0.03159184753894806,1.2184696791468346e-07,0.0,0.0,0.0,1.2184696791468346e-07,0.0,0.0,0.0,1.2184696791468346e-07,0.0,1.3006486183085637e-15,10.62060195,8.999999999999999e-08,0.0,0.0,0.0,8.999999999999999e-08,0.0,0.0,0.0,8.999999999999999e-08
115.314,370,115,321057806,base_link,-0.0001386229175060374,0.0015460335324404644,0.677747215612302,-0.73529334438289,1.0,0.0,0.0,0.0,1.0,0.0,0.0,0.0,1.0,-0.001064986689016223,0.0015628362307325025,0.015107527375221252,1.2184696791468346e-07,0.0,0.0,0.0,1.2184696791468346e-07,0.0,0.0,0.0,1.2184696791468346e-07,0.0,1.3090553960815646e-15,10.6892485,8.999999999999999e-08,0.0,0.0,0.0,8.999999999999999e-08,0.0,0.0,0.0,8.999999999999999e-08
115.564,371,115,571112739,base_link,-0.00017126822468404974,0.001641505789895464,0.6767170146460456,-0.7362413722513022,1.0,0.0,0.0,0.0,1.0,0.0,0.0,0.0,1.0,0.0018974475096911192,-0.0007392982952296725,0.007127692922949791,1.2184696791468346e-07,0.0,0.0,0.0,1.2184696791468346e-07,0.0,0.0,0.0,1.2184696791468346e-07,0.0,1.2177818088318409e-15,9.9439431,8.999999999999999e-08,0.0,0.0,0.0,8.999999999999999e-08,0.0,0.0,0.0,8.999999999999999e-08
115.815,372,115,822196370,base_link,-0.00015036649118794728,0.0017174474796661152,0.6762026207401763,-0.736713678078662,1.0,0.0,0.0,0.0,1.0,0.0,0.0,0.0,1.0,-0.002451452426612377,-0.0005041020922362801,0.0024819939862936735,1.2184696791468346e-07,0.0,0.0,0.0,1.2184696791468346e-07,0.0,0.0,0.0,1.2184696791468346e-07,0.0,1.1265082215821171e-15,9.1986377,8.999999999999999e-08,0.0,0.0,0.0,8.999999999999999e-08,0.0,0.0,0.0,8.999999999999999e-08
116.065,373,116,72256576,base_link,-0.00019558067840419943,0.0018130659543107617,0.6760478813042266,-0.7368554381451696,1.0,0.0,0.0,0.0,1.0,0.0,0.0,0.0,1.0,0.0002546628238633275,-0.00017788307741284395,-0.002052554627880454,1.2184696791468346e-07,0.0,0.0,0.0,1.2184696791468346e-07,0.0,0.0,0.0,1.2184696791468346e-07,0.0,1.0964840152499712e-15,8.95347145,8.999999999999999e-08,0.0,0.0,0.0,8.999999999999999e-08,0.0,0.0,0.0,8.999999999999999e-08
116.315,374,116,322339680,base_link,-0.00011877556308061522,0.0018902060464878138,0.6759975291931328,-0.7369014544280984,1.0,0.0,0.0,0.0,1.0,0.0,0.0,0.0,1.0,-0.0007284159073606133,0.0013066078536212449,0.0030486888717859983,1.2184696791468346e-07,0.0,0.0,0.0,1.2184696791468346e-07,0.0,0.0,0.0,1.2184696791468346e-07,0.0,1.090479173983542e-15,8.9044382,8.999999999999999e-08,0.0,0.0,0.0,8.999999999999999e-08,0.0,0.0,0.0,8.999999999999999e-08
116.565,375,116,571396905,base_link,-2.4899277428968253e-05,0.001954276456666384,0.6706513857780831,-0.7417701119197871,1.0,0.0,0.0,0.0,1.0,0.0,0.0,0.0,1.0,0.00010010926052927971,-0.002430611057206994,-0.0460110567510128,1.2184696791468346e-07,0.0,0.0,0.0,1.2184696791468346e-07,0.0,0.0,0.0,1.2184696791468346e-07,0.0,1.089278205730256e-15,8.89463155,8.999999999999999e-08,0.0,0.0,0.0,8.999999999999999e-08,0.0,0.0,0.0,8.999999999999999e-08
116.815,376,116,821477990,base_link,-0.03183722675458143,0.02910292083161467,0.7010524507353533,-0.7118039563739452,1.0,0.0,0.0,0.0,1.0,0.0,0.0,0.0,1.0,0.5235739350318909,0.03527064248919479,-0.6577646732330322,1.2184696791468346e-07,0.0,0.0,0.0,1.2184696791468346e-07,0.0,0.0,0.0,1.2184696791468346e-07,0.0,1.1000869200098287e-15,8.9828914,8.999999999999999e-08,0.0,0.0,0.0,8.999999999999999e-08,0.0,0.0,0.0,8.999999999999999e-08
117.065,377,117,71534873,base_link,0.09450686173718979,-0.06771981741049356,-0.7622309427767193,0.6367781947336064,1.0,0.0,0.0,0.0,1.0,0.0,0.0,0.0,1.0,0.5749266743659973,0.14707867801189412,-0.8409238457679749,1.2184696791468346e-07,0.0,0.0,0.0,1.2184696791468346e-07,0.0,0.0,0.0,1.2184696791468346e-07,0.0,0.009806650000001128,9.218251,8.999999999999999e-08,0.0,0.0,0.0,8.999999999999999e-08,0.0,0.0,0.0,8.999999999999999e-08
117.315,378,117,321619947,base_link,0.12820949860883488,-0.07146491459520711,-0.8247728279669957,0.5460813791878417,1.0,0.0,0.0,0.0,1.0,0.0,0.0,0.0,1.0,-0.060754720121622086,-0.041092753410339466,-0.9276124238967896,1.2184696791468346e-07,0.0,0.0,0.0,1.2184696791468346e-07,0.0,0.0,0.0,1.2184696791468346e-07,0.0,0.009806650000001176,9.60071035,8.999999999999999e-08,0.0,0.0,0.0,8.999999999999999e-08,0.0,0.0,0.0,8.999999999999999e-08
117.565,379,117,571673496,base_link,0.07992825883619924,-0.03549544342872615,-0.890822252258378,0.4458556513228499,1.0,0.0,0.0,0.0,1.0,0.0,0.0,0.0,1.0,-0.48660844564437866,-0.46329525113105785,-1.0033221244812012,1.2184696791468346e-07,0.0,0.0,0.0,1.2184696791468346e-07,0.0,0.0,0.0,1.2184696791468346e-07,0.0,0.009806650000001223,9.99297635,8.999999999999999e-08,0.0,0.0,0.0,8.999999999999999e-08,0.0,0.0,0.0,8.999999999999999e-08
117.815,380,117,821753577,base_link,0.011237347981630725,-0.009204975488208159,-0.9441054454595694,0.32932339469006655,1.0,0.0,0.0,0.0,1.0,0.0,0.0,0.0,1.0,-0.2722710072994232,-0.41427481174469005,-1.0558140277862549,1.2184696791468346e-07,0.0,0.0,0.0,1.2184696791468346e-07,0.0,0.0,0.0,1.2184696791468346e-07,0.0,0.009806650000001213,9.9047165,8.999999999999999e-08,0.0,0.0,0.0,8.999999999999999e-08,0.0,0.0,0.0,8.999999999999999e-08
118.065,381,118,71807931,base_link,-0.030888594207737013,-0.0012561209432842982,-0.9788817416789253,0.20207635367771082,1.0,0.0,0.0,0.0,1.0,0.0,0.0,0.0,1.0,-0.09225421398878098,-0.2097171247005464,-1.0256214141845703,1.2184696791468346e-07,0.0,0.0,0.0,1.2184696791468346e-07,0.0,0.0,0.0,1.2184696791468346e-07,0.0,0.0098066500000012,9.79684335,8.999999999999999e-08,0.0,0.0,0.0,8.999999999999999e-08,0.0,0.0,0.0,8.999999999999999e-08
118.315,382,118,321892025,base_link,-0.045060060458914454,-0.0024290336313161475,-0.992913270381601,0.1099405668857969,1.0,0.0,0.0,0.0,1.0,0.0,0.0,0.0,1.0,-0.012707466259598732,-0.04481712728738792,-0.5762709379196167,1.2184696791468346e-07,0.0,0.0,0.0,1.2184696791468346e-07,0.0,0.0,0.0,1.2184696791468346e-07,-0.00980665,0.009806650000001197,9.77723005,8.999999999999999e-08,0.0,0.0,0.0,8.999999999999999e-08,0.0,0.0,0.0,8.999999999999999e-08
118.565,383,118,571947928,base_link,-0.04311416611045763,-0.00460305026520298,-0.9973321109219337,0.058725132037789396,1.0,0.0,0.0,0.0,1.0,0.0,0.0,0.0,1.0,0.0013505134265869856,0.05506053194403644,-0.3149811327457428,1.2184696791468346e-07,0.0,0.0,0.0,1.2184696791468346e-07,0.0,0.0,0.0,1.2184696791468346e-07,-0.00980665,0.009806650000001195,9.75761675,8.999999999999999e-08,0.0,0.0,0.0,8.999999999999999e-08,0.0,0.0,0.0,8.999999999999999e-08
118.816,384,118,823031552,base_link,-0.0340973696317612,-0.0050789859100369055,-0.9989221455385429,0.031082478006024813,1.0,0.0,0.0,0.0,1.0,0.0,0.0,0.0,1.0,-0.002260304521769285,0.09219165891408918,-0.1734105348587036,1.2184696791468346e-07,0.0,0.0,0.0,1.2184696791468346e-07,0.0,0.0,0.0,1.2184696791468346e-07,-0.00980665,1.1937624437661242e-15,9.7478101,8.999999999999999e-08,0.0,0.0,0.0,8.999999999999999e-08,0.0,0.0,0.0,8.999999999999999e-08
119.066,385,119,73094271,base_link,-0.024269803000916447,-0.004653156281694386,-0.9995601899532456,0.01639364082644207,1.0,0.0,0.0,0.0,1.0,0.0,0.0,0.0,1.0,-0.005605727434158325,0.07932067662477492,-0.09204077720642091,1.2184696791468346e-07,0.0,0.0,0.0,1.2184696791468346e-07,0.0,0.0,0.0,1.2184696791468346e-07,-0.00980665,1.1937624437661242e-15,9.7478101,8.999999999999999e-08,0.0,0.0,0.0,8.999999999999999e-08,0.0,0.0,0.0,8.999999999999999e-08
119.316,386,119,323180433,base_link,-0.01688365677936292,-0.003773004407138202,-0.9998125888643593,0.008688712208831382,1.0,0.0,0.0,0.0,1.0,0.0,0.0,0.0,1.0,-0.008556567132472992,0.045717749744653695,-0.04633555561304093,1.2184696791468346e-07,0.0,0.0,0.0,1.2184696791468346e-07,0.0,0.0,0.0,1.2184696791468346e-07,-0.00980665,1.1961643802726959e-15,9.7674234,8.999999999999999e-08,0.0,0.0,0.0,8.999999999999999e-08,0.0,0.0,0.0,8.999999999999999e-08
119.566,387,119,572235722,base_link,-0.01262159911791539,-0.0033842333909713993,-0.9999018872595846,0.005045597564491299,1.0,0.0,0.0,0.0,1.0,0.0,0.0,0.0,1.0,0.0036666770465672016,0.025236394256353375,-0.02017350867390633,1.2184696791468346e-07,0.0,0.0,0.0,1.2184696791468346e-07,0.0,0.0,0.0,1.2184696791468346e-07,0.0,1.1997672850325534e-15,9.79684335,8.999999999999999e-08,0.0,0.0,0.0,8.999999999999999e-08,0.0,0.0,0.0,8.999999999999999e-08
119.816,388,119,822318431,base_link,-0.0107856640302409,-0.0033684443510513208,-0.9999289962478681,0.003784903804802563,1.0,0.0,0.0,0.0,1.0,0.0,0.0,0.0,1.0,0.004876662511378527,0.00906083732843399,-0.004359694663435222,1.2184696791468346e-07,0.0,0.0,0.0,1.2184696791468346e-07,0.0,0.0,0.0,1.2184696791468346e-07,0.0,1.202169221539125e-15,9.81645665,8.999999999999999e-08,0.0,0.0,0.0,8.999999999999999e-08,0.0,0.0,0.0,8.999999999999999e-08
120.066,389,120,72374550,base_link,-0.010850265010524125,-0.0035024472894712184,-0.9999267387518671,0.004064694483099484,1.0,0.0,0.0,0.0,1.0,0.0,0.0,0.0,1.0,0.0024240294005721807,-0.004746013786643743,0.007173393387347461,1.2184696791468346e-07,0.0,0.0,0.0,1.2184696791468346e-07,0.0,0.0,0.0,1.2184696791468346e-07,0.0,1.202169221539125e-15,9.81645665,8.999999999999999e-08,0.0,0.0,0.0,8.999999999999999e-08,0.0,0.0,0.0,8.999999999999999e-08
120.316,390,120,322453814,base_link,-0.011875225328189914,-0.003332929995381349,-0.9999104896850606,0.00518490297236318,1.0,0.0,0.0,0.0,1.0,0.0,0.0,0.0,1.0,-0.004741201177239418,-0.010331373661756514,0.014606412500143053,1.2184696791468346e-07,0.0,0.0,0.0,1.2184696791468346e-07,0.0,0.0,0.0,1.2184696791468346e-07,0.0,1.202169221539125e-15,9.81645665,8.999999999999999e-08,0.0,0.0,0.0,8.999999999999999e-08,0.0,0.0,0.0,8.999999999999999e-08
120.566,391,120,572505511,base_link,-0.012874708940483894,-0.0032636956468378143,-0.9998881629135703,0.006873996344780197,1.0,0.0,0.0,0.0,1.0,0.0,0.0,0.0,1.0,0.00013288739137351513,-0.0065713869407773,0.016027644276618958,1.2184696791468346e-07,0.0,0.0,0.0,1.2184696791468346e-07,0.0,0.0,0.0,1.2184696791468346e-07,0.0,1.2033701897924109e-15,9.8262633,8.999999999999999e-08,0.0,0.0,0.0,8.999999999999999e-08,0.0,0.0,0.0,8.999999999999999e-08
120.816,392,120,822585844,base_link,-0.013588606527149043,-0.0032306887761284976,-0.9998633934546437,0.008837808101930356,1.0,0.0,0.0,0.0,1.0,0.0,0.0,0.0,1.0,0.004430747590959072,-0.003249098081141708,0.017635731026530266,1.2184696791468346e-07,0.0,0.0,0.0,1.2184696791468346e-07,0.0,0.0,0.0,1.2184696791468346e-07,0.0,1.202169221539125e-15,9.81645665,8.999999999999999e-08,0.0,0.0,0.0,8.999999999999999e-08,0.0,0.0,0.0,8.999999999999999e-08
121.066,393,121,72637258,base_link,-0.013813699462335498,-0.0031636734838404487,-0.9998402323385767,0.010894157810179383,1.0,0.0,0.0,0.0,1.0,0.0,0.0,0.0,1.0,-0.00039959815330803394,0.001044908422045412,0.019429899752140045,1.2184696791468346e-07,0.0,0.0,0.0,1.2184696791468346e-07,0.0,0.0,0.0,1.2184696791468346e-07,0.0,1.202169221539125e-15,9.81645665,8.999999999999999e-08,0.0,0.0,0.0,8.999999999999999e-08,0.0,0.0,0.0,8.999999999999999e-08
121.316,394,121,322715675,base_link,-0.01380793938239764,-0.002989513102979001,-0.9998182185717039,0.012803649226820313,1.0,0.0,0.0,0.0,1.0,0.0,0.0,0.0,1.0,-0.001951148035004735,0.002314741956070068,0.0201858039945364,1.2184696791468346e-07,0.0,0.0,0.0,1.2184696791468346e-07,0.0,0.0,0.0,1.2184696791468346e-07,0.0,1.202169221539125e-15,9.81645665,8.999999999999999e-08,0.0,0.0,0.0,8.999999999999999e-08,0.0,0.0,0.0,8.999999999999999e-08
121.566,395,121,572766813,base_link,-0.013250189430884875,-0.0027923075429622944,-0.9997996553182272,0.014740580863223052,1.0,0.0,0.0,0.0,1.0,0.0,0.0,0.0,1.0,-0.001669759745709598,0.005371371284127237,0.01517621148377657,1.2184696791468346e-07,0.0,0.0,0.0,1.2184696791468346e-07,0.0,0.0,0.0,1.2184696791468346e-07,0.0,1.2009682532858392e-15,9.80665,8.999999999999999e-08,0.0,0.0,0.0,8.999999999999999e-08,0.0,0.0,0.0,8.999999999999999e-08
121.817,396,121,823843319,base_link,-0.012375671889659543,-0.0025332848241034424,-0.9997832894340813,0.01654688434864482,1.0,0.0,0.0,0.0,1.0,0.0,0.0,0.0,1.0,-0.001087699900381267,0.0060522248968482035,0.013533985242247581,1.2184696791468346e-07,0.0,0.0,0.0,1.2184696791468346e-07,0.0,0.0,0.0,1.2184696791468346e-07,0.0,1.2009682532858392e-15,9.80665,8.999999999999999e-08,0.0,0.0,0.0,8.999999999999999e-08,0.0,0.0,0.0,8.999999999999999e-08
122.067,397,122,73898317,base_link,-0.011359340056270146,-0.002316311099735432,-0.9997656024352625,0.018284974258443998,1.0,0.0,0.0,0.0,1.0,0.0,0.0,0.0,1.0,0.001739302882924676,0.009281602688133718,0.013564735651016234,1.2184696791468346e-07,0.0,0.0,0.0,1.2184696791468346e-07,0.0,0.0,0.0,1.2184696791468346e-07,0.0,1.2009682532858392e-15,9.80665,8.999999999999999e-08,0.0,0.0,0.0,8.999999999999999e-08,0.0,0.0,0.0,8.999999999999999e-08
122.317,398,122,323975926,base_link,-0.010143378677580214,-0.0020456638525325993,-0.9997480070663731,0.01992108167798029,1.0,0.0,0.0,0.0,1.0,0.0,0.0,0.0,1.0,-0.0006241577793844044,0.010251471772789957,0.012901388108730314,1.2184696791468346e-07,0.0,0.0,0.0,1.2184696791468346e-07,0.0,0.0,0.0,1.2184696791468346e-07,0.0,1.202169221539125e-15,9.81645665,8.999999999999999e-08,0.0,0.0,0.0,8.999999999999999e-08,0.0,0.0,0.0,8.999999999999999e-08
122.567,399,122,573028038,base_link,-0.008851121176931508,-0.001772389348033717,-0.9997297352582868,0.02142364885601833,1.0,0.0,0.0,0.0,1.0,0.0,0.0,0.0,1.0,0.0029867831617593765,0.009434316307306291,0.014783726073801516,1.2184696791468346e-07,0.0,0.0,0.0,1.2184696791468346e-07,0.0,0.0,0.0,1.2184696791468346e-07,0.0,1.2009682532858392e-15,9.80665,8.999999999999999e-08,0.0,0.0,0.0,8.999999999999999e-08,0.0,0.0,0.0,8.999999999999999e-08
122.817,400,122,823103761,base_link,-0.007740230062538119,-0.0016953584517010421,-0.999706600015298,0.022889484139061778,1.0,0.0,0.0,0.0,1.0,0.0,0.0,0.0,1.0,0.0011343022342771292,0.00745283253490925,0.013338618911802767,1.2184696791468346e-07,0.0,0.0,0.0,1.2184696791468346e-07,0.0,0.0,0.0,1.2184696791468346e-07,0.0,1.2009682532858392e-15,9.80665,8.999999999999999e-08,0.0,0.0,0.0,8.999999999999999e-08,0.0,0.0,0.0,8.999999999999999e-08
123.067,401,123,73155620,base_link,-0.006406356653916588,-0.001689823610943195,-0.9996851746183654,0.024200304519468807,1.0,0.0,0.0,0.0,1.0,0.0,0.0,0.0,1.0,-0.0011810024734586477,0.010107110254466535,0.011966584250330923,1.2184696791468346e-07,0.0,0.0,0.0,1.2184696791468346e-07,0.0,0.0,0.0,1.2184696791468346e-07,0.0,1.202169221539125e-15,9.81645665,8.999999999999999e-08,0.0,0.0,0.0,8.999999999999999e-08,0.0,0.0,0.0,8.999999999999999e-08
123.317,402,123,323230968,base_link,-0.005188373233822111,-0.0016446745974549961,-0.9996611496879639,0.02545509051629785,1.0,0.0,0.0,0.0,1.0,0.0,0.0,0.0,1.0,-0.0015927330823615193,0.00999878626316786,0.010293949395418165,1.2184696791468346e-07,0.0,0.0,0.0,1.2184696791468346e-07,0.0,0.0,0.0,1.2184696791468346e-07,0.0,1.2009682532858392e-15,9.80665,8.999999999999999e-08,0.0,0.0,0.0,8.999999999999999e-08,0.0,0.0,0.0,8.999999999999999e-08
123.567,403,123,573284078,base_link,-0.004100301729290652,-0.0017210431039512853,-0.9996355537314199,0.026626776981833966,1.0,0.0,0.0,0.0,1.0,0.0,0.0,0.0,1.0,0.0068294210359454155,0.006959428545087577,0.009466538205742836,1.2184696791468346e-07,0.0,0.0,0.0,1.2184696791468346e-07,0.0,0.0,0.0,1.2184696791468346e-07,0.0,1.2009682532858392e-15,9.80665,8.999999999999999e-08,0.0,0.0,0.0,8.999999999999999e-08,0.0,0.0,0.0,8.999999999999999e-08
123.817,404,123,823363562,base_link,-0.00326306478672358,-0.0018080201598540016,-0.9996097541891986,0.02768434216500454,1.0,0.0,0.0,0.0,1.0,0.0,0.0,0.0,1.0,0.0038040182553231716,0.004129309672862293,0.010814967565238476,1.2184696791468346e-07,0.0,0.0,0.0,1.2184696791468346e-07,0.0,0.0,0.0,1.2184696791468346e-07,0.0,1.2009682532858392e-15,9.80665,8.999999999999999e-08,0.0,0.0,0.0,8.999999999999999e-08,0.0,0.0,0.0,8.999999999999999e-08
124.067,405,124,73420561,base_link,-0.002650280982456647,-0.0020176243340630264,-0.9995834751059837,0.028666731550808566,1.0,0.0,0.0,0.0,1.0,0.0,0.0,0.0,1.0,-0.000370256369933486,0.002348156413063408,0.005702681373804808,1.2184696791468346e-07,0.0,0.0,0.0,1.2184696791468346e-07,0.0,0.0,0.0,1.2184696791468346e-07,0.0,1.2009682532858392e-15,9.80665,8.999999999999999e-08,0.0,0.0,0.0,8.999999999999999e-08,0.0,0.0,0.0,8.999999999999999e-08
124.317,406,124,323496692,base_link,-0.002086254419803389,-0.0021389392756379784,-0.9995559936680445,0.029646045327482995,1.0,0.0,0.0,0.0,1.0,0.0,0.0,0.0,1.0,-0.0004986301646567881,0.00615731067955494,0.007029917556792497,1.2184696791468346e-07,0.0,0.0,0.0,1.2184696791468346e-07,0.0,0.0,0.0,1.2184696791468346e-07,0.0,1.2009682532858392e-15,9.80665,8.999999999999999e-08,0.0,0.0,0.0,8.999999999999999e-08,0.0,0.0,0.0,8.999999999999999e-08
124.567,407,124,573549329,base_link,-0.0015498302762452687,-0.002243532124893172,-0.9995298893487998,0.03053792540588146,1.0,0.0,0.0,0.0,1.0,0.0,0.0,0.0,1.0,0.0009001609869301319,0.002982147503644229,0.007246768567711115,1.2184696791468346e-07,0.0,0.0,0.0,1.2184696791468346e-07,0.0,0.0,0.0,1.2184696791468346e-07,0.0,1.2009682532858392e-15,9.80665,8.999999999999999e-08,0.0,0.0,0.0,8.999999999999999e-08,0.0,0.0,0.0,8.999999999999999e-08
124.818,408,124,824623617,base_link,-0.0012715759626324144,-0.002220164577116443,-0.9995027559842466,0.03142761116784687,1.0,0.0,0.0,0.0,1.0,0.0,0.0,0.0,1.0,0.0015324268024414778,0.0014188941568136222,0.0055547794327139854,1.2184696791468346e-07,0.0,0.0,0.0,1.2184696791468346e-07,0.0,0.0,0.0,1.2184696791468346e-07,0.0,1.2009682532858392e-15,9.80665,8.999999999999999e-08,0.0,0.0,0.0,8.999999999999999e-08,0.0,0.0,0.0,8.999999999999999e-08
125.068,409,125,74680157,base_link,-0.0010478547473543305,-0.0024108628135020662,-0.999477816666875,0.03220533700707956,1.0,0.0,0.0,0.0,1.0,0.0,0.0,0.0,1.0,0.0037451977841556072,-0.0009524389170110217,0.007150049787014723,1.2184696791468346e-07,0.0,0.0,0.0,1.2184696791468346e-07,0.0,0.0,0.0,1.2184696791468346e-07,0.0,1.2009682532858392e-15,9.80665,8.999999999999999e-08,0.0,0.0,0.0,8.999999999999999e-08,0.0,0.0,0.0,8.999999999999999e-08
125.318,410,125,324758612,base_link,-0.0010324880779812268,-0.002520088169998021,-0.9994525925500288,0.032971174819993565,1.0,0.0,0.0,0.0,1.0,0.0,0.0,0.0,1.0,-0.003727349452674389,0.0010418852325528869,0.006502002477645874,1.2184696791468346e-07,0.0,0.0,0.0,1.2184696791468346e-07,0.0,0.0,0.0,1.2184696791468346e-07,0.0,1.2009682532858392e-15,9.80665,8.999999999999999e-08,0.0,0.0,0.0,8.999999999999999e-08,0.0,0.0,0.0,8.999999999999999e-08
125.568,411,125,573810805,base_link,-0.000911170428032442,-0.002602175331008784,-0.9994302898674283,0.033637689390119796,1.0,0.0,0.0,0.0,1.0,0.0,0.0,0.0,1.0,-0.0019164092373102903,0.0008256435394287121,0.009849557653069496,1.2184696791468346e-07,0.0,0.0,0.0,1.2184696791468346e-07,0.0,0.0,0.0,1.2184696791468346e-07,0.0,1.2009682532858392e-15,9.80665,8.999999999999999e-08,0.0,0.0,0.0,8.999999999999999e-08,0.0,0.0,0.0,8.999999999999999e-08
125.818,412,125,823885939,base_link,-0.0007838650657526143,-0.0026716839331497404,-0.9994100837505067,0.03423057344429459,1.0,0.0,0.0,0.0,1.0,0.0,0.0,0.0,1.0,0.009458810091018677,-0.0005959414411336178,0.00442638760432601,1.2184696791468346e-07,0.0,0.0,0.0,1.2184696791468346e-07,0.0,0.0,0.0,1.2184696791468346e-07,0.0,1.2009682532858392e-15,9.80665,8.999999999999999e-08,0.0,0.0,0.0,8.999999999999999e-08,0.0,0.0,0.0,8.999999999999999e-08
126.068,413,126,73939051,base_link,-0.0006757711787214192,-0.0025522076058153527,-0.9993904135911952,0.034811360095099386,1.0,0.0,0.0,0.0,1.0,0.0,0.0,0.0,1.0,0.0004957154160365462,-0.0007558119250461454,0.004809030331671238,1.2184696791468346e-07,0.0,0.0,0.0,1.2184696791468346e-07,0.0,0.0,0.0,1.2184696791468346e-07,0.0,1.2009682532858392e-15,9.80665,8.999999999999999e-08,0.0,0.0,0.0,8.999999999999999e-08,0.0,0.0,0.0,8.999999999999999e-08
126.318,414,126,324019868,base_link,-0.0004639764792119874,-0.002474476127193414,-0.9993733215477968,0.03530758944259488,1.0,0.0,0.0,0.0,1.0,0.0,0.0,0.0,1.0,-0.005262601189315319,0.002650478389114142,0.0027351193130016323,1.2184696791468346e-07,0.0,0.0,0.0,1.2184696791468346e-07,0.0,0.0,0.0,1.2184696791468346e-07,0.0,1.2009682532858392e-15,9.80665,8.999999999999999e-08,0.0,0.0,0.0,8.999999999999999e-08,0.0,0.0,0.0,8.999999999999999e-08
126.568,415,126,574071646,base_link,-0.0002792545434878314,-0.0024223498295159033,-0.9993552491154929,0.03582094783104406,1.0,0.0,0.0,0.0,1.0,0.0,0.0,0.0,1.0,-0.0009861331200227141,0.0018819202668964865,0.00234596524387598,1.2184696791468346e-07,0.0,0.0,0.0,1.2184696791468346e-07,0.0,0.0,0.0,1.2184696791468346e-07,0.0,1.2009682532858392e-15,9.80665,8.999999999999999e-08,0.0,0.0,0.0,8.999999999999999e-08,0.0,0.0,0.0,8.999999999999999e-08
126.818,416,126,824152160,base_link,4.073137152921295e-05,-0.0023828656842880313,-0.999339178126877,0.03627019923826996,1.0,0.0,0.0,0.0,1.0,0.0,0.0,0.0,1.0,0.006170356646180153,-0.0003196416655555364,0.002558815525844693,1.2184696791468346e-07,0.0,0.0,0.0,1.2184696791468346e-07,0.0,0.0,0.0,1.2184696791468346e-07,0.0,1.2009682532858392e-15,9.80665,8.999999999999999e-08,0.0,0.0,0.0,8.999999999999999e-08,0.0,0.0,0.0,8.999999999999999e-08
127.068,417,127,74211785,base_link,0.00024024951924812195,-0.002275414615610608,-0.999322672240023,0.036728211439642,1.0,0.0,0.0,0.0,1.0,0.0,0.0,0.0,1.0,-0.0017458426300436258,0.0009816337842494254,0.003090946702286601,1.2184696791468346e-07,0.0,0.0,0.0,1.2184696791468346e-07,0.0,0.0,0.0,1.2184696791468346e-07,0.0,1.2009682532858392e-15,9.80665,8.999999999999999e-08,0.0,0.0,0.0,8.999999999999999e-08,0.0,0.0,0.0,8.999999999999999e-08
127.318,418,127,324290503,base_link,0.0004057816745909316,0.03990847292968489,-0.9964964437487026,0.07349820899751142,1.0,0.0,0.0,0.0,1.0,0.0,0.0,0.0,1.0,-0.5233064889907837,0.037735134363174515,0.6199845671653748,1.2184696791468346e-07,0.0,0.0,0.0,1.2184696791468346e-07,0.0,0.0,0.0,1.2184696791468346e-07,0.0,1.2009682532858392e-15,9.80665,8.999999999999999e-08,0.0,0.0,0.0,8.999999999999999e-08,0.0,0.0,0.0,8.999999999999999e-08
127.568,419,127,574344885,base_link,0.011170129705673302,0.1109818473549373,-0.9796893103756468,0.1666346689489719,1.0,0.0,0.0,0.0,1.0,0.0,0.0,0.0,1.0,-0.5535068511962891,0.144681677222252,0.8272054195404053,1.2184696791468346e-07,0.0,0.0,0.0,1.2184696791468346e-07,0.0,0.0,0.0,1.2184696791468346e-07,0.0,1.2033701897924109e-15,9.8262633,8.999999999999999e-08,0.0,0.0,0.0,8.999999999999999e-08,0.0,0.0,0.0,8.999999999999999e-08
127.819,420,127,825418817,base_link,0.02961044260099185,0.13623337390935525,-0.9519681200109382,0.2726176590118237,1.0,0.0,0.0,0.0,1.0,0.0,0.0,0.0,1.0,0.09930631518363953,-0.052821937948465236,0.916633665561676,1.2184696791468346e-07,0.0,0.0,0.0,1.2184696791468346e-07,0.0,0.0,0.0,1.2184696791468346e-07,0.0,-0.009806649999998775,10.002783,8.999999999999999e-08,0.0,0.0,0.0,8.999999999999999e-08,0.0,0.0,0.0,8.999999999999999e-08
128.069,421,128,75471133,base_link,0.026065437861972515,0.07530503996645566,-0.9183089397378494,0.38776079624204035,1.0,0.0,0.0,0.0,1.0,0.0,0.0,0.0,1.0,0.48810526728630066,-0.44201382994651783,0.9975490570068359,1.2184696791468346e-07,0.0,0.0,0.0,1.2184696791468346e-07,0.0,0.0,0.0,1.2184696791468346e-07,-0.00980665,1.2502079516705585e-15,10.20872265,8.999999999999999e-08,0.0,0.0,0.0,8.999999999999999e-08,0.0,0.0,0.0,8.999999999999999e-08
128.319,422,128,325544468,base_link,0.003466699708149154,0.007744124067251347,-0.863376622565562,0.5044886699846169,1.0,0.0,0.0,0.0,1.0,0.0,0.0,0.0,1.0,0.2653762400150299,-0.3795655369758605,1.050624966621399,1.2184696791468346e-07,0.0,0.0,0.0,1.2184696791468346e-07,0.0,0.0,0.0,1.2184696791468346e-07,-0.00980665,1.2285905231114134e-15,10.03220295,8.999999999999999e-08,0.0,0.0,0.0,8.999999999999999e-08,0.0,0.0,0.0,8.999999999999999e-08
128.569,423,128,575595016,base_link,-0.017063627159061165,-0.028527836173174455,-0.7884066800031361,0.6142555674292953,1.0,0.0,0.0,0.0,1.0,0.0,0.0,0.0,1.0,0.09053952246904373,-0.20236653089523302,1.0250083208084106,1.2184696791468346e-07,0.0,0.0,0.0,1.2184696791468346e-07,0.0,0.0,0.0,1.2184696791468346e-07,-0.00980665,1.2093750310588401e-15,9.87529655,8.999999999999999e-08,0.0,0.0,0.0,8.999999999999999e-08,0.0,0.0,0.0,8.999999999999999e-08
128.819,424,128,825665827,base_link,-0.027204267191265414,-0.038215741945199014,-0.7264188780979827,0.6856493990787365,1.0,0.0,0.0,0.0,1.0,0.0,0.0,0.0,1.0,0.0015916174743324518,-0.030525855720043113,0.5722275972366333,1.2184696791468346e-07,0.0,0.0,0.0,1.2184696791468346e-07,0.0,0.0,0.0,1.2184696791468346e-07,-0.00980665,1.2045711580456967e-15,9.83606995,8.999999999999999e-08,0.0,0.0,0.0,8.999999999999999e-08,0.0,0.0,0.0,8.999999999999999e-08
129.069,425,129,74712694,base_link,0.028306875737022005,0.035354630379583946,0.689708026602975,-0.7226697786237928,1.0,0.0,0.0,0.0,1.0,0.0,0.0,0.0,1.0,-0.003578126197680831,0.04776253178715709,0.3108287751674652,1.2184696791468346e-07,0.0,0.0,0.0,1.2184696791468346e-07,0.0,0.0,0.0,1.2184696791468346e-07,-0.00980665,1.2033701897924109e-15,9.8262633,8.999999999999999e-08,0.0,0.0,0.0,8.999999999999999e-08,0.0,0.0,0.0,8.999999999999999e-08
129.319,426,129,324782493,base_link,0.024417289604518735,0.028704144899618953,0.6694948309302785,-0.7418601885743625,1.0,0.0,0.0,0.0,1.0,0.0,0.0,0.0,1.0,-0.0013071264838799834,0.0709376633167267,0.16707998514175415,1.2184696791468346e-07,0.0,0.0,0.0,1.2184696791468346e-07,0.0,0.0,0.0,1.2184696791468346e-07,-0.00980665,1.2009682532858392e-15,9.80665,8.999999999999999e-08,0.0,0.0,0.0,8.999999999999999e-08,0.0,0.0,0.0,8.999999999999999e-08
129.569,427,129,574831691,base_link,0.01874645952120422,0.02192808840051607,0.6586890944091406,-0.7518619594719401,1.0,0.0,0.0,0.0,1.0,0.0,0.0,0.0,1.0,0.00012123910710215569,0.07018060237169267,0.08638539910316466,1.2184696791468346e-07,0.0,0.0,0.0,1.2184696791468346e-07,0.0,0.0,0.0,1.2184696791468346e-07,-0.00980665,1.1997672850325534e-15,9.79684335,8.999999999999999e-08,0.0,0.0,0.0,8.999999999999999e-08,0.0,0.0,0.0,8.999999999999999e-08
129.819,428,129,824900489,base_link,0.013493940833715497,0.016610251193448628,0.6532895116792635,-0.7568056732384714,1.0,0.0,0.0,0.0,1.0,0.0,0.0,0.0,1.0,0.003356222528964281,0.052448097616434104,0.03816507011651992,1.2184696791468346e-07,0.0,0.0,0.0,1.2184696791468346e-07,0.0,0.0,0.0,1.2184696791468346e-07,-0.00980665,1.2009682532858392e-15,9.80665,8.999999999999999e-08,0.0,0.0,0.0,8.999999999999999e-08,0.0,0.0,0.0,8.999999999999999e-08
130.069,429,130,74950147,base_link,0.00996415503074028,0.013477491577427109,0.6510316998394672,-0.7588654680768113,1.0,0.0,0.0,0.0,1.0,0.0,0.0,0.0,1.0,0.006673029158264399,0.028266519308090213,0.015099120326340195,1.2184696791468346e-07,0.0,0.0,0.0,1.2184696791468346e-07,0.0,0.0,0.0,1.2184696791468346e-07,0.0,1.202169221539125e-15,9.81645665,8.999999999999999e-08,0.0,0.0,0.0,8.999999999999999e-08,0.0,0.0,0.0,8.999999999999999e-08
130.319,430,130,325022454,base_link,0.008042418808470625,0.011886598916837136,0.65031659994597,-0.7595277138463168,1.0,0.0,0.0,0.0,1.0,0.0,0.0,0.0,1.0,0.004092133138328791,0.013153349049389362,-0.0023142804857343453,1.2184696791468346e-07,0.0,0.0,0.0,1.2184696791468346e-07,0.0,0.0,0.0,1.2184696791468346e-07,0.0,1.202169221539125e-15,9.81645665,8.999999999999999e-08,0.0,0.0,0.0,8.999999999999999e-08,0.0,0.0,0.0,8.999999999999999e-08
130.569,431,130,575067327,base_link,0.007563904158558564,0.011548041132336798,0.65086363325634,-0.7590691411223637,1.0,0.0,0.0,0.0,1.0,0.0,0.0,0.0,1.0,-0.0010956444311887026,0.001230268040671944,-0.00510146701708436,1.2184696791468346e-07,0.0,0.0,0.0,1.2184696791468346e-07,0.0,0.0,0.0,1.2184696791468346e-07,0.0,1.2033701897924109e-15,9.8262633,8.999999999999999e-08,0.0,0.0,0.0,8.999999999999999e-08,0.0,0.0,0.0,8.999999999999999e-08
130.819,432,130,825135652,base_link,0.00782727039656113,0.011720711981969873,0.6520203249858163,-0.7580704812576237,1.0,0.0,0.0,0.0,1.0,0.0,0.0,0.0,1.0,-0.0014823959209024906,-0.010344369336962702,-0.013426240533590315,1.2184696791468346e-07,0.0,0.0,0.0,1.2184696791468346e-07,0.0,0.0,0.0,1.2184696791468346e-07,0.0,1.2033701897924109e-15,9.8262633,8.999999999999999e-08,0.0,0.0,0.0,8.999999999999999e-08,0.0,0.0,0.0,8.999999999999999e-08
131.069,433,131,75193923,base_link,0.008514582426918127,0.01238856658861386,0.6533304085734232,-0.7569236437958975,1.0,0.0,0.0,0.0,1.0,0.0,0.0,0.0,1.0,0.0029352365527302027,-0.009204925969243051,-0.014321472495794295,1.2184696791468346e-07,0.0,0.0,0.0,1.2184696791468346e-07,0.0,0.0,0.0,1.2184696791468346e-07,0.0,1.202169221539125e-15,9.81645665,8.999999999999999e-08,0.0,0.0,0.0,8.999999999999999e-08,0.0,0.0,0.0,8.999999999999999e-08
131.319,434,131,325261277,base_link,0.009034633946956718,0.012702254271480291,0.6547417715098109,-0.7556918953952473,1.0,0.0,0.0,0.0,1.0,0.0,0.0,0.0,1.0,-0.0022869817912578583,-0.0011165376054123064,-0.01603059098124504,1.2184696791468346e-07,0.0,0.0,0.0,1.2184696791468346e-07,0.0,0.0,0.0,1.2184696791468346e-07,0.0,1.2009682532858392e-15,9.80665,8.999999999999999e-08,0.0,0.0,0.0,8.999999999999999e-08,0.0,0.0,0.0,8.999999999999999e-08
131.569,435,131,575304855,base_link,0.00914900839750358,0.012717057349922702,0.6562000332731298,-0.7544243424161525,1.0,0.0,0.0,0.0,1.0,0.0,0.0,0.0,1.0,-0.0019796285778284073,-0.0002015886129811426,-0.016242261976003647,1.2184696791468346e-07,0.0,0.0,0.0,1.2184696791468346e-07,0.0,0.0,0.0,1.2184696791468346e-07,0.0,1.2009682532858392e-15,9.80665,8.999999999999999e-08,0.0,0.0,0.0,8.999999999999999e-08,0.0,0.0,0.0,8.999999999999999e-08
131.819,436,131,825372746,base_link,0.009069952982222818,0.012583681126278943,0.6576417672753283,-0.7531710913578636,1.0,0.0,0.0,0.0,1.0,0.0,0.0,0.0,1.0,0.0014043636620044708,-0.0016201144317165032,-0.012594710104167461,1.2184696791468346e-07,0.0,0.0,0.0,1.2184696791468346e-07,0.0,0.0,0.0,1.2184696791468346e-07,0.0,1.2009682532858392e-15,9.80665,8.999999999999999e-08,0.0,0.0,0.0,8.999999999999999e-08,0.0,0.0,0.0,8.999999999999999e-08
132.069,437,132,75425233,base_link,0.00875256681472778,0.0119769710551912,0.6590126982590602,-0.7519855106794344,1.0,0.0,0.0,0.0,1.0,0.0,0.0,0.0,1.0,-0.001684814807958901,0.004364365711808202,-0.01790592074394226,1.2184696791468346e-07,0.0,0.0,0.0,1.2184696791468346e-07,0.0,0.0,0.0,1.2184696791468346e-07,0.0,1.2009682532858392e-15,9.80665,8.999999999999999e-08,0.0,0.0,0.0,8.999999999999999e-08,0.0,0.0,0.0,8.999999999999999e-08
132.319,438,132,325495170,base_link,0.00827953526586729,0.011100563653549653,0.6603186170784343,-0.7508578765132444,1.0,0.0,0.0,0.0,1.0,0.0,0.0,0.0,1.0,0.0009822385618463159,0.011250150389969347,-0.012417959049344065,1.2184696791468346e-07,0.0,0.0,0.0,1.2184696791468346e-07,0.0,0.0,0.0,1.2184696791468346e-07,0.0,1.2009682532858392e-15,9.80665,8.999999999999999e-08,0.0,0.0,0.0,8.999999999999999e-08,0.0,0.0,0.0,8.999999999999999e-08
132.569,439,132,575537479,base_link,0.007334338943954729,0.010048540408949994,0.661546297439525,-0.7498011274010999,1.0,0.0,0.0,0.0,1.0,0.0,0.0,0.0,1.0,0.0039033000357449055,0.010241510346531866,-0.009883796796202661,1.2184696791468346e-07,0.0,0.0,0.0,1.2184696791468346e-07,0.0,0.0,0.0,1.2184696791468346e-07,0.0,1.2009682532858392e-15,9.80665,8.999999999999999e-08,0.0,0.0,0.0,8.999999999999999e-08,0.0,0.0,0.0,8.999999999999999e-08
132.819,440,132,825601978,base_link,0.006312862362592824,0.009184557432950295,0.6626757652870892,-0.7488234917353506,1.0,0.0,0.0,0.0,1.0,0.0,0.0,0.0,1.0,0.00232612993568182,0.009083967655897139,-0.011341151781380178,1.2184696791468346e-07,0.0,0.0,0.0,1.2184696791468346e-07,0.0,0.0,0.0,1.2184696791468346e-07,0.0,1.2009682532858392e-15,9.80665,8.999999999999999e-08,0.0,0.0,0.0,8.999999999999999e-08,0.0,0.0,0.0,8.999999999999999e-08
133.069,441,133,75647790,base_link,0.005431742807097671,0.008119412990878594,0.66385170265644,-0.747800433393099,1.0,0.0,0.0,0.0,1.0,0.0,0.0,0.0,1.0,0.0015842439606785774,0.01040692627429962,-0.010270854458212854,1.2184696791468346e-07,0.0,0.0,0.0,1.2184696791468346e-07,0.0,0.0,0.0,1.2184696791468346e-07,0.0,1.2009682532858392e-15,9.80665,8.999999999999999e-08,0.0,0.0,0.0,8.999999999999999e-08,0.0,0.0,0.0,8.999999999999999e-08
133.32,442,133,326709858,base_link,0.004335679064914443,0.006972278146115154,0.6648811956249948,-0.7469039998077243,1.0,0.0,0.0,0.0,1.0,0.0,0.0,0.0,1.0,-0.003022154327481985,0.013650463894009588,-0.011404536664485933,1.2184696791468346e-07,0.0,0.0,0.0,1.2184696791468346e-07,0.0,0.0,0.0,1.2184696791468346e-07,0.0,1.2009682532858392e-15,9.80665,8.999999999999999e-08,0.0,0.0,0.0,8.999999999999999e-08,0.0,0.0,0.0,8.999999999999999e-08
133.57,443,133,576750925,base_link,0.0034231438967295387,0.006013920220564641,0.6658314584087033,-0.7460700931164458,1.0,0.0,0.0,0.0,1.0,0.0,0.0,0.0,1.0,0.0023368014954030514,0.009922793135046957,-0.010521187447011473,1.2184696791468346e-07,0.0,0.0,0.0,1.2184696791468346e-07,0.0,0.0,0.0,1.2184696791468346e-07,0.0,1.2009682532858392e-15,9.80665,8.999999999999999e-08,0.0,0.0,0.0,8.999999999999999e-08,0.0,0.0,0.0,8.999999999999999e-08
133.82,444,133,826815072,base_link,0.0026347170673955227,0.00520343786235435,0.666694977817059,-0.7453078485122094,1.0,0.0,0.0,0.0,1.0,0.0,0.0,0.0,1.0,0.0014843702083453536,0.005620529875159263,-0.00928608886897564,1.2184696791468346e-07,0.0,0.0,0.0,1.2184696791468346e-07,0.0,0.0,0.0,1.2184696791468346e-07,0.0,1.2009682532858392e-15,9.80665,8.999999999999999e-08,0.0,0.0,0.0,8.999999999999999e-08,0.0,0.0,0.0,8.999999999999999e-08
134.07,445,134,76857030,base_link,0.0019348292376673087,0.004477170293499758,0.6675429128695985,-0.7445553511053129,1.0,0.0,0.0,0.0,1.0,0.0,0.0,0.0,1.0,-0.0025475951842963696,0.00583238573744893,-0.007745792623609305,1.2184696791468346e-07,0.0,0.0,0.0,1.2184696791468346e-07,0.0,0.0,0.0,1.2184696791468346e-07,0.0,1.1997672850325534e-15,9.79684335,8.999999999999999e-08,0.0,0.0,0.0,8.999999999999999e-08,0.0,0.0,0.0,8.999999999999999e-08
134.32,446,134,326917268,base_link,0.0013960733001302543,0.0038692521779658973,0.6683448501209331,-0.7438401986876961,1.0,0.0,0.0,0.0,1.0,0.0,0.0,0.0,1.0,-0.0009981142356991768,0.00785011053085327,-0.011030159890651705,1.2184696791468346e-07,0.0,0.0,0.0,1.2184696791468346e-07,0.0,0.0,0.0,1.2184696791468346e-07,0.0,1.2009682532858392e-15,9.80665,8.999999999999999e-08,0.0,0.0,0.0,8.999999999999999e-08,0.0,0.0,0.0,8.999999999999999e-08
134.57,447,134,576957123,base_link,0.001005928994822794,0.00341063937528115,0.6690341998219316,-0.7432231126078742,1.0,0.0,0.0,0.0,1.0,0.0,0.0,0.0,1.0,0.0034682436380535364,0.003944163676351308,-0.007633107714354993,1.2184696791468346e-07,0.0,0.0,0.0,1.2184696791468346e-07,0.0,0.0,0.0,1.2184696791468346e-07,0.0,1.2009682532858392e-15,9.80665,8.999999999999999e-08,0.0,0.0,0.0,8.999999999999999e-08,0.0,0.0,0.0,8.999999999999999e-08
134.82,448,134,827016463,base_link,0.0006370579736752739,0.003098253472136845,0.6696950278462434,-0.74262949352997,1.0,0.0,0.0,0.0,1.0,0.0,0.0,0.0,1.0,0.002112434245646,0.0017193283420056096,-0.007919739931821823,1.2184696791468346e-07,0.0,0.0,0.0,1.2184696791468346e-07,0.0,0.0,0.0,1.2184696791468346e-07,0.0,1.2009682532858392e-15,9.80665,8.999999999999999e-08,0.0,0.0,0.0,8.999999999999999e-08,0.0,0.0,0.0,8.999999999999999e-08
135.07,449,135,76055726,base_link,0.000405953085830337,0.002693099450071222,0.6702926254546115,-0.7420918936887858,1.0,0.0,0.0,0.0,1.0,0.0,0.0,0.0,1.0,0.0005259750178083777,0.0001897154143080108,-0.005921792238950729,1.2184696791468346e-07,0.0,0.0,0.0,1.2184696791468346e-07,0.0,0.0,0.0,1.2184696791468346e-07,0.0,1.2009682532858392e-15,9.80665,8.999999999999999e-08,0.0,0.0,0.0,8.999999999999999e-08,0.0,0.0,0.0,8.999999999999999e-08
135.32,450,135,326118679,base_link,0.00023713022728334945,0.0024822370736494377,0.6708731182901477,-0.7415679614330833,1.0,0.0,0.0,0.0,1.0,0.0,0.0,0.0,1.0,-0.001441985834389925,0.005375756882131099,-0.007410909514874221,1.2184696791468346e-07,0.0,0.0,0.0,1.2184696791468346e-07,0.0,0.0,0.0,1.2184696791468346e-07,0.0,1.2009682532858392e-15,9.80665,8.999999999999999e-08,0.0,0.0,0.0,8.999999999999999e-08,0.0,0.0,0.0,8.999999999999999e-08
135.57,451,135,576158851,base_link,4.655942046236643e-05,0.002266746530035758,0.6714049237678876,-0.7410872337536424,1.0,0.0,0.0,0.0,1.0,0.0,0.0,0.0,1.0,-0.0011687835212796926,5.889136809855659e-05,-0.003325359895825386,1.2184696791468346e-07,0.0,0.0,0.0,1.2184696791468346e-07,0.0,0.0,0.0,1.2184696791468346e-07,0.0,1.2009682532858392e-15,9.80665,8.999999999999999e-08,0.0,0.0,0.0,8.999999999999999e-08,0.0,0.0,0.0,8.999999999999999e-08
135.82,452,135,826216428,base_link,-6.317272921804856e-05,0.0021947486469943104,0.6719040379296564,-0.7406349592757592,1.0,0.0,0.0,0.0,1.0,0.0,0.0,0.0,1.0,0.0030611203983426094,-0.0022112473379820594,-0.007090561091899872,1.2184696791468346e-07,0.0,0.0,0.0,1.2184696791468346e-07,0.0,0.0,0.0,1.2184696791468346e-07,0.0,1.2009682532858392e-15,9.80665,8.999999999999999e-08,0.0,0.0,0.0,8.999999999999999e-08,0.0,0.0,0.0,8.999999999999999e-08
136.07,453,136,76261439,base_link,-0.00016741999692614236,0.0021732565115598038,0.6724095722529564,-0.740176070992082,1.0,0.0,0.0,0.0,1.0,0.0,0.0,0.0,1.0,0.0047070798464119434,-0.001012862194329501,-0.006890211254358292,1.2184696791468346e-07,0.0,0.0,0.0,1.2184696791468346e-07,0.0,0.0,0.0,1.2184696791468346e-07,0.0,1.2009682532858392e-15,9.80665,8.999999999999999e-08,0.0,0.0,0.0,8.999999999999999e-08,0.0,0.0,0.0,8.999999999999999e-08
136.32,454,136,326322651,base_link,-0.00036040025096191746,0.0019846853463246906,0.672831232618748,-0.7397932573013025,1.0,0.0,0.0,0.0,1.0,0.0,0.0,0.0,1.0,0.0011227907380089164,0.00474526360630989,-0.004173894412815572,1.2184696791468346e-07,0.0,0.0,0.0,1.2184696791468346e-07,0.0,0.0,0.0,1.2184696791468346e-07,0.0,1.2009682532858392e-15,9.80665,8.999999999999999e-08,0.0,0.0,0.0,8.999999999999999e-08,0.0,0.0,0.0,8.999999999999999e-08
136.57,455,136,576363170,base_link,-0.000601562116609576,0.0017755651328911208,0.673235140316379,-0.7394260824008471,1.0,0.0,0.0,0.0,1.0,0.0,0.0,0.0,1.0,0.0021877847611904144,0.0005151157965883604,-0.007415788248181343,1.2184696791468346e-07,0.0,0.0,0.0,1.2184696791468346e-07,0.0,0.0,0.0,1.2184696791468346e-07,0.0,1.2009682532858392e-15,9.80665,8.999999999999999e-08,0.0,0.0,0.0,8.999999999999999e-08,0.0,0.0,0.0,8.999999999999999e-08
136.82,456,136,826423526,base_link,-0.0008881290208452342,0.0018750730858872419,0.6736135344693687,-0.7390808491007255,1.0,0.0,0.0,0.0,1.0,0.0,0.0,0.0,1.0,0.0021419504191726446,-0.0009182376088574534,-0.004474245011806488,1.2184696791468346e-07,0.0,0.0,0.0,1.2184696791468346e-07,0.0,0.0,0.0,1.2184696791468346e-07,0.0,1.2009682532858392e-15,9.80665,8.999999999999999e-08,0.0,0.0,0.0,8.999999999999999e-08,0.0,0.0,0.0,8.999999999999999e-08
137.07,457,137,76467607,base_link,-0.001018094394596049,0.0018362267835354664,0.6740060452440988,-0.7387228456799025,1.0,0.0,0.0,0.0,1.0,0.0,0.0,0.0,1.0,-0.0023454520851373672,-0.0007162382826209078,-0.007659145165234804,1.2184696791468346e-07,0.0,0.0,0.0,1.2184696791468346e-07,0.0,0.0,0.0,1.2184696791468346e-07,0.0,1.2009682532858392e-15,9.80665,8.999999999999999e-08,0.0,0.0,0.0,8.999999999999999e-08,0.0,0.0,0.0,8.999999999999999e-08
137.32,458,137,326522619,base_link,-0.0012124677123702147,0.0017444378219940641,0.674328872011348,-0.7384281002444548,1.0,0.0,0.0,0.0,1.0,0.0,0.0,0.0,1.0,0.0006054779514670372,0.0031390329822897907,-0.0025639184750616555,1.2184696791468346e-07,0.0,0.0,0.0,1.2184696791468346e-07,0.0,0.0,0.0,1.2184696791468346e-07,0.0,1.202169221539125e-15,9.81645665,8.999999999999999e-08,0.0,0.0,0.0,8.999999999999999e-08,0.0,0.0,0.0,8.999999999999999e-08
137.57,459,137,576562012,base_link,-0.0012911067199290348,0.0015385901783159911,0.6747150968299693,-0.7380755407771119,1.0,0.0,0.0,0.0,1.0,0.0,0.0,0.0,1.0,0.0006032250821590424,3.857922274619286e-05,-0.004483729600906372,1.2184696791468346e-07,0.0,0.0,0.0,1.2184696791468346e-07,0.0,0.0,0.0,1.2184696791468346e-07,0.0,1.2009682532858392e-15,9.80665,8.999999999999999e-08,0.0,0.0,0.0,8.999999999999999e-08,0.0,0.0,0.0,8.999999999999999e-08
137.82,460,137,826620691,base_link,-0.0013598818189497054,0.0013996816659961721,0.674977374665602,-0.7378358457693716,1.0,0.0,0.0,0.0,1.0,0.0,0.0,0.0,1.0,-0.00018211244605481625,0.00011220586020499423,-0.0036471399944275618,1.2184696791468346e-07,0.0,0.0,0.0,1.2184696791468346e-07,0.0,0.0,0.0,1.2184696791468346e-07,0.0,1.202169221539125e-15,9.81645665,8.999999999999999e-08,0.0,0.0,0.0,8.999999999999999e-08,0.0,0.0,0.0,8.999999999999999e-08
138.07,461,138,76665160,base_link,-0.0015092452702939547,0.0011622313929616486,0.6752375218201361,-0.7375978989416282,1.0,0.0,0.0,0.0,1.0,0.0,0.0,0.0,1.0,-0.0005695789586752653,0.0016418467275798319,-0.002170646097511053,1.2184696791468346e-07,0.0,0.0,0.0,1.2184696791468346e-07,0.0,0.0,0.0,1.2184696791468346e-07,0.0,1.2009682532858392e-15,9.80665,8.999999999999999e-08,0.0,0.0,0.0,8.999999999999999e-08,0.0,0.0,0.0,8.999999999999999e-08
138.32,462,138,326720015,base_link,-0.0015110363858256385,0.0010218016565938304,0.6754783770387306,-0.7373775388791943,1.0,0.0,0.0,0.0,1.0,0.0,0.0,0.0,1.0,-0.002336923498660326,0.0002991127548739309,-0.003797185141593218,1.2184696791468346e-07,0.0,0.0,0.0,1.2184696791468346e-07,0.0,0.0,0.0,1.2184696791468346e-07,0.0,1.2009682532858392e-15,9.80665,8.999999999999999e-08,0.0,0.0,0.0,8.999999999999999e-08,0.0,0.0,0.0,8.999999999999999e-08
138.57,463,138,576758310,base_link,-0.0013056326742776148,0.0009454955788626572,0.6757233449126747,-0.7371535542215452,1.0,0.0,0.0,0.0,1.0,0.0,0.0,0.0,1.0,-0.009855124168097973,-0.0017347311368212108,-0.0035410423297435045,1.2184696791468346e-07,0.0,0.0,0.0,1.2184696791468346e-07,0.0,0.0,0.0,1.2184696791468346e-07,0.0,1.2009682532858392e-15,9.80665,8.999999999999999e-08,0.0,0.0,0.0,8.999999999999999e-08,0.0,0.0,0.0,8.999999999999999e-08
138.82,464,138,826815352,base_link,0.028903182617092425,-0.029089810510283594,0.6475138977509349,-0.7609494997557135,1.0,0.0,0.0,0.0,1.0,0.0,0.0,0.0,1.0,-0.5238934755325317,0.0401957146823407,0.6195304989814758,1.2184696791468346e-07,0.0,0.0,0.0,1.2184696791468346e-07,0.0,0.0,0.0,1.2184696791468346e-07,0.0,1.2009682532858392e-15,9.80665,8.999999999999999e-08,0.0,0.0,0.0,8.999999999999999e-08,0.0,0.0,0.0,8.999999999999999e-08
139.07,465,139,76859655,base_link,0.07118698583328964,-0.08712174507039053,0.5694196521889704,-0.8143116567290762,1.0,0.0,0.0,0.0,1.0,0.0,0.0,0.0,1.0,-0.556388258934021,0.15162430703639995,0.8277187347412109,1.2184696791468346e-07,0.0,0.0,0.0,1.2184696791468346e-07,0.0,0.0,0.0,1.2184696791468346e-07,0.0,1.2033701897924109e-15,9.8262633,8.999999999999999e-08,0.0,0.0,0.0,8.999999999999999e-08,0.0,0.0,0.0,8.999999999999999e-08
139.321,466,139,327918895,base_link,0.07522232846095173,-0.118005927781037,0.4742774814265649,-0.8691818411133102,1.0,0.0,0.0,0.0,1.0,0.0,0.0,0.0,1.0,0.09092306345701218,-0.0437893010675906,0.9175665378570557,1.2184696791468346e-07,0.0,0.0,0.0,1.2184696791468346e-07,0.0,0.0,0.0,1.2184696791468346e-07,0.0,1.2249876183515559e-15,10.002783,8.999999999999999e-08,0.0,0.0,0.0,8.999999999999999e-08,0.0,0.0,0.0,8.999999999999999e-08
139.571,467,139,577957622,base_link,0.034642332606863155,-0.0716175335828567,0.36847974484124985,-0.9262254128001407,1.0,0.0,0.0,0.0,1.0,0.0,0.0,0.0,1.0,0.4880935847759247,-0.44599923491477955,0.998444676399231,1.2184696791468346e-07,0.0,0.0,0.0,1.2184696791468346e-07,0.0,0.0,0.0,1.2184696791468346e-07,0.0,1.2490069834172728e-15,10.198916,8.999999999999999e-08,0.0,0.0,0.0,8.999999999999999e-08,0.0,0.0,0.0,8.999999999999999e-08
139.821,468,139,828014569,base_link,0.002929467039844868,-0.0075739612569731335,0.2467106371048115,-0.9690551660628399,1.0,0.0,0.0,0.0,1.0,0.0,0.0,0.0,1.0,0.26552292704582214,-0.386472463607788,1.052854299545288,1.2184696791468346e-07,0.0,0.0,0.0,1.2184696791468346e-07,0.0,0.0,0.0,1.2184696791468346e-07,-0.00980665,1.2273895548581276e-15,10.0223963,8.999999999999999e-08,0.0,0.0,0.0,8.999999999999999e-08,0.0,0.0,0.0,8.999999999999999e-08
140.071,469,140,78058396,base_link,-0.007968350114631647,0.03191145617510492,0.11620367505962254,-0.992680648680064,1.0,0.0,0.0,0.0,1.0,0.0,0.0,0.0,1.0,0.08282361179590225,-0.19470782577991474,1.0182578563690186,1.2184696791468346e-07,0.0,0.0,0.0,1.2184696791468346e-07,0.0,0.0,0.0,1.2184696791468346e-07,-0.00980665,1.2093750310588401e-15,9.87529655,8.999999999999999e-08,0.0,0.0,0.0,8.999999999999999e-08,0.0,0.0,0.0,8.999999999999999e-08
140.321,470,140,328117560,base_link,-0.007199147799042964,0.04545960535372108,0.023067794286607216,-0.99867385738228,1.0,0.0,0.0,0.0,1.0,0.0,0.0,0.0,1.0,0.005316347349435091,-0.04226462170481675,0.5601596236228943,1.2184696791468346e-07,0.0,0.0,0.0,1.2184696791468346e-07,0.0,0.0,0.0,1.2184696791468346e-07,-0.00980665,1.2045711580456967e-15,9.83606995,8.999999999999999e-08,0.0,0.0,0.0,8.999999999999999e-08,0.0,0.0,0.0,8.999999999999999e-08
140.571,471,140,578150743,base_link,-0.00394072859006255,0.04472007420203103,-0.02747371302725304,-0.9986139297616675,1.0,0.0,0.0,0.0,1.0,0.0,0.0,0.0,1.0,-0.010843126103281975,0.0429610796272755,0.29889705777168274,1.2184696791468346e-07,0.0,0.0,0.0,1.2184696791468346e-07,0.0,0.0,0.0,1.2184696791468346e-07,-0.00980665,1.202169221539125e-15,9.81645665,8.999999999999999e-08,0.0,0.0,0.0,8.999999999999999e-08,0.0,0.0,0.0,8.999999999999999e-08
140.821,472,140,827206133,base_link,-0.001439899377378645,0.037442327338705214,-0.05418283366739218,-0.997827750340216,1.0,0.0,0.0,0.0,1.0,0.0,0.0,0.0,1.0,-0.011973854154348373,0.07631954550743104,0.1579960435628891,1.2184696791468346e-07,0.0,0.0,0.0,1.2184696791468346e-07,0.0,0.0,0.0,1.2184696791468346e-07,-0.00980665,1.1997672850325534e-15,9.79684335,8.999999999999999e-08,0.0,0.0,0.0,8.999999999999999e-08,0.0,0.0,0.0,8.999999999999999e-08
141.071,473,141,77241802,base_link,-0.00027247670916700497,0.028910238908146906,-0.06817512443805263,-0.9972543688801632,1.0,0.0,0.0,0.0,1.0,0.0,0.0,0.0,1.0,0.003564932383596897,0.07061326503753663,0.08198437839746474,1.2184696791468346e-07,0.0,0.0,0.0,1.2184696791468346e-07,0.0,0.0,0.0,1.2184696791468346e-07,-0.00980665,1.1997672850325534e-15,9.79684335,8.999999999999999e-08,0.0,0.0,0.0,8.999999999999999e-08,0.0,0.0,0.0,8.999999999999999e-08
141.321,474,141,327296430,base_link,4.1923075413138873e-05,0.021576409543598005,-0.07504116902248131,-0.9969469794053253,1.0,0.0,0.0,0.0,1.0,0.0,0.0,0.0,1.0,0.004658043384552002,0.05053358897566796,0.038380622863769524,1.2184696791468346e-07,0.0,0.0,0.0,1.2184696791468346e-07,0.0,0.0,0.0,1.2184696791468346e-07,-0.00980665,1.2009682532858392e-15,9.80665,8.999999999999999e-08,0.0,0.0,0.0,8.999999999999999e-08,0.0,0.0,0.0,8.999999999999999e-08
141.571,475,141,577331593,base_link,0.00039062262190178926,0.016242495957580167,-0.07777407058853691,-0.9968386141613519,1.0,0.0,0.0,0.0,1.0,0.0,0.0,0.0,1.0,-0.004576884210109711,0.034826137125492096,0.010940783657133576,1.2184696791468346e-07,0.0,0.0,0.0,1.2184696791468346e-07,0.0,0.0,0.0,1.2184696791468346e-07,0.0,1.202169221539125e-15,9.81645665,8.999999999999999e-08,0.0,0.0,0.0,8.999999999999999e-08,0.0,0.0,0.0,8.999999999999999e-08
141.821,476,141,827385469,base_link,0.0008713367748545397,0.01317932474660268,-0.07822299073101929,-0.9968483886191235,1.0,0.0,0.0,0.0,1.0,0.0,0.0,0.0,1.0,-0.00214556185528636,0.01796158403158188,-0.0030965027399361155,1.2184696791468346e-07,0.0,0.0,0.0,1.2184696791468346e-07,0.0,0.0,0.0,1.2184696791468346e-07,0.0,1.202169221539125e-15,9.81645665,8.999999999999999e-08,0.0,0.0,0.0,8.999999999999999e-08,0.0,0.0,0.0,8.999999999999999e-08
142.071,477,142,77427263,base_link,0.0012747559523621868,0.011974189598878407,-0.07724926265520016,-0.9969390880088613,1.0,0.0,0.0,0.0,1.0,0.0,0.0,0.0,1.0,-0.0005891103064641356,0.004645440261811016,-0.011083152145147324,1.2184696791468346e-07,0.0,0.0,0.0,1.2184696791468346e-07,0.0,0.0,0.0,1.2184696791468346e-07,0.0,1.202169221539125e-15,9.81645665,8.999999999999999e-08,0.0,0.0,0.0,8.999999999999999e-08,0.0,0.0,0.0,8.999999999999999e-08
142.321,478,142,327475897,base_link,0.0014728500470161826,0.011943319221652426,-0.07567541407674644,-0.9970598876411696,1.0,0.0,0.0,0.0,1.0,0.0,0.0,0.0,1.0,0.0012200236087664962,-0.0011303860228508733,-0.01785898581147194,1.2184696791468346e-07,0.0,0.0,0.0,1.2184696791468346e-07,0.0,0.0,0.0,1.2184696791468346e-07,0.0,1.2033701897924109e-15,9.8262633,8.999999999999999e-08,0.0,0.0,0.0,8.999999999999999e-08,0.0,0.0,0.0,8.999999999999999e-08
142.571,479,142,577507071,base_link,0.0014003277300210196,0.012437331733622351,-0.0738022815503333,-0.9971943517186415,1.0,0.0,0.0,0.0,1.0,0.0,0.0,0.0,1.0,0.0017917635850608349,-0.004528374411165717,-0.019285427406430244,1.2184696791468346e-07,0.0,0.0,0.0,1.2184696791468346e-07,0.0,0.0,0.0,1.2184696791468346e-07,0.0,1.202169221539125e-15,9.81645665,8.999999999999999e-08,0.0,0.0,0.0,8.999999999999999e-08,0.0,0.0,0.0,8.999999999999999e-08
142.821,480,142,827553474,base_link,0.001330133339625342,0.012963523320361702,-0.07173826190266352,-0.9973383576237335,1.0,0.0,0.0,0.0,1.0,0.0,0.0,0.0,1.0,-0.002271861070767045,-0.005692009814083579,-0.01991749368607998,1.2184696791468346e-07,0.0,0.0,0.0,1.2184696791468346e-07,0.0,0.0,0.0,1.2184696791468346e-07,0.0,1.202169221539125e-15,9.81645665,8.999999999999999e-08,0.0,0.0,0.0,8.999999999999999e-08,0.0,0.0,0.0,8.999999999999999e-08
143.071,481,143,77588293,base_link,0.001068582433750942,0.013334874029029997,-0.06956315077076053,-0.9974878482072133,1.0,0.0,0.0,0.0,1.0,0.0,0.0,0.0,1.0,0.0035986551083624363,-0.001456956379115584,-0.019021382555365562,1.2184696791468346e-07,0.0,0.0,0.0,1.2184696791468346e-07,0.0,0.0,0.0,1.2184696791468346e-07,0.0,1.2009682532858392e-15,9.80665,8.999999999999999e-08,0.0,0.0,0.0,8.999999999999999e-08,0.0,0.0,0.0,8.999999999999999e-08
143.321,482,143,327633977,base_link,0.0007676445521603955,0.013267125026022829,-0.06751343132595533,-0.9976298565630346,1.0,0.0,0.0,0.0,1.0,0.0,0.0,0.0,1.0,6.956956349313259e-05,0.0020901146344840505,-0.016431551426649094,1.2184696791468346e-07,0.0,0.0,0.0,1.2184696791468346e-07,0.0,0.0,0.0,1.2184696791468346e-07,0.0,1.2009682532858392e-15,9.80665,8.999999999999999e-08,0.0,0.0,0.0,8.999999999999999e-08,0.0,0.0,0.0,8.999999999999999e-08
143.571,483,143,577665692,base_link,0.00020514621844199124,0.012930448835223755,-0.06559383613405151,-0.9977626020598125,1.0,0.0,0.0,0.0,1.0,0.0,0.0,0.0,1.0,0.002504827920347452,0.001970638986676929,-0.016820833086967468,1.2184696791468346e-07,0.0,0.0,0.0,1.2184696791468346e-07,0.0,0.0,0.0,1.2184696791468346e-07,0.0,1.2009682532858392e-15,9.80665,8.999999999999999e-08,0.0,0.0,0.0,8.999999999999999e-08,0.0,0.0,0.0,8.999999999999999e-08
143.821,484,143,827710668,base_link,-1.0921452601396619e-05,0.012276663447474198,-0.06371799691127017,-0.9978924292151607,1.0,0.0,0.0,0.0,1.0,0.0,0.0,0.0,1.0,0.002074276562780142,0.004470236133784054,-0.014702094718813896,1.2184696791468346e-07,0.0,0.0,0.0,1.2184696791468346e-07,0.0,0.0,0.0,1.2184696791468346e-07,0.0,1.2009682532858392e-15,9.80665,8.999999999999999e-08,0.0,0.0,0.0,8.999999999999999e-08,0.0,0.0,0.0,8.999999999999999e-08
144.071,485,144,77740415,base_link,-9.610257633076552e-05,0.011288172733000385,-0.06195890055068448,-0.9980148608929604,1.0,0.0,0.0,0.0,1.0,0.0,0.0,0.0,1.0,0.0026794737204909325,0.006850516423583029,-0.016340767964720726,1.2184696791468346e-07,0.0,0.0,0.0,1.2184696791468346e-07,0.0,0.0,0.0,1.2184696791468346e-07,0.0,1.2009682532858392e-15,9.80665,8.999999999999999e-08,0.0,0.0,0.0,8.999999999999999e-08,0.0,0.0,0.0,8.999999999999999e-08
144.321,486,144,327784694,base_link,-0.00039043839350959335,0.01010220373397805,-0.060331551738680045,-0.9981271947514411,1.0,0.0,0.0,0.0,1.0,0.0,0.0,0.0,1.0,0.005944536067545414,0.011450209654867647,-0.013634201139211656,1.2184696791468346e-07,0.0,0.0,0.0,1.2184696791468346e-07,0.0,0.0,0.0,1.2184696791468346e-07,0.0,1.1997672850325534e-15,9.79684335,8.999999999999999e-08,0.0,0.0,0.0,8.999999999999999e-08,0.0,0.0,0.0,8.999999999999999e-08
144.571,487,144,577815485,base_link,-0.0004082982766750571,0.008828561326999633,-0.058744006454679865,-0.9982339562963511,1.0,0.0,0.0,0.0,1.0,0.0,0.0,0.0,1.0,-0.002131268847733736,0.00799787975847721,-0.011775052174925806,1.2184696791468346e-07,0.0,0.0,0.0,1.2184696791468346e-07,0.0,0.0,0.0,1.2184696791468346e-07,0.0,1.2009682532858392e-15,9.80665,8.999999999999999e-08,0.0,0.0,0.0,8.999999999999999e-08,0.0,0.0,0.0,8.999999999999999e-08
144.821,488,144,827859079,base_link,-0.0005204269365281606,0.0077542417286927436,-0.05728661524806211,-0.9983275237137547,1.0,0.0,0.0,0.0,1.0,0.0,0.0,0.0,1.0,0.002142115030437708,0.006928829476237295,-0.013146528974175453,1.2184696791468346e-07,0.0,0.0,0.0,1.2184696791468346e-07,0.0,0.0,0.0,1.2184696791468346e-07,0.0,1.2009682532858392e-15,9.80665,8.999999999999999e-08,0.0,0.0,0.0,8.999999999999999e-08,0.0,0.0,0.0,8.999999999999999e-08
145.071,489,145,77887913,base_link,-0.0006933092435555091,0.006707798323101553,-0.05592532852326859,-0.9984121806115518,1.0,0.0,0.0,0.0,1.0,0.0,0.0,0.0,1.0,0.001820430625230074,0.006705794949084519,-0.011288464069366455,1.2184696791468346e-07,0.0,0.0,0.0,1.2184696791468346e-07,0.0,0.0,0.0,1.2184696791468346e-07,0.0,1.2009682532858392e-15,9.80665,8.999999999999999e-08,0.0,0.0,0.0,8.999999999999999e-08,0.0,0.0,0.0,8.999999999999999e-08
145.322,490,145,328930835,base_link,-0.0010423311954537353,0.005696917698698261,-0.054620225016291823,-0.9984904054088769,1.0,0.0,0.0,0.0,1.0,0.0,0.0,0.0,1.0,0.0009826987516134977,0.010532084852457045,-0.00962027069181204,1.2184696791468346e-07,0.0,0.0,0.0,1.2184696791468346e-07,0.0,0.0,0.0,1.2184696791468346e-07,0.0,1.2009682532858392e-15,9.80665,8.999999999999999e-08,0.0,0.0,0.0,8.999999999999999e-08,0.0,0.0,0.0,8.999999999999999e-08
145.572,491,145,578960727,base_link,-0.0012583934367215582,0.004667237403255525,-0.05346483774187333,-0.9985580325981136,1.0,0.0,0.0,0.0,1.0,0.0,0.0,0.0,1.0,0.0009978307643905282,0.00865576323121786,-0.013083453290164472,1.2184696791468346e-07,0.0,0.0,0.0,1.2184696791468346e-07,0.0,0.0,0.0,1.2184696791468346e-07,0.0,1.2009682532858392e-15,9.80665,8.999999999999999e-08,0.0,0.0,0.0,8.999999999999999e-08,0.0,0.0,0.0,8.999999999999999e-08
145.822,492,145,829002987,base_link,-0.0010672913564213568,0.003755362856467377,-0.052351995374339044,-0.9986210626255096,1.0,0.0,0.0,0.0,1.0,0.0,0.0,0.0,1.0,-0.0021241595968604088,0.002439279109239577,-0.00996263138949871,1.2184696791468346e-07,0.0,0.0,0.0,1.2184696791468346e-07,0.0,0.0,0.0,1.2184696791468346e-07,0.0,1.2009682532858392e-15,9.80665,8.999999999999999e-08,0.0,0.0,0.0,8.999999999999999e-08,0.0,0.0,0.0,8.999999999999999e-08
146.072,493,146,79035068,base_link,-0.001024031561480178,0.0032366388067324513,-0.05131712822594742,-0.9986766382965196,1.0,0.0,0.0,0.0,1.0,0.0,0.0,0.0,1.0,-0.003132673678919673,0.002370893256738781,-0.007986275479197502,1.2184696791468346e-07,0.0,0.0,0.0,1.2184696791468346e-07,0.0,0.0,0.0,1.2184696791468346e-07,0.0,1.1997672850325534e-15,9.79684335,8.999999999999999e-08,0.0,0.0,0.0,8.999999999999999e-08,0.0,0.0,0.0,8.999999999999999e-08
146.322,494,146,329076677,base_link,-0.0010203104463942301,0.0026901085183130267,-0.05034390260317262,-0.9987277976272788,1.0,0.0,0.0,0.0,1.0,0.0,0.0,0.0,1.0,-0.002058054320514202,0.005835558753460645,-0.008907322771847248,1.2184696791468346e-07,0.0,0.0,0.0,1.2184696791468346e-07,0.0,0.0,0.0,1.2184696791468346e-07,0.0,1.2009682532858392e-15,9.80665,8.999999999999999e-08,0.0,0.0,0.0,8.999999999999999e-08,0.0,0.0,0.0,8.999999999999999e-08
146.572,495,146,579104200,base_link,-0.0010599194049902999,0.0021766142560303192,-0.049456244816806605,-0.9987733570584747,1.0,0.0,0.0,0.0,1.0,0.0,0.0,0.0,1.0,0.0006995482835918665,0.0042469510808587066,-0.009607464075088501,1.2184696791468346e-07,0.0,0.0,0.0,1.2184696791468346e-07,0.0,0.0,0.0,1.2184696791468346e-07,0.0,1.2009682532858392e-15,9.80665,8.999999999999999e-08,0.0,0.0,0.0,8.999999999999999e-08,0.0,0.0,0.0,8.999999999999999e-08
146.822,496,146,828146671,base_link,-0.0010747726417218396,0.001731069170182101,-0.048649323048833126,-0.9988138423300846,1.0,0.0,0.0,0.0,1.0,0.0,0.0,0.0,1.0,0.005009855143725872,0.0007622215198352924,-0.006735384929925203,1.2184696791468346e-07,0.0,0.0,0.0,1.2184696791468346e-07,0.0,0.0,0.0,1.2184696791468346e-07,0.0,1.2009682532858392e-15,9.80665,8.999999999999999e-08,0.0,0.0,0.0,8.999999999999999e-08,0.0,0.0,0.0,8.999999999999999e-08
147.072,497,147,78176775,base_link,-0.0011248396616247152,0.001333549249695954,-0.04781717173759542,-0.9988545812425108,1.0,0.0,0.0,0.0,1.0,0.0,0.0,0.0,1.0,0.0023164572194218636,0.001317025627940892,-0.008009176701307297,1.2184696791468346e-07,0.0,0.0,0.0,1.2184696791468346e-07,0.0,0.0,0.0,1.2184696791468346e-07,0.0,1.2009682532858392e-15,9.80665,8.999999999999999e-08,0.0,0.0,0.0,8.999999999999999e-08,0.0,0.0,0.0,8.999999999999999e-08
147.322,498,147,328220118,base_link,-0.0012469087874649196,0.0009906435047565543,-0.04708716243713684,-0.9988895149001921,1.0,0.0,0.0,0.0,1.0,0.0,0.0,0.0,1.0,0.0012207948602735996,0.003555106930434703,-0.0071899336762726316,1.2184696791468346e-07,0.0,0.0,0.0,1.2184696791468346e-07,0.0,0.0,0.0,1.2184696791468346e-07,0.0,1.2009682532858392e-15,9.80665,8.999999999999999e-08,0.0,0.0,0.0,8.999999999999999e-08,0.0,0.0,0.0,8.999999999999999e-08
147.572,499,147,578248307,base_link,-0.0013283190516643131,0.0007950826159202191,-0.04645268106587552,-0.9989192919520189,1.0,0.0,0.0,0.0,1.0,0.0,0.0,0.0,1.0,0.000663081300444901,0.0015084132319316257,-0.008824175223708153,1.2184696791468346e-07,0.0,0.0,0.0,1.2184696791468346e-07,0.0,0.0,0.0,1.2184696791468346e-07,0.0,1.2009682532858392e-15,9.80665,8.999999999999999e-08,0.0,0.0,0.0,8.999999999999999e-08,0.0,0.0,0.0,8.999999999999999e-08
147.822,500,147,828294034,base_link,-0.0016142292259667275,0.000661160923229396,-0.0458365335301123,-0.9989474307110373,1.0,0.0,0.0,0.0,1.0,0.0,0.0,0.0,1.0,0.0036032688803970814,-0.0012844876619055876,-0.007255645003169775,1.2184696791468346e-07,0.0,0.0,0.0,1.2184696791468346e-07,0.0,0.0,0.0,1.2184696791468346e-07,0.0,1.2009682532858392e-15,9.80665,8.999999999999999e-08,0.0,0.0,0.0,8.999999999999999e-08,0.0,0.0,0.0,8.999999999999999e-08
