Time,header.seq,header.stamp.secs,header.stamp.nsecs,header.frame_id,orientation.x,orientation.y,orientation.z,orientation.w,orientation_covariance_0,orientation_covariance_1,orientation_covariance_2,orientation_covariance_3,orientation_covariance_4,orientation_covariance_5,orientation_covariance_6,orientation_covariance_7,orientation_covariance_8,angular_velocity.x,angular_velocity.y,angular_velocity.z,angular_velocity_covariance_0,angular_velocity_covariance_1,angular_velocity_covariance_2,angular_velocity_covariance_3,angular_velocity_covariance_4,angular_velocity_covariance_5,angular_velocity_covariance_6,angular_velocity_covariance_7,angular_velocity_covariance_8,linear_acceleration.x,linear_acceleration.y,linear_acceleration.z,linear_acceleration_covariance_0,linear_acceleration_covariance_1,linear_acceleration_covariance_2,linear_acceleration_covariance_3,linear_acceleration_covariance_4,linear_acceleration_covariance_5,linear_acceleration_covariance_6,linear_acceleration_covariance_7,linear_acceleration_covariance_8
114.829,368,114,829000000,base_link,0.00047056724792880815,-0.0009297877934753608,-0.9306398858091309,0.3659348534948431,1.0,0.0,0.0,0.0,1.0,0.0,0.0,0.0,1.0,0.0002913709031417966,-9.412120562046776e-05,-0.0007843764033168554,1.2184696791468346e-07,0.0,0.0,0.0,1.2184696791468346e-07,0.0,0.0,0.0,1.2184696791468346e-07,0.0392266,1.1997672850325534e-15,9.79684335,8.999999999999999e-08,0.0,0.0,0.0,8.999999999999999e-08,0.0,0.0,0.0,8.999999999999999e-08
115.089,369,115,89000000,base_link,0.00046688099449717523,-0.000925961871648,-0.9306313394395068,0.3659566021672222,1.0,0.0,0.0,0.0,1.0,0.0,0.0,0.0,1.0,0.0002603847533464432,-0.00010775437112897644,-0.0007995498599484563,1.2184696791468346e-07,0.0,0.0,0.0,1.2184696791468346e-07,0.0,0.0,0.0,1.2184696791468346e-07,0.04903325,1.1997672850325534e-15,9.79684335,8.999999999999999e-08,0.0,0.0,0.0,8.999999999999999e-08,0.0,0.0,0.0,8.999999999999999e-08
115.329,370,115,329000000,base_link,0.0003583037347645154,-0.0009540666222757222,-0.930621672996732,0.3659812332949293,1.0,0.0,0.0,0.0,1.0,0.0,0.0,0.0,1.0,0.00021213095169514418,-0.0009096304420381786,-0.0007773822871968149,1.2184696791468346e-07,0.0,0.0,0.0,1.2184696791468346e-07,0.0,0.0,0.0,1.2184696791468346e-07,-0.00980665,1.2009682532858392e-15,9.80665,8.999999999999999e-08,0.0,0.0,0.0,8.999999999999999e-08,0.0,0.0,0.0,8.999999999999999e-08
115.589,371,115,589000000,base_link,0.00028108842887725237,-0.0009734728300581494,-0.9306113964271254,0.36600737995278193,1.0,0.0,0.0,0.0,1.0,0.0,0.0,0.0,1.0,0.0002460379619151354,-0.0002702503697946669,-0.0007974015898071229,1.2184696791468346e-07,0.0,0.0,0.0,1.2184696791468346e-07,0.0,0.0,0.0,1.2184696791468346e-07,0.24516625,-0.009806649999998807,9.7478101,8.999999999999999e-08,0.0,0.0,0.0,8.999999999999999e-08,0.0,0.0,0.0,8.999999999999999e-08
115.829,372,115,829000000,base_link,0.00019347466855082823,-0.0009972222158760855,-0.9306016311957992,0.36603220094839023,1.0,0.0,0.0,0.0,1.0,0.0,0.0,0.0,1.0,0.0002402779646217823,-0.0005239516030997039,-0.0007889895932748913,1.2184696791468346e-07,0.0,0.0,0.0,1.2184696791468346e-07,0.0,0.0,0.0,1.2184696791468346e-07,0.0,1.2009682532858392e-15,9.80665,8.999999999999999e-08,0.0,0.0,0.0,8.999999999999999e-08,0.0,0.0,0.0,8.999999999999999e-08
116.09,373,116,90000000,base_link,0.00017977967538558307,-0.0009958157758978186,-0.9305909400187591,0.36605939188226205,1.0,0.0,0.0,0.0,1.0,0.0,0.0,0.0,1.0,0.00026609585620462894,0.00011511764023452988,-0.0007951915613375604,1.2184696791468346e-07,0.0,0.0,0.0,1.2184696791468346e-07,0.0,0.0,0.0,1.2184696791468346e-07,0.02941995,1.1997672850325534e-15,9.79684335,8.999999999999999e-08,0.0,0.0,0.0,8.999999999999999e-08,0.0,0.0,0.0,8.999999999999999e-08
116.334,374,116,330000000,base_link,8.412253756071765e-05,-0.0010236238935692219,-0.9305791515593622,0.36608931669823486,1.0,0.0,0.0,0.0,1.0,0.0,0.0,0.0,1.0,0.00024762179236859083,-0.0008400499355047942,-0.0007778473664075135,1.2184696791468346e-07,0.0,0.0,0.0,1.2184696791468346e-07,0.0,0.0,0.0,1.2184696791468346e-07,0.0784532,1.1985663167792674e-15,9.7870367,8.999999999999999e-08,0.0,0.0,0.0,8.999999999999999e-08,0.0,0.0,0.0,8.999999999999999e-08
116.59,375,116,590000000,base_link,-7.5976968468469405e-06,-0.0010473924488813644,-0.930566879620262,0.36612045212626665,1.0,0.0,0.0,0.0,1.0,0.0,0.0,0.0,1.0,0.0002300090854987502,-0.0006447606720030309,-0.0007913456065580248,1.2184696791468346e-07,0.0,0.0,0.0,1.2184696791468346e-07,0.0,0.0,0.0,1.2184696791468346e-07,0.0196133,1.1997672850325534e-15,9.79684335,8.999999999999999e-08,0.0,0.0,0.0,8.999999999999999e-08,0.0,0.0,0.0,8.999999999999999e-08
116.83,376,116,830000000,base_link,-6.317827885339694e-05,-0.0010574856891440191,-0.9305542360190986,0.3661525523049568,1.0,0.0,0.0,0.0,1.0,0.0,0.0,0.0,1.0,0.0001867606770247221,-0.0008927985327318312,-0.0007525134133175014,1.2184696791468346e-07,0.0,0.0,0.0,1.2184696791468346e-07,0.0,0.0,0.0,1.2184696791468346e-07,0.12748645,1.1973653485259817e-15,9.77723005,8.999999999999999e-08,0.0,0.0,0.0,8.999999999999999e-08,0.0,0.0,0.0,8.999999999999999e-08
117.092,377,117,92000000,base_link,-0.0001482354826132198,-0.0010809670271799859,-0.9305413855597975,0.3661851161598192,1.0,0.0,0.0,0.0,1.0,0.0,0.0,0.0,1.0,0.0002229890087619424,-0.0009074951522052289,-0.0007730709621682762,1.2184696791468346e-07,0.0,0.0,0.0,1.2184696791468346e-07,0.0,0.0,0.0,1.2184696791468346e-07,0.10787315,1.1973653485259817e-15,9.77723005,8.999999999999999e-08,0.0,0.0,0.0,8.999999999999999e-08,0.0,0.0,0.0,8.999999999999999e-08
117.33,378,117,330000000,base_link,-0.00016784350945094916,-0.0010823151579642492,-0.930529807559645,0.3662145241050187,1.0,0.0,0.0,0.0,1.0,0.0,0.0,0.0,1.0,0.00023653614334762096,-0.0004915687022730709,-0.0007913074223324655,1.2184696791468346e-07,0.0,0.0,0.0,1.2184696791468346e-07,0.0,0.0,0.0,1.2184696791468346e-07,0.2745862,-0.009806649999998808,9.73800345,8.999999999999999e-08,0.0,0.0,0.0,8.999999999999999e-08,0.0,0.0,0.0,8.999999999999999e-08
117.59,379,117,590000000,base_link,-0.0001321009554747798,-0.001062608111358107,-0.9305175356430099,0.36624577714179746,1.0,0.0,0.0,0.0,1.0,0.0,0.0,0.0,1.0,0.00025882734917104244,-6.44985120743514e-05,-0.0007749052019789815,1.2184696791468346e-07,0.0,0.0,0.0,1.2184696791468346e-07,0.0,0.0,0.0,1.2184696791468346e-07,0.2353596,-0.009806649999998807,9.7478101,8.999999999999999e-08,0.0,0.0,0.0,8.999999999999999e-08,0.0,0.0,0.0,8.999999999999999e-08
117.83,380,117,830000000,base_link,-0.00010084729968782792,-0.0010459932916073089,-0.9305057794819567,0.3662757022770306,1.0,0.0,0.0,0.0,1.0,0.0,0.0,0.0,1.0,0.000245771836489439,9.7817974165081e-06,-0.0008061475236900151,1.2184696791468346e-07,0.0,0.0,0.0,1.2184696791468346e-07,0.0,0.0,0.0,1.2184696791468346e-07,0.26477955,-0.009806649999998807,9.7478101,8.999999999999999e-08,0.0,0.0,0.0,8.999999999999999e-08,0.0,0.0,0.0,8.999999999999999e-08
118.09,381,118,90000000,base_link,-8.074107632445456e-05,-0.0010332221336871216,-0.9304935323430206,0.3663068552466758,1.0,0.0,0.0,0.0,1.0,0.0,0.0,0.0,1.0,0.00027118693105876446,-3.894534893333922e-05,-0.0008098861435428262,1.2184696791468346e-07,0.0,0.0,0.0,1.2184696791468346e-07,0.0,0.0,0.0,1.2184696791468346e-07,-0.1569064,1.2057721262989826e-15,9.8458766,8.999999999999999e-08,0.0,0.0,0.0,8.999999999999999e-08,0.0,0.0,0.0,8.999999999999999e-08
118.33,382,118,330000000,base_link,-8.153778045725476e-05,-0.001026685515887787,-0.9304825792810554,0.3663346952213459,1.0,0.0,0.0,0.0,1.0,0.0,0.0,0.0,1.0,0.0002283216454088688,-0.0004619112005457283,-0.00079847639426589,1.2184696791468346e-07,0.0,0.0,0.0,1.2184696791468346e-07,0.0,0.0,0.0,1.2184696791468346e-07,0.1372931,1.1973653485259817e-15,9.77723005,8.999999999999999e-08,0.0,0.0,0.0,8.999999999999999e-08,0.0,0.0,0.0,8.999999999999999e-08
118.59,383,118,590000000,base_link,-7.906689011906457e-05,-0.0010209451807012871,-0.9304716254351975,0.3663625331271562,1.0,0.0,0.0,0.0,1.0,0.0,0.0,0.0,1.0,0.000250490615144372,-0.0003271070308983327,-0.0007955506443977356,1.2184696791468346e-07,0.0,0.0,0.0,1.2184696791468346e-07,0.0,0.0,0.0,1.2184696791468346e-07,0.20593965,-0.009806649999998805,9.75761675,8.999999999999999e-08,0.0,0.0,0.0,8.999999999999999e-08,0.0,0.0,0.0,8.999999999999999e-08
118.83,384,118,830000000,base_link,-7.994026521222428e-05,-0.0010156712318817526,-0.9304515839127216,0.36641344409807114,1.0,0.0,0.0,0.0,1.0,0.0,0.0,0.0,1.0,0.00020877644419670105,-0.0007200391264632344,-0.00038775004213675846,1.2184696791468346e-07,0.0,0.0,0.0,1.2184696791468346e-07,0.0,0.0,0.0,1.2184696791468346e-07,0.18632635,-0.009806649999998805,9.75761675,8.999999999999999e-08,0.0,0.0,0.0,8.999999999999999e-08,0.0,0.0,0.0,8.999999999999999e-08
119.091,385,119,91000000,base_link,-6.87254533956324e-05,-0.00100903420845753,-0.9304051563672566,0.36653133854010195,1.0,0.0,0.0,0.0,1.0,0.0,0.0,0.0,1.0,0.0002137608826160431,-0.0012284520780667663,2.3218453861773163e-05,1.2184696791468346e-07,0.0,0.0,0.0,1.2184696791468346e-07,0.0,0.0,0.0,1.2184696791468346e-07,0.75511205,-0.009806649999998808,9.7281968,8.999999999999999e-08,0.0,0.0,0.0,8.999999999999999e-08,0.0,0.0,0.0,8.999999999999999e-08
119.331,386,119,331000000,base_link,1.3747129181418162e-05,-0.0009881979157871535,-0.9304474942642287,0.3664239125566372,1.0,0.0,0.0,0.0,1.0,0.0,0.0,0.0,1.0,0.00026186066679656506,-0.0001148735173046592,-0.0025946004316210747,1.2184696791468346e-07,0.0,0.0,0.0,1.2184696791468346e-07,0.0,0.0,0.0,1.2184696791468346e-07,1.34351105,-0.019613299999998814,9.6889702,8.999999999999999e-08,0.0,0.0,0.0,8.999999999999999e-08,0.0,0.0,0.0,8.999999999999999e-08
119.591,387,119,591000000,base_link,0.00014857909842915014,-0.0009369853716548538,-0.9305230399716022,0.36623212866250876,1.0,0.0,0.0,0.0,1.0,0.0,0.0,0.0,1.0,0.000282930675894022,-0.0004659923724830154,-0.002559659769758582,1.2184696791468346e-07,0.0,0.0,0.0,1.2184696791468346e-07,0.0,0.0,0.0,1.2184696791468346e-07,1.26505785,1.1553314596609773e-15,9.4339973,8.999999999999999e-08,0.0,0.0,0.0,8.999999999999999e-08,0.0,0.0,0.0,8.999999999999999e-08
119.831,388,119,831000000,base_link,0.00033251398259750064,-0.0008510157316480416,-0.9305554425855473,0.3661498784392696,1.0,0.0,0.0,0.0,1.0,0.0,0.0,0.0,1.0,0.0003462171880528331,1.0081450454890653e-05,-0.0006058024009689689,1.2184696791468346e-07,0.0,0.0,0.0,1.2184696791468346e-07,0.0,0.0,0.0,1.2184696791468346e-07,1.24544455,1.157733396167549e-15,9.4536106,8.999999999999999e-08,0.0,0.0,0.0,8.999999999999999e-08,0.0,0.0,0.0,8.999999999999999e-08
120.091,389,120,91000000,base_link,0.0005197777016291065,-0.0007443430832042431,-0.9304317636072463,0.36646406243344587,1.0,0.0,0.0,0.0,1.0,0.0,0.0,0.0,1.0,0.00017969380132853985,-0.00037702324334532006,0.0011568497866392136,1.2184696791468346e-07,0.0,0.0,0.0,1.2184696791468346e-07,0.0,0.0,0.0,1.2184696791468346e-07,1.2748645,1.2285905231114134e-15,10.03220295,8.999999999999999e-08,0.0,0.0,0.0,8.999999999999999e-08,0.0,0.0,0.0,8.999999999999999e-08
120.331,390,120,331000000,base_link,0.0007153289969317046,-0.0006480290844743992,-0.9304051302445117,0.36653152930876914,1.0,0.0,0.0,0.0,1.0,0.0,0.0,0.0,1.0,0.00037067034281790257,-0.0001770529197528961,-0.0022220055107027292,1.2184696791468346e-07,0.0,0.0,0.0,1.2184696791468346e-07,0.0,0.0,0.0,1.2184696791468346e-07,1.1571847,1.2406002056442718e-15,10.13026945,8.999999999999999e-08,0.0,0.0,0.0,8.999999999999999e-08,0.0,0.0,0.0,8.999999999999999e-08
120.591,391,120,591000000,base_link,0.000917529720478213,-0.0005191736612791151,-0.9303233355954423,0.3667388441990998,1.0,0.0,0.0,0.0,1.0,0.0,0.0,0.0,1.0,0.00020515825599431992,-0.00023375393357127886,0.0014991149073466659,1.2184696791468346e-07,0.0,0.0,0.0,1.2184696791468346e-07,0.0,0.0,0.0,1.2184696791468346e-07,1.14737805,1.1961643802726959e-15,9.7674234,8.999999999999999e-08,0.0,0.0,0.0,8.999999999999999e-08,0.0,0.0,0.0,8.999999999999999e-08
120.831,392,120,831000000,base_link,0.0010987422036858915,-0.00039938254663755406,-0.9302490566602388,0.36692686715732203,1.0,0.0,0.0,0.0,1.0,0.0,0.0,0.0,1.0,0.0002394287148490548,-0.00011024018749594716,-0.0022383269388228655,1.2184696791468346e-07,0.0,0.0,0.0,1.2184696791468346e-07,0.0,0.0,0.0,1.2184696791468346e-07,1.1375714000000001,0.009806650000001228,10.03220295,8.999999999999999e-08,0.0,0.0,0.0,8.999999999999999e-08,0.0,0.0,0.0,8.999999999999999e-08
121.091,393,121,91000000,base_link,0.001264325609153002,-0.00026678421828098313,-0.930137234630233,0.3672098242985307,1.0,0.0,0.0,0.0,1.0,0.0,0.0,0.0,1.0,0.00019494828302413225,8.300086483359356e-05,0.0015505130868405104,1.2184696791468346e-07,0.0,0.0,0.0,1.2184696791468346e-07,0.0,0.0,0.0,1.2184696791468346e-07,1.176798,1.2946437770421345e-15,10.5715687,8.999999999999999e-08,0.0,0.0,0.0,8.999999999999999e-08,0.0,0.0,0.0,8.999999999999999e-08
121.331,394,121,331000000,base_link,0.0014006191315321698,-0.00016298415868735817,-0.9301019091904279,0.36729885682170776,1.0,0.0,0.0,0.0,1.0,0.0,0.0,0.0,1.0,0.00020868948195129633,-0.00015465589240193402,-0.0029275245033204556,1.2184696791468346e-07,0.0,0.0,0.0,1.2184696791468346e-07,0.0,0.0,0.0,1.2184696791468346e-07,0.9022118,1.2261885866048418e-15,10.01258965,8.999999999999999e-08,0.0,0.0,0.0,8.999999999999999e-08,0.0,0.0,0.0,8.999999999999999e-08
121.591,395,121,591000000,base_link,0.0014856939876707188,-6.276039023584928e-05,-0.9299784071325607,0.36761114107395276,1.0,0.0,0.0,0.0,1.0,0.0,0.0,0.0,1.0,0.0003493261756375432,-3.0038063414395045e-05,-0.0015511838719248772,1.2184696791468346e-07,0.0,0.0,0.0,1.2184696791468346e-07,0.0,0.0,0.0,1.2184696791468346e-07,0.99047165,1.2826340945092762e-15,10.4735022,8.999999999999999e-08,0.0,0.0,0.0,8.999999999999999e-08,0.0,0.0,0.0,8.999999999999999e-08
121.831,396,121,831000000,base_link,0.0015499097182864025,2.594381244572178e-05,-0.9298946695753769,0.3678226482995366,1.0,0.0,0.0,0.0,1.0,0.0,0.0,0.0,1.0,0.00015709083527326584,-0.00033410324249416584,0.0006384897278621793,1.2184696791468346e-07,0.0,0.0,0.0,1.2184696791468346e-07,0.0,0.0,0.0,1.2184696791468346e-07,0.9610517000000001,-0.009806649999998843,9.4536106,8.999999999999999e-08,0.0,0.0,0.0,8.999999999999999e-08,0.0,0.0,0.0,8.999999999999999e-08
122.092,397,122,92000000,base_link,0.0016219256528348614,0.00011708045780315324,-0.9298630142787001,0.3679023380271901,1.0,0.0,0.0,0.0,1.0,0.0,0.0,0.0,1.0,0.00013790966477245092,0.00023409479763358818,-0.0010680070845410228,1.2184696791468346e-07,0.0,0.0,0.0,1.2184696791468346e-07,0.0,0.0,0.0,1.2184696791468346e-07,0.4118793,0.009806650000001202,9.80665,8.999999999999999e-08,0.0,0.0,0.0,8.999999999999999e-08,0.0,0.0,0.0,8.999999999999999e-08
122.332,398,122,332000000,base_link,0.0016370996895742644,0.00015531639106999723,-0.9298496847236004,0.3679359449698356,1.0,0.0,0.0,0.0,1.0,0.0,0.0,0.0,1.0,0.00022201589308679104,-0.0002802920062094931,-0.003739934414625168,1.2184696791468346e-07,0.0,0.0,0.0,1.2184696791468346e-07,0.0,0.0,0.0,1.2184696791468346e-07,-0.1765197,-0.05883989999999881,9.73800345,8.999999999999999e-08,0.0,0.0,0.0,8.999999999999999e-08,0.0,0.0,0.0,8.999999999999999e-08
122.592,399,122,592000000,base_link,0.0015694659681135706,0.00016726814119341423,-0.9298065439673565,0.36804524123186816,1.0,0.0,0.0,0.0,1.0,0.0,0.0,0.0,1.0,0.00020747433882206678,0.0003546845400705931,-0.0022876791190356016,1.2184696791468346e-07,0.0,0.0,0.0,1.2184696791468346e-07,0.0,0.0,0.0,1.2184696791468346e-07,-0.3334261,-0.009806649999998853,9.36535075,8.999999999999999e-08,0.0,0.0,0.0,8.999999999999999e-08,0.0,0.0,0.0,8.999999999999999e-08
122.832,400,122,832000000,base_link,0.0013535934451844411,0.00011159494556308619,-0.9298565858364898,0.3679196720859867,1.0,0.0,0.0,0.0,1.0,0.0,0.0,0.0,1.0,0.00014121748972684145,-0.0012276691850274801,-0.0008385249529965221,1.2184696791468346e-07,0.0,0.0,0.0,1.2184696791468346e-07,0.0,0.0,0.0,1.2184696791468346e-07,-0.5491724,-0.009806649999998812,9.7085835,8.999999999999999e-08,0.0,0.0,0.0,8.999999999999999e-08,0.0,0.0,0.0,8.999999999999999e-08
123.092,401,123,92000000,base_link,0.0011291111314930826,3.3742079620995164e-05,-0.9299135548249617,0.3677764327989597,1.0,0.0,0.0,0.0,1.0,0.0,0.0,0.0,1.0,0.00021108111832290888,-0.00023782229982316527,-0.0026751141995191574,1.2184696791468346e-07,0.0,0.0,0.0,1.2184696791468346e-07,0.0,0.0,0.0,1.2184696791468346e-07,-0.0392266,0.029419950000001235,10.1008495,8.999999999999999e-08,0.0,0.0,0.0,8.999999999999999e-08,0.0,0.0,0.0,8.999999999999999e-08
123.332,402,123,332000000,base_link,0.0009047112812800094,-3.632901272197459e-05,-0.9299334124435243,0.3677268396498172,1.0,0.0,0.0,0.0,1.0,0.0,0.0,0.0,1.0,0.00015741121023893356,-0.00011950975749641699,-0.0034622722305357456,1.2184696791468346e-07,0.0,0.0,0.0,1.2184696791468346e-07,0.0,0.0,0.0,1.2184696791468346e-07,-0.2353596,1.2009682532858392e-15,9.80665,8.999999999999999e-08,0.0,0.0,0.0,8.999999999999999e-08,0.0,0.0,0.0,8.999999999999999e-08
123.592,403,123,592000000,base_link,0.0005981198362251896,-0.00012090938493565615,-0.9299867792078953,0.3675924620175275,1.0,0.0,0.0,0.0,1.0,0.0,0.0,0.0,1.0,-0.0001058939378708601,-0.0005416574422270061,-0.0006009356584399937,1.2184696791468346e-07,0.0,0.0,0.0,1.2184696791468346e-07,0.0,0.0,0.0,1.2184696791468346e-07,-0.14709975,-0.009806649999998796,9.83606995,8.999999999999999e-08,0.0,0.0,0.0,8.999999999999999e-08,0.0,0.0,0.0,8.999999999999999e-08
123.832,404,123,832000000,base_link,0.00037731547936522165,-0.00021524979077026344,-0.9302009599299178,0.36705038543232166,1.0,0.0,0.0,0.0,1.0,0.0,0.0,0.0,1.0,6.679561920464039e-05,-0.0002329624257981784,-0.005503607448190451,1.2184696791468346e-07,0.0,0.0,0.0,1.2184696791468346e-07,0.0,0.0,0.0,1.2184696791468346e-07,-0.196133,-0.1274864499999988,9.6889702,8.999999999999999e-08,0.0,0.0,0.0,8.999999999999999e-08,0.0,0.0,0.0,8.999999999999999e-08
124.092,405,124,92000000,base_link,0.00013013996964177755,-0.0003207092043002626,-0.9302947844395224,0.36681261463289,1.0,0.0,0.0,0.0,1.0,0.0,0.0,0.0,1.0,0.00022404012270271778,-0.00045906659215688765,-0.0049508120864629745,1.2184696791468346e-07,0.0,0.0,0.0,1.2184696791468346e-07,0.0,0.0,0.0,1.2184696791468346e-07,-0.1176798,-0.029419949999998828,9.5712904,8.999999999999999e-08,0.0,0.0,0.0,8.999999999999999e-08,0.0,0.0,0.0,8.999999999999999e-08
124.332,406,124,332000000,base_link,-6.994534641578416e-05,-0.00040952646380878235,-0.9303696171578371,0.36662269824071614,1.0,0.0,0.0,0.0,1.0,0.0,0.0,0.0,1.0,0.00019452418200671673,-0.0005536065436899663,-0.0008207843638956546,1.2184696791468346e-07,0.0,0.0,0.0,1.2184696791468346e-07,0.0,0.0,0.0,1.2184696791468346e-07,-0.00980665,-0.01961329999999878,9.9831697,8.999999999999999e-08,0.0,0.0,0.0,8.999999999999999e-08,0.0,0.0,0.0,8.999999999999999e-08
124.592,407,124,592000000,base_link,-0.0002166390047937682,-0.0005122914440325311,-0.9305326265593723,0.36620857654284095,1.0,0.0,0.0,0.0,1.0,0.0,0.0,0.0,1.0,0.0005746629321947694,-0.0001352436374872927,-0.003219432896003127,1.2184696791468346e-07,0.0,0.0,0.0,1.2184696791468346e-07,0.0,0.0,0.0,1.2184696791468346e-07,0.0,1.1997672850325534e-15,9.79684335,8.999999999999999e-08,0.0,0.0,0.0,8.999999999999999e-08,0.0,0.0,0.0,8.999999999999999e-08
124.832,408,124,832000000,base_link,-0.0003862259431644462,-0.000586916951108954,-0.9306734941117598,0.36585017933003805,1.0,0.0,0.0,0.0,1.0,0.0,0.0,0.0,1.0,9.703438263386488e-05,-0.000747469253838063,-0.006565664894878864,1.2184696791468346e-07,0.0,0.0,0.0,1.2184696791468346e-07,0.0,0.0,0.0,1.2184696791468346e-07,-0.1569064,0.009806650000001197,9.77723005,8.999999999999999e-08,0.0,0.0,0.0,8.999999999999999e-08,0.0,0.0,0.0,8.999999999999999e-08
125.093,409,125,93000000,base_link,-0.0004961988953935493,-0.0006493839050300732,-0.9307743614988255,0.36559324400712545,1.0,0.0,0.0,0.0,1.0,0.0,0.0,0.0,1.0,0.0001614243956282735,-0.0005299831973388792,-0.0008598222048021852,1.2184696791468346e-07,0.0,0.0,0.0,1.2184696791468346e-07,0.0,0.0,0.0,1.2184696791468346e-07,0.06864655,-0.01961329999999883,9.54187045,8.999999999999999e-08,0.0,0.0,0.0,8.999999999999999e-08,0.0,0.0,0.0,8.999999999999999e-08
125.333,410,125,333000000,base_link,-0.0005957150919224667,-0.0006779197987021888,-0.9310039917329915,0.3650078806348043,1.0,0.0,0.0,0.0,1.0,0.0,0.0,0.0,1.0,-0.00011215987615287304,-0.0005679768510162836,-0.004702372942119837,1.2184696791468346e-07,0.0,0.0,0.0,1.2184696791468346e-07,0.0,0.0,0.0,1.2184696791468346e-07,0.0588399,0.019613300000001197,9.79684335,8.999999999999999e-08,0.0,0.0,0.0,8.999999999999999e-08,0.0,0.0,0.0,8.999999999999999e-08
125.593,411,125,593000000,base_link,-0.0006473828297111604,-0.0007024199862340569,-0.9311890047832244,0.36453549192426044,1.0,0.0,0.0,0.0,1.0,0.0,0.0,0.0,1.0,8.989556226879358e-05,-0.0003421659348532567,-0.007910637184977531,1.2184696791468346e-07,0.0,0.0,0.0,1.2184696791468346e-07,0.0,0.0,0.0,1.2184696791468346e-07,0.1765197,-0.019613299999998786,9.9047165,8.999999999999999e-08,0.0,0.0,0.0,8.999999999999999e-08,0.0,0.0,0.0,8.999999999999999e-08
125.833,412,125,833000000,base_link,-0.0006609873024496558,-0.0007382839848580305,-0.9312805351783275,0.3643014999015401,1.0,0.0,0.0,0.0,1.0,0.0,0.0,0.0,1.0,0.0001445967936888337,-0.0005252320552244784,-0.0009955897694453597,1.2184696791468346e-07,0.0,0.0,0.0,1.2184696791468346e-07,0.0,0.0,0.0,1.2184696791468346e-07,0.0588399,-0.019613299999998862,9.28689755,8.999999999999999e-08,0.0,0.0,0.0,8.999999999999999e-08,0.0,0.0,0.0,8.999999999999999e-08
126.093,413,126,93000000,base_link,-0.0006741268795544217,-0.0007709941960694535,-0.931553609232326,0.36360256358712145,1.0,0.0,0.0,0.0,1.0,0.0,0.0,0.0,1.0,0.0003322070697322488,-0.0005773217417299752,-0.0036882683634757996,1.2184696791468346e-07,0.0,0.0,0.0,1.2184696791468346e-07,0.0,0.0,0.0,1.2184696791468346e-07,0.00980665,0.0196133000000012,9.80665,8.999999999999999e-08,0.0,0.0,0.0,8.999999999999999e-08,0.0,0.0,0.0,8.999999999999999e-08
126.333,414,126,333000000,base_link,-0.0006692948686243637,-0.0007980826628727724,-0.9318075287351938,0.36295129769826245,1.0,0.0,0.0,0.0,1.0,0.0,0.0,0.0,1.0,0.0002734368899837136,-0.00042816868517547976,-0.010613879188895226,1.2184696791468346e-07,0.0,0.0,0.0,1.2184696791468346e-07,0.0,0.0,0.0,1.2184696791468346e-07,0.0196133,1.1925614755128384e-15,9.73800345,8.999999999999999e-08,0.0,0.0,0.0,8.999999999999999e-08,0.0,0.0,0.0,8.999999999999999e-08
126.593,415,126,593000000,base_link,-0.000636263421421835,-0.0008100634842501571,-0.9319808455557268,0.36250605854694673,1.0,0.0,0.0,0.0,1.0,0.0,0.0,0.0,1.0,0.00019971455913037062,-0.0004291739314794545,-0.0033318435307592154,1.2184696791468346e-07,0.0,0.0,0.0,1.2184696791468346e-07,0.0,0.0,0.0,1.2184696791468346e-07,0.0196133,1.19496341201941e-15,9.75761675,8.999999999999999e-08,0.0,0.0,0.0,8.999999999999999e-08,0.0,0.0,0.0,8.999999999999999e-08
126.833,416,126,833000000,base_link,-0.0005984246896492653,-0.000820652232922865,-0.9324095790994251,0.36140191646065756,1.0,0.0,0.0,0.0,1.0,0.0,0.0,0.0,1.0,0.00045219098683446646,-0.0005329987034201627,-0.004703553393483162,1.2184696791468346e-07,0.0,0.0,0.0,1.2184696791468346e-07,0.0,0.0,0.0,1.2184696791468346e-07,0.04903325,-0.029419949999998824,9.610517,8.999999999999999e-08,0.0,0.0,0.0,8.999999999999999e-08,0.0,0.0,0.0,8.999999999999999e-08
127.093,417,127,93000000,base_link,-0.0005386058352998154,-0.0007927937389390117,-0.9328079354600785,0.36037263620389925,1.0,0.0,0.0,0.0,1.0,0.0,0.0,0.0,1.0,-0.0001692150253802538,-0.0002331119030714054,-0.015556372702121735,1.2184696791468346e-07,0.0,0.0,0.0,1.2184696791468346e-07,0.0,0.0,0.0,1.2184696791468346e-07,0.0588399,0.0392266000000012,9.7870367,8.999999999999999e-08,0.0,0.0,0.0,8.999999999999999e-08,0.0,0.0,0.0,8.999999999999999e-08
127.337,418,127,333000000,base_link,-0.0004787337943590082,-0.0008055123391191439,-0.9330324109165444,0.35979110903840594,1.0,0.0,0.0,0.0,1.0,0.0,0.0,0.0,1.0,0.0004376264987513423,-0.00043725513387471513,-0.006119595840573311,1.2184696791468346e-07,0.0,0.0,0.0,1.2184696791468346e-07,0.0,0.0,0.0,1.2184696791468346e-07,-0.0196133,-0.1470997499999988,9.73800345,8.999999999999999e-08,0.0,0.0,0.0,8.999999999999999e-08,0.0,0.0,0.0,8.999999999999999e-08
127.593,419,127,593000000,base_link,-0.00042422367907915694,-0.0008112069255312388,-0.9333984054655811,0.35884060340477697,1.0,0.0,0.0,0.0,1.0,0.0,0.0,0.0,1.0,0.00013736763503402472,-0.0003390323836356405,-0.0032694500405341387,1.2184696791468346e-07,0.0,0.0,0.0,1.2184696791468346e-07,0.0,0.0,0.0,1.2184696791468346e-07,0.0588399,-0.039226599999998765,10.07142955,8.999999999999999e-08,0.0,0.0,0.0,8.999999999999999e-08,0.0,0.0,0.0,8.999999999999999e-08
127.833,420,127,833000000,base_link,-0.00038087922823516117,-0.000829619706911092,-0.9338226581244842,0.35773511127016616,1.0,0.0,0.0,0.0,1.0,0.0,0.0,0.0,1.0,0.0003475606208667159,-0.0006936966674402373,-0.013722950592637062,1.2184696791468346e-07,0.0,0.0,0.0,1.2184696791468346e-07,0.0,0.0,0.0,1.2184696791468346e-07,0.06864655,-0.0098066499999988,9.80665,8.999999999999999e-08,0.0,0.0,0.0,8.999999999999999e-08,0.0,0.0,0.0,8.999999999999999e-08
128.094,421,128,94000000,base_link,-0.0003203981115873292,-0.000828538522097034,-0.9341059003675694,0.356994926809136,1.0,0.0,0.0,0.0,1.0,0.0,0.0,0.0,1.0,0.000295996549539268,-0.0005383935058489454,-0.009890192188322544,1.2184696791468346e-07,0.0,0.0,0.0,1.2184696791468346e-07,0.0,0.0,0.0,1.2184696791468346e-07,0.04903325,-0.11767979999999878,9.9439431,8.999999999999999e-08,0.0,0.0,0.0,8.999999999999999e-08,0.0,0.0,0.0,8.999999999999999e-08
128.334,422,128,334000000,base_link,-0.00025792355139824533,-0.0008436035632947876,-0.9344247583702479,0.3561595046508984,1.0,0.0,0.0,0.0,1.0,0.0,0.0,0.0,1.0,3.5233329981565475e-05,-0.0003834806848317389,-0.0035738851875066757,1.2184696791468346e-07,0.0,0.0,0.0,1.2184696791468346e-07,0.0,0.0,0.0,1.2184696791468346e-07,0.0,-0.10787314999999878,9.93413645,8.999999999999999e-08,0.0,0.0,0.0,8.999999999999999e-08,0.0,0.0,0.0,8.999999999999999e-08
128.594,423,128,594000000,base_link,-0.00017266736385158292,-0.0008549161292493132,-0.9348655762871148,0.35500083602402177,1.0,0.0,0.0,0.0,1.0,0.0,0.0,0.0,1.0,0.0003163882065564394,-0.0003595863236114394,-0.009455673396587372,1.2184696791468346e-07,0.0,0.0,0.0,1.2184696791468346e-07,0.0,0.0,0.0,1.2184696791468346e-07,-0.2941995,-0.0588398999999988,9.80665,8.999999999999999e-08,0.0,0.0,0.0,8.999999999999999e-08,0.0,0.0,0.0,8.999999999999999e-08
128.834,424,128,834000000,base_link,-0.00012612536414015628,-0.0008420235489824503,-0.9352007378900237,0.35411700741236735,1.0,0.0,0.0,0.0,1.0,0.0,0.0,0.0,1.0,0.0001808912493288517,-0.00034294452052563564,-0.011287804692983627,1.2184696791468346e-07,0.0,0.0,0.0,1.2184696791468346e-07,0.0,0.0,0.0,1.2184696791468346e-07,-0.18632635,-0.0392265999999988,9.81645665,8.999999999999999e-08,0.0,0.0,0.0,8.999999999999999e-08,0.0,0.0,0.0,8.999999999999999e-08
129.094,425,129,94000000,base_link,-7.383015293573073e-05,-0.000829479285376927,-0.9355759864782951,0.35312445403623444,1.0,0.0,0.0,0.0,1.0,0.0,0.0,0.0,1.0,-0.00013064290396869183,-0.00026611937209963896,-0.007974260486662388,1.2184696791468346e-07,0.0,0.0,0.0,1.2184696791468346e-07,0.0,0.0,0.0,1.2184696791468346e-07,0.04903325,-0.08825984999999884,9.4928372,8.999999999999999e-08,0.0,0.0,0.0,8.999999999999999e-08,0.0,0.0,0.0,8.999999999999999e-08
129.334,426,129,334000000,base_link,-1.871381836355752e-05,-0.0008577703739634253,-0.9359599201002052,0.3521055123763274,1.0,0.0,0.0,0.0,1.0,0.0,0.0,0.0,1.0,0.0005934420041739941,-0.0007609042804688224,-0.007486981339752674,1.2184696791468346e-07,0.0,0.0,0.0,1.2184696791468346e-07,0.0,0.0,0.0,1.2184696791468346e-07,-0.14709975,-0.3236194499999988,9.71839015,8.999999999999999e-08,0.0,0.0,0.0,8.999999999999999e-08,0.0,0.0,0.0,8.999999999999999e-08
129.594,427,129,594000000,base_link,1.0437514017287945e-05,-0.0008874299828713189,-0.9364625882791444,0.350766351169278,1.0,0.0,0.0,0.0,1.0,0.0,0.0,0.0,1.0,0.0003948755329474807,-0.0006305099232122316,-0.011391899548470974,1.2184696791468346e-07,0.0,0.0,0.0,1.2184696791468346e-07,0.0,0.0,0.0,1.2184696791468346e-07,-0.392266,-0.029419949999998786,9.9243298,8.999999999999999e-08,0.0,0.0,0.0,8.999999999999999e-08,0.0,0.0,0.0,8.999999999999999e-08
129.834,428,129,834000000,base_link,5.3570325430901604e-05,-0.0008878158134014964,-0.9369509588596723,0.34945973960564125,1.0,0.0,0.0,0.0,1.0,0.0,0.0,0.0,1.0,0.00022187165450304747,-0.0006864056922495386,-0.017094869166612625,1.2184696791468346e-07,0.0,0.0,0.0,1.2184696791468346e-07,0.0,0.0,0.0,1.2184696791468346e-07,0.38245935,-0.1274864499999988,9.85568325,8.999999999999999e-08,0.0,0.0,0.0,8.999999999999999e-08,0.0,0.0,0.0,8.999999999999999e-08
130.094,429,130,94000000,base_link,0.00015302553524477279,-0.0008391050551304191,-0.9373541127168344,0.34837700822345913,1.0,0.0,0.0,0.0,1.0,0.0,0.0,0.0,1.0,0.00021909456700086594,-0.00024724658578634354,-0.00767900375649333,1.2184696791468346e-07,0.0,0.0,0.0,1.2184696791468346e-07,0.0,0.0,0.0,1.2184696791468346e-07,0.1372931,0.02941995000000121,9.89490985,8.999999999999999e-08,0.0,0.0,0.0,8.999999999999999e-08,0.0,0.0,0.0,8.999999999999999e-08
130.334,430,130,334000000,base_link,0.0001999196716543863,-0.0007915306233746296,-0.9378490760010254,0.3470424241435328,1.0,0.0,0.0,0.0,1.0,0.0,0.0,0.0,1.0,0.00011906994041055441,-0.00029441155493259565,-0.010945060290396214,1.2184696791468346e-07,0.0,0.0,0.0,1.2184696791468346e-07,0.0,0.0,0.0,1.2184696791468346e-07,-0.59820565,0.009806650000001188,9.7085835,8.999999999999999e-08,0.0,0.0,0.0,8.999999999999999e-08,0.0,0.0,0.0,8.999999999999999e-08
130.594,431,130,594000000,base_link,0.0002713263799685504,-0.0006965124567809508,-0.9382732872602935,0.3458940295323925,1.0,0.0,0.0,0.0,1.0,0.0,0.0,0.0,1.0,-0.0003212415613234043,3.6472338251768045e-05,-0.0122447544708848,1.2184696791468346e-07,0.0,0.0,0.0,1.2184696791468346e-07,0.0,0.0,0.0,1.2184696791468346e-07,0.32361945000000003,-0.17651969999999878,10.0223963,8.999999999999999e-08,0.0,0.0,0.0,8.999999999999999e-08,0.0,0.0,0.0,8.999999999999999e-08
130.834,432,130,834000000,base_link,0.00033223574491997234,-0.0006383844328244449,-0.9386403947035331,0.34489663888695876,1.0,0.0,0.0,0.0,1.0,0.0,0.0,0.0,1.0,0.00020108756143599749,-0.0003520664758980284,-0.007882185280323029,1.2184696791468346e-07,0.0,0.0,0.0,1.2184696791468346e-07,0.0,0.0,0.0,1.2184696791468346e-07,-0.1569064,1.2081740628055542e-15,9.8654899,8.999999999999999e-08,0.0,0.0,0.0,8.999999999999999e-08,0.0,0.0,0.0,8.999999999999999e-08
131.094,433,131,94000000,base_link,0.00039728202820068684,-0.0005812318959027847,-0.9389714579270347,0.3439943393936185,1.0,0.0,0.0,0.0,1.0,0.0,0.0,0.0,1.0,0.00037878972943872213,-0.0003789529437199247,-0.009560500271618366,1.2184696791468346e-07,0.0,0.0,0.0,1.2184696791468346e-07,0.0,0.0,0.0,1.2184696791468346e-07,-0.4511059,-0.029419949999998776,9.9831697,8.999999999999999e-08,0.0,0.0,0.0,8.999999999999999e-08,0.0,0.0,0.0,8.999999999999999e-08
131.334,434,131,334000000,base_link,0.0004582073914297544,-0.0005077726536744845,-0.9392166760200334,0.34332428940987886,1.0,0.0,0.0,0.0,1.0,0.0,0.0,0.0,1.0,0.00024042197037488222,-0.00017934630159288683,-0.003084251657128334,1.2184696791468346e-07,0.0,0.0,0.0,1.2184696791468346e-07,0.0,0.0,0.0,1.2184696791468346e-07,0.06864655,-0.11767979999999877,10.1596894,8.999999999999999e-08,0.0,0.0,0.0,8.999999999999999e-08,0.0,0.0,0.0,8.999999999999999e-08
131.594,435,131,594000000,base_link,0.0005867365701450342,-0.00040698671877615857,-0.9395879578509007,0.3423068207961714,1.0,0.0,0.0,0.0,1.0,0.0,0.0,0.0,1.0,0.0003297539660707116,-0.00022743048612028453,-0.007628622930496931,1.2184696791468346e-07,0.0,0.0,0.0,1.2184696791468346e-07,0.0,0.0,0.0,1.2184696791468346e-07,0.08825985,-0.07845319999999882,9.6497436,8.999999999999999e-08,0.0,0.0,0.0,8.999999999999999e-08,0.0,0.0,0.0,8.999999999999999e-08
131.834,436,131,834000000,base_link,0.0006648344826277059,-0.00032176003678655507,-0.9398577148532132,0.3415654114463078,1.0,0.0,0.0,0.0,1.0,0.0,0.0,0.0,1.0,0.0001907007535919547,-0.0004423487698659314,-0.010604186914861202,1.2184696791468346e-07,0.0,0.0,0.0,1.2184696791468346e-07,0.0,0.0,0.0,1.2184696791468346e-07,-0.5099458,0.029419950000001156,9.42419065,8.999999999999999e-08,0.0,0.0,0.0,8.999999999999999e-08,0.0,0.0,0.0,8.999999999999999e-08
132.094,437,132,94000000,base_link,0.0007615060753820827,-0.00021604017502163838,-0.9400937047964728,0.34091523820032216,1.0,0.0,0.0,0.0,1.0,0.0,0.0,0.0,1.0,0.00026590912602841854,-0.000250098761171103,-0.0038934831973165274,1.2184696791468346e-07,0.0,0.0,0.0,1.2184696791468346e-07,0.0,0.0,0.0,1.2184696791468346e-07,-0.0980665,0.02941995000000137,11.2188076,8.999999999999999e-08,0.0,0.0,0.0,8.999999999999999e-08,0.0,0.0,0.0,8.999999999999999e-08
132.334,438,132,334000000,base_link,0.0008429415652742918,-0.0001340610152381021,-0.9404059513737424,0.3400528166300175,1.0,0.0,0.0,0.0,1.0,0.0,0.0,0.0,1.0,0.00012570118997246027,-0.00014630984514951774,-0.005622813943773508,1.2184696791468346e-07,0.0,0.0,0.0,1.2184696791468346e-07,0.0,0.0,0.0,1.2184696791468346e-07,-0.196133,0.0294199500000012,9.80665,8.999999999999999e-08,0.0,0.0,0.0,8.999999999999999e-08,0.0,0.0,0.0,8.999999999999999e-08
132.594,439,132,594000000,base_link,0.0008778710943516513,-7.170983909465651e-05,-0.9407060607642481,0.33922165532502696,1.0,0.0,0.0,0.0,1.0,0.0,0.0,0.0,1.0,0.00041532726027071476,-0.0009105859789997353,-0.01173399668186903,1.2184696791468346e-07,0.0,0.0,0.0,1.2184696791468346e-07,0.0,0.0,0.0,1.2184696791468346e-07,0.02941995,1.2093750310588401e-15,9.87529655,8.999999999999999e-08,0.0,0.0,0.0,8.999999999999999e-08,0.0,0.0,0.0,8.999999999999999e-08
132.834,440,132,834000000,base_link,0.0008838759712765609,6.465808550593256e-06,-0.9408134394672281,0.33892372422022243,1.0,0.0,0.0,0.0,1.0,0.0,0.0,0.0,1.0,-6.613507866859436e-05,-0.0005017714574933056,-0.0032179364934563637,1.2184696791468346e-07,0.0,0.0,0.0,1.2184696791468346e-07,0.0,0.0,0.0,1.2184696791468346e-07,0.0784532,0.12748645000000122,9.9047165,8.999999999999999e-08,0.0,0.0,0.0,8.999999999999999e-08,0.0,0.0,0.0,8.999999999999999e-08
133.094,441,133,94000000,base_link,0.0008862941553215416,6.210716023488178e-05,-0.9410653165138304,0.3382237139529029,1.0,0.0,0.0,0.0,1.0,0.0,0.0,0.0,1.0,5.3136725910007954e-05,-0.0005349456332623963,-0.0031403270550072193,1.2184696791468346e-07,0.0,0.0,0.0,1.2184696791468346e-07,0.0,0.0,0.0,1.2184696791468346e-07,0.0,-0.009806649999998815,9.6693569,8.999999999999999e-08,0.0,0.0,0.0,8.999999999999999e-08,0.0,0.0,0.0,8.999999999999999e-08
133.338,442,133,334000000,base_link,0.0009386917665265877,9.164504590114673e-05,-0.9413255758937968,0.33749854907416243,1.0,0.0,0.0,0.0,1.0,0.0,0.0,0.0,1.0,0.0002331818686798215,6.961403414605863e-06,-0.009676859714090824,1.2184696791468346e-07,0.0,0.0,0.0,1.2184696791468346e-07,0.0,0.0,0.0,1.2184696791468346e-07,0.34323275,1.1937624437661242e-15,9.7478101,8.999999999999999e-08,0.0,0.0,0.0,8.999999999999999e-08,0.0,0.0,0.0,8.999999999999999e-08
133.594,443,133,594000000,base_link,0.0009525170032007298,0.0001191385913261784,-0.9415224964729167,0.3369487604262126,1.0,0.0,0.0,0.0,1.0,0.0,0.0,0.0,1.0,0.0003031253581866622,-0.0002856486244127163,-0.006982943043112755,1.2184696791468346e-07,0.0,0.0,0.0,1.2184696791468346e-07,0.0,0.0,0.0,1.2184696791468346e-07,-0.36284605000000003,0.029419950000001183,9.6889702,8.999999999999999e-08,0.0,0.0,0.0,8.999999999999999e-08,0.0,0.0,0.0,8.999999999999999e-08
133.835,444,133,835000000,base_link,0.0009455141437344269,0.000114200935022337,-0.9416953000289616,0.3364655329517637,1.0,0.0,0.0,0.0,1.0,0.0,0.0,0.0,1.0,0.0003162771463394165,-0.0003904019249603156,-0.0029244639445096254,1.2184696791468346e-07,0.0,0.0,0.0,1.2184696791468346e-07,0.0,0.0,0.0,1.2184696791468346e-07,0.20593965,-0.08825984999999882,9.6693569,8.999999999999999e-08,0.0,0.0,0.0,8.999999999999999e-08,0.0,0.0,0.0,8.999999999999999e-08
134.095,445,134,95000000,base_link,0.0009433706827480379,8.60191560752365e-05,-0.9419877565569619,0.3356458984543707,1.0,0.0,0.0,0.0,1.0,0.0,0.0,0.0,1.0,0.0003415393875911832,-0.000446737743914128,-0.00525699695572257,1.2184696791468346e-07,0.0,0.0,0.0,1.2184696791468346e-07,0.0,0.0,0.0,1.2184696791468346e-07,0.36284605000000003,1.2009682532858392e-15,9.80665,8.999999999999999e-08,0.0,0.0,0.0,8.999999999999999e-08,0.0,0.0,0.0,8.999999999999999e-08
134.335,446,134,335000000,base_link,0.0009477582175883148,3.42281236288232e-05,-0.9421673290121514,0.3351414995563888,1.0,0.0,0.0,0.0,1.0,0.0,0.0,0.0,1.0,0.00042023404967039824,-0.00016575912013650025,-0.006844468414783478,1.2184696791468346e-07,0.0,0.0,0.0,1.2184696791468346e-07,0.0,0.0,0.0,1.2184696791468346e-07,-0.3530394,1.2009682532858392e-15,9.80665,8.999999999999999e-08,0.0,0.0,0.0,8.999999999999999e-08,0.0,0.0,0.0,8.999999999999999e-08
134.595,447,134,595000000,base_link,0.0009353228829004458,5.518997291581299e-06,-0.9423214201941703,0.3347080312509504,1.0,0.0,0.0,0.0,1.0,0.0,0.0,0.0,1.0,-5.713966675102711e-05,-5.2982359193265946e-05,-0.004141729325056076,1.2184696791468346e-07,0.0,0.0,0.0,1.2184696791468346e-07,0.0,0.0,0.0,1.2184696791468346e-07,0.3530394,-0.0686465499999988,9.9047165,8.999999999999999e-08,0.0,0.0,0.0,8.999999999999999e-08,0.0,0.0,0.0,8.999999999999999e-08
134.835,448,134,835000000,base_link,0.0009031321612762551,-2.628289678673553e-05,-0.9424954064276905,0.33421788181396217,1.0,0.0,0.0,0.0,1.0,0.0,0.0,0.0,1.0,0.00032533565536141396,-0.00042507867328822656,-0.0036294888705015182,1.2184696791468346e-07,0.0,0.0,0.0,1.2184696791468346e-07,0.0,0.0,0.0,1.2184696791468346e-07,0.08825985,-0.0196132999999988,9.80665,8.999999999999999e-08,0.0,0.0,0.0,8.999999999999999e-08,0.0,0.0,0.0,8.999999999999999e-08
135.095,449,135,95000000,base_link,0.0009126374383897995,-7.592987127328966e-05,-0.9426649341804352,0.3337393941298457,1.0,0.0,0.0,0.0,1.0,0.0,0.0,0.0,1.0,0.00036042521242052317,-0.00015165505465120137,-0.004928722977638245,1.2184696791468346e-07,0.0,0.0,0.0,1.2184696791468346e-07,0.0,0.0,0.0,1.2184696791468346e-07,-0.4511059,0.009806650000001202,9.80665,8.999999999999999e-08,0.0,0.0,0.0,8.999999999999999e-08,0.0,0.0,0.0,8.999999999999999e-08
135.335,450,135,335000000,base_link,0.0008984825743115558,-0.0001235762057510723,-0.9427395218990258,0.3335286663955313,1.0,0.0,0.0,0.0,1.0,0.0,0.0,0.0,1.0,0.0001400135224685073,-0.00020815501920878912,-0.001915312372148037,1.2184696791468346e-07,0.0,0.0,0.0,1.2184696791468346e-07,0.0,0.0,0.0,1.2184696791468346e-07,-0.9022118,-0.009806649999998826,9.58109705,8.999999999999999e-08,0.0,0.0,0.0,8.999999999999999e-08,0.0,0.0,0.0,8.999999999999999e-08
135.595,451,135,595000000,base_link,0.0008443523874169289,-0.00017171343183573074,-0.9427337520294494,0.3335450949542196,1.0,0.0,0.0,0.0,1.0,0.0,0.0,0.0,1.0,-6.240955553948879e-05,0.00015374319627881007,-0.0034317674580961466,1.2184696791468346e-07,0.0,0.0,0.0,1.2184696791468346e-07,0.0,0.0,0.0,1.2184696791468346e-07,-1.1375714000000001,-0.049033249999998904,8.93385815,8.999999999999999e-08,0.0,0.0,0.0,8.999999999999999e-08,0.0,0.0,0.0,8.999999999999999e-08
135.835,452,135,835000000,base_link,0.0007246457853747569,-0.000286800835663344,-0.9427027885684861,0.33363279973492815,1.0,0.0,0.0,0.0,1.0,0.0,0.0,0.0,1.0,0.0005237179575487971,-0.00022897170856595045,-0.0004605940193869173,1.2184696791468346e-07,0.0,0.0,0.0,1.2184696791468346e-07,0.0,0.0,0.0,1.2184696791468346e-07,-1.36312435,0.0294199500000012,9.81645665,8.999999999999999e-08,0.0,0.0,0.0,8.999999999999999e-08,0.0,0.0,0.0,8.999999999999999e-08
136.095,453,136,95000000,base_link,0.0005290972766533159,-0.0004320221750170562,-0.9425932005131434,0.33394249768380924,1.0,0.0,0.0,0.0,1.0,0.0,0.0,0.0,1.0,-9.019894059747458e-05,-0.0006475972477346655,0.003034731838852167,1.2184696791468346e-07,0.0,0.0,0.0,1.2184696791468346e-07,0.0,0.0,0.0,1.2184696791468346e-07,-1.2160246,0.07845320000000122,9.9243298,8.999999999999999e-08,0.0,0.0,0.0,8.999999999999999e-08,0.0,0.0,0.0,8.999999999999999e-08
136.335,454,136,335000000,base_link,0.0003708308319086947,-0.0005443050563543599,-0.942660202029751,0.3337533666133257,1.0,0.0,0.0,0.0,1.0,0.0,0.0,0.0,1.0,0.0002611624076962471,8.603162132203574e-05,-0.00046168893459253013,1.2184696791468346e-07,0.0,0.0,0.0,1.2184696791468346e-07,0.0,0.0,0.0,1.2184696791468346e-07,-1.30428445,0.029419950000001197,9.7674234,8.999999999999999e-08,0.0,0.0,0.0,8.999999999999999e-08,0.0,0.0,0.0,8.999999999999999e-08
136.595,455,136,595000000,base_link,0.00015863593676785186,-0.0007040559072054291,-0.9425416806308053,0.3340878019526846,1.0,0.0,0.0,0.0,1.0,0.0,0.0,0.0,1.0,0.0002956406679004431,-0.00011735537555068711,0.0016060583293437958,1.2184696791468346e-07,0.0,0.0,0.0,1.2184696791468346e-07,0.0,0.0,0.0,1.2184696791468346e-07,-1.1964113,1.1985663167792674e-15,9.7870367,8.999999999999999e-08,0.0,0.0,0.0,8.999999999999999e-08,0.0,0.0,0.0,8.999999999999999e-08
136.835,456,136,835000000,base_link,-7.71105281750471e-06,-0.0008210769977259301,-0.9425483266045447,0.33406882193355836,1.0,0.0,0.0,0.0,1.0,0.0,0.0,0.0,1.0,0.00027340627275407314,-0.0004078577039763332,-0.000267254450591281,1.2184696791468346e-07,0.0,0.0,0.0,1.2184696791468346e-07,0.0,0.0,0.0,1.2184696791468346e-07,-1.04931155,1.1613363009274065e-15,9.48303055,8.999999999999999e-08,0.0,0.0,0.0,8.999999999999999e-08,0.0,0.0,0.0,8.999999999999999e-08
137.095,457,137,95000000,base_link,-0.00016184836758453537,-0.000945606316530532,-0.9424186130780515,0.33443420482636305,1.0,0.0,0.0,0.0,1.0,0.0,0.0,0.0,1.0,0.0001969586592167616,-0.0005677496083080764,0.003133118152618408,1.2184696791468346e-07,0.0,0.0,0.0,1.2184696791468346e-07,0.0,0.0,0.0,1.2184696791468346e-07,-1.04931155,1.2033701897924109e-15,9.8262633,8.999999999999999e-08,0.0,0.0,0.0,8.999999999999999e-08,0.0,0.0,0.0,8.999999999999999e-08
137.335,458,137,335000000,base_link,-0.0002693956316017589,-0.001057469509312862,-0.9422212030687325,0.33498957248239947,1.0,0.0,0.0,0.0,1.0,0.0,0.0,0.0,1.0,0.00023905106354504824,-0.0004985795821994539,0.003441205946728587,1.2184696791468346e-07,0.0,0.0,0.0,1.2184696791468346e-07,0.0,0.0,0.0,1.2184696791468346e-07,-0.95124505,-0.06864654999999878,9.9439431,8.999999999999999e-08,0.0,0.0,0.0,8.999999999999999e-08,0.0,0.0,0.0,8.999999999999999e-08
137.595,459,137,595000000,base_link,-0.0003669372134113311,-0.0011512767665435588,-0.9420296681638246,0.335527412021794,1.0,0.0,0.0,0.0,1.0,0.0,0.0,0.0,1.0,-0.0003971334081143141,-0.0010500058997422452,0.0027055356185883284,1.2184696791468346e-07,0.0,0.0,0.0,1.2184696791468346e-07,0.0,0.0,0.0,1.2184696791468346e-07,-1.01008495,0.019613300000001197,9.7870367,8.999999999999999e-08,0.0,0.0,0.0,8.999999999999999e-08,0.0,0.0,0.0,8.999999999999999e-08
137.835,460,137,835000000,base_link,-0.00046162042620259724,-0.0012005268668760756,-0.9418665956448702,0.33598461519862294,1.0,0.0,0.0,0.0,1.0,0.0,0.0,0.0,1.0,2.628890797495842e-05,-0.0006635619793087241,0.002929513808339834,1.2184696791468346e-07,0.0,0.0,0.0,1.2184696791468346e-07,0.0,0.0,0.0,1.2184696791468346e-07,-0.61781895,-0.32361944999999875,10.0223963,8.999999999999999e-08,0.0,0.0,0.0,8.999999999999999e-08,0.0,0.0,0.0,8.999999999999999e-08
138.095,461,138,95000000,base_link,-0.0004449494192118453,-0.001301992547034871,-0.9416891648689014,0.33648123811578673,1.0,0.0,0.0,0.0,1.0,0.0,0.0,0.0,1.0,0.000775906490162015,-6.918900180608004e-05,0.0024110344238579273,1.2184696791468346e-07,0.0,0.0,0.0,1.2184696791468346e-07,0.0,0.0,0.0,1.2184696791468346e-07,-0.67665885,-0.08825984999999878,9.91452315,8.999999999999999e-08,0.0,0.0,0.0,8.999999999999999e-08,0.0,0.0,0.0,8.999999999999999e-08
138.335,462,138,335000000,base_link,-0.000436875987016317,-0.0013548982702614159,-0.9418164103183772,0.33612471293413587,1.0,0.0,0.0,0.0,1.0,0.0,0.0,0.0,1.0,0.00041581690311431885,-0.0005974442465230829,-0.0054710619151592255,1.2184696791468346e-07,0.0,0.0,0.0,1.2184696791468346e-07,0.0,0.0,0.0,1.2184696791468346e-07,0.06864655,-0.0392265999999988,9.8262633,8.999999999999999e-08,0.0,0.0,0.0,8.999999999999999e-08,0.0,0.0,0.0,8.999999999999999e-08
138.595,463,138,595000000,base_link,-0.0003580489601927471,-0.0014037832410098165,-0.9419848713002303,0.3356522060631256,1.0,0.0,0.0,0.0,1.0,0.0,0.0,0.0,1.0,0.0008007175056263804,-0.0006820046110078697,-0.0036048509646207094,1.2184696791468346e-07,0.0,0.0,0.0,1.2184696791468346e-07,0.0,0.0,0.0,1.2184696791468346e-07,0.36284605000000003,0.04903325000000121,9.89490985,8.999999999999999e-08,0.0,0.0,0.0,8.999999999999999e-08,0.0,0.0,0.0,8.999999999999999e-08
138.835,464,138,835000000,base_link,-0.00021475539859356146,-0.0013687850682197842,-0.9421653334817798,0.3351455873090416,1.0,0.0,0.0,0.0,1.0,0.0,0.0,0.0,1.0,4.779757000505924e-05,-0.0003577017923817045,-0.005396133754402399,1.2184696791468346e-07,0.0,0.0,0.0,1.2184696791468346e-07,0.0,0.0,0.0,1.2184696791468346e-07,0.30400615,1.1529295231544057e-15,9.414384,8.999999999999999e-08,0.0,0.0,0.0,8.999999999999999e-08,0.0,0.0,0.0,8.999999999999999e-08
139.095,465,139,95000000,base_link,-3.568259544652237e-05,-0.001348399474925873,-0.9423288192350205,0.3346857884415474,1.0,0.0,0.0,0.0,1.0,0.0,0.0,0.0,1.0,0.0005160893779247999,-0.0009578899480402475,-0.004388328175991774,1.2184696791468346e-07,0.0,0.0,0.0,1.2184696791468346e-07,0.0,0.0,0.0,1.2184696791468346e-07,0.3334261,-0.00980664999999881,9.71839015,8.999999999999999e-08,0.0,0.0,0.0,8.999999999999999e-08,0.0,0.0,0.0,8.999999999999999e-08
139.335,466,139,335000000,base_link,0.0002225964551856012,-0.0012609330137718958,-0.9424225817088184,0.3344219460263311,1.0,0.0,0.0,0.0,1.0,0.0,0.0,0.0,1.0,0.0003012887900695205,-0.00029658200219273594,-0.002192788291722536,1.2184696791468346e-07,0.0,0.0,0.0,1.2184696791468346e-07,0.0,0.0,0.0,1.2184696791468346e-07,0.65704555,0.1470997500000012,9.7085835,8.999999999999999e-08,0.0,0.0,0.0,8.999999999999999e-08,0.0,0.0,0.0,8.999999999999999e-08
139.595,467,139,595000000,base_link,0.00047015879568503726,-0.0011772506913412747,-0.9424602953479284,0.3343156961977882,1.0,0.0,0.0,0.0,1.0,0.0,0.0,0.0,1.0,0.0003051693784072995,-0.00029965268913656484,-0.0009558621677570045,1.2184696791468346e-07,0.0,0.0,0.0,1.2184696791468346e-07,0.0,0.0,0.0,1.2184696791468346e-07,0.16671305,1.1985663167792674e-15,9.7870367,8.999999999999999e-08,0.0,0.0,0.0,8.999999999999999e-08,0.0,0.0,0.0,8.999999999999999e-08
139.836,468,139,836000000,base_link,0.0006508912508557064,-0.0011091532101494327,-0.9424697996297253,0.33428883155983746,1.0,0.0,0.0,0.0,1.0,0.0,0.0,0.0,1.0,0.000315637793391943,-0.0006358718965202571,-0.0006331848562695085,1.2184696791468346e-07,0.0,0.0,0.0,1.2184696791468346e-07,0.0,0.0,0.0,1.2184696791468346e-07,0.1176798,1.2009682532858392e-15,9.80665,8.999999999999999e-08,0.0,0.0,0.0,8.999999999999999e-08,0.0,0.0,0.0,8.999999999999999e-08
140.096,469,140,96000000,base_link,0.00090742000105134,-0.0010020406754150308,-0.9424639343640532,0.3343051075386915,1.0,0.0,0.0,0.0,1.0,0.0,0.0,0.0,1.0,0.00030961609445512295,-0.0003493463154882193,-0.000433849636465311,1.2184696791468346e-07,0.0,0.0,0.0,1.2184696791468346e-07,0.0,0.0,0.0,1.2184696791468346e-07,0.2353596,0.019613300000001194,9.75761675,8.999999999999999e-08,0.0,0.0,0.0,8.999999999999999e-08,0.0,0.0,0.0,8.999999999999999e-08
140.336,470,140,336000000,base_link,0.0011111906604739067,-0.0009141814855978713,-0.9424464520027681,0.3343540258990782,1.0,0.0,0.0,0.0,1.0,0.0,0.0,0.0,1.0,0.00027276226319372654,-0.0002618914004415274,-0.00029927075956948096,1.2184696791468346e-07,0.0,0.0,0.0,1.2184696791468346e-07,0.0,0.0,0.0,1.2184696791468346e-07,0.2353596,0.019613300000001194,9.75761675,8.999999999999999e-08,0.0,0.0,0.0,8.999999999999999e-08,0.0,0.0,0.0,8.999999999999999e-08
140.596,471,140,596000000,base_link,0.00131992662425139,-0.000819394017951285,-0.942418713403258,0.33443168960865194,1.0,0.0,0.0,0.0,1.0,0.0,0.0,0.0,1.0,0.00028200203087180853,0.00017068791203200814,-0.0002057530946331099,1.2184696791468346e-07,0.0,0.0,0.0,1.2184696791468346e-07,0.0,0.0,0.0,1.2184696791468346e-07,-0.02941995,1.202169221539125e-15,9.81645665,8.999999999999999e-08,0.0,0.0,0.0,8.999999999999999e-08,0.0,0.0,0.0,8.999999999999999e-08
140.836,472,140,836000000,base_link,0.001400004918019972,-0.0007745603670907088,-0.9423864185949321,0.33452246275890735,1.0,0.0,0.0,0.0,1.0,0.0,0.0,0.0,1.0,0.0003457356942817569,-0.0006613840814679861,-0.0001574468187754973,1.2184696791468346e-07,0.0,0.0,0.0,1.2184696791468346e-07,0.0,0.0,0.0,1.2184696791468346e-07,-0.0588399,1.2033701897924109e-15,9.8262633,8.999999999999999e-08,0.0,0.0,0.0,8.999999999999999e-08,0.0,0.0,0.0,8.999999999999999e-08
141.096,473,141,96000000,base_link,0.001528035956224111,-0.0007118056170982785,-0.9419832838678881,0.33565555462758195,1.0,0.0,0.0,0.0,1.0,0.0,0.0,0.0,1.0,0.00044521805830299854,-0.00024986825883388357,0.013488657772541046,1.2184696791468346e-07,0.0,0.0,0.0,1.2184696791468346e-07,0.0,0.0,0.0,1.2184696791468346e-07,0.30400615,0.019613300000001194,9.73800345,8.999999999999999e-08,0.0,0.0,0.0,8.999999999999999e-08,0.0,0.0,0.0,8.999999999999999e-08
141.336,474,141,336000000,base_link,0.0016297762709532736,-0.0006639812297791808,-0.9395785773338583,0.342328789285266,1.0,0.0,0.0,0.0,1.0,0.0,0.0,0.0,1.0,0.00022980256471782923,-0.00026170851197092614,0.09059590101242065,1.2184696791468346e-07,0.0,0.0,0.0,1.2184696791468346e-07,0.0,0.0,0.0,1.2184696791468346e-07,-0.10787315,0.04903325000000119,9.6889702,8.999999999999999e-08,0.0,0.0,0.0,8.999999999999999e-08,0.0,0.0,0.0,8.999999999999999e-08
141.596,475,141,596000000,base_link,0.0016918948553740992,-0.0006069824587340383,-0.9318450857409417,0.3628519053891684,1.0,0.0,0.0,0.0,1.0,0.0,0.0,0.0,1.0,0.00012088799849152565,-0.0003226759145036083,0.21002069115638733,1.2184696791468346e-07,0.0,0.0,0.0,1.2184696791468346e-07,0.0,0.0,0.0,1.2184696791468346e-07,-0.6080123,-0.49033249999999884,9.5909037,8.999999999999999e-08,0.0,0.0,0.0,8.999999999999999e-08,0.0,0.0,0.0,8.999999999999999e-08
141.836,476,141,836000000,base_link,0.001797592136718588,-0.0005687758596346884,-0.9241970706686465,0.38191127205677494,1.0,0.0,0.0,0.0,1.0,0.0,0.0,0.0,1.0,3.948342055082321e-06,-9.971915278581896e-05,0.15260711312294006,1.2184696791468346e-07,0.0,0.0,0.0,1.2184696791468346e-07,0.0,0.0,0.0,1.2184696791468346e-07,0.1372931,-0.15690639999999875,10.091042850000001,8.999999999999999e-08,0.0,0.0,0.0,8.999999999999999e-08,0.0,0.0,0.0,8.999999999999999e-08
142.096,477,142,96000000,base_link,0.0018633024779151344,-0.0005238569286308619,-0.9191450999080273,0.39391438028187875,1.0,0.0,0.0,0.0,1.0,0.0,0.0,0.0,1.0,0.0004162908298894763,-0.00018630968406795447,0.08230198174715042,1.2184696791468346e-07,0.0,0.0,0.0,1.2184696791468346e-07,0.0,0.0,0.0,1.2184696791468346e-07,0.0392266,0.06864655000000118,9.67916355,8.999999999999999e-08,0.0,0.0,0.0,8.999999999999999e-08,0.0,0.0,0.0,8.999999999999999e-08
142.336,478,142,336000000,base_link,0.0018923568436839736,-0.00048060753503800395,-0.916519558162852,0.3999851091065066,1.0,0.0,0.0,0.0,1.0,0.0,0.0,0.0,1.0,0.0006337813101708889,-0.00019184499979018542,0.05089205875992775,1.2184696791468346e-07,0.0,0.0,0.0,1.2184696791468346e-07,0.0,0.0,0.0,1.2184696791468346e-07,-0.02941995,-0.1569063999999988,9.79684335,8.999999999999999e-08,0.0,0.0,0.0,8.999999999999999e-08,0.0,0.0,0.0,8.999999999999999e-08
142.596,479,142,596000000,base_link,0.001954574214225813,-0.00044965557129932006,-0.9127756889071004,0.4084562634966892,1.0,0.0,0.0,0.0,1.0,0.0,0.0,0.0,1.0,0.0004524660762399435,2.1179439499982294e-05,0.06568185985088348,1.2184696791468346e-07,0.0,0.0,0.0,1.2184696791468346e-07,0.0,0.0,0.0,1.2184696791468346e-07,0.0196133,0.019613300000001218,9.9439431,8.999999999999999e-08,0.0,0.0,0.0,8.999999999999999e-08,0.0,0.0,0.0,8.999999999999999e-08
142.836,480,142,836000000,base_link,0.0019823177953172174,-0.0003989921835448785,-0.9089958955933809,0.4168001595678479,1.0,0.0,0.0,0.0,1.0,0.0,0.0,0.0,1.0,0.00030432455241680145,-6.621610373257524e-05,0.08703959733247757,1.2184696791468346e-07,0.0,0.0,0.0,1.2184696791468346e-07,0.0,0.0,0.0,1.2184696791468346e-07,0.02941995,0.058839900000001194,9.7674234,8.999999999999999e-08,0.0,0.0,0.0,8.999999999999999e-08,0.0,0.0,0.0,8.999999999999999e-08
143.096,481,143,96000000,base_link,0.0019997302039757555,-0.0003855411468135814,-0.9019051747097246,0.43192928619040916,1.0,0.0,0.0,0.0,1.0,0.0,0.0,0.0,1.0,-0.00047665403690189123,-0.0008130648639052923,0.14975851774215698,1.2184696791468346e-07,0.0,0.0,0.0,1.2184696791468346e-07,0.0,0.0,0.0,1.2184696791468346e-07,-0.0196133,0.058839900000001194,9.77723005,8.999999999999999e-08,0.0,0.0,0.0,8.999999999999999e-08,0.0,0.0,0.0,8.999999999999999e-08
143.336,482,143,336000000,base_link,0.0019378199294358368,-0.0003731136189106057,-0.8885101872928212,0.45885264815300375,1.0,0.0,0.0,0.0,1.0,0.0,0.0,0.0,1.0,3.573822323232889e-05,-0.0006953554693609104,0.30364304780960083,1.2184696791468346e-07,0.0,0.0,0.0,1.2184696791468346e-07,0.0,0.0,0.0,1.2184696791468346e-07,0.28439285000000003,-0.4609125499999988,9.6693569,8.999999999999999e-08,0.0,0.0,0.0,8.999999999999999e-08,0.0,0.0,0.0,8.999999999999999e-08
143.596,483,143,596000000,base_link,0.0018578102628040408,-0.00044529540608918746,-0.852435536324644,0.5228288502597627,1.0,0.0,0.0,0.0,1.0,0.0,0.0,0.0,1.0,-0.00024002953432500362,-0.00010829849634312105,0.6074856519699097,1.2184696791468346e-07,0.0,0.0,0.0,1.2184696791468346e-07,0.0,0.0,0.0,1.2184696791468346e-07,-0.2157463,0.7551120500000013,9.95374975,8.999999999999999e-08,0.0,0.0,0.0,8.999999999999999e-08,0.0,0.0,0.0,8.999999999999999e-08
143.836,484,143,836000000,base_link,0.0017815246174257891,-0.0005169352315178121,-0.820590387774351,0.571513757000078,1.0,0.0,0.0,0.0,1.0,0.0,0.0,0.0,1.0,0.0003367380704730749,-0.0003953574923797883,0.4563301205635071,1.2184696791468346e-07,0.0,0.0,0.0,1.2184696791468346e-07,0.0,0.0,0.0,1.2184696791468346e-07,0.10787315,-0.1372930999999988,9.73800345,8.999999999999999e-08,0.0,0.0,0.0,8.999999999999999e-08,0.0,0.0,0.0,8.999999999999999e-08
144.096,485,144,96000000,base_link,0.0017016500637864877,-0.000563494066019138,-0.8037650295257013,0.5949441689545721,1.0,0.0,0.0,0.0,1.0,0.0,0.0,0.0,1.0,0.0007712377700954676,-0.0002965667517855744,0.01575610600411892,1.2184696791468346e-07,0.0,0.0,0.0,1.2184696791468346e-07,0.0,0.0,0.0,1.2184696791468346e-07,-0.0196133,-0.009806649999998798,9.81645665,8.999999999999999e-08,0.0,0.0,0.0,8.999999999999999e-08,0.0,0.0,0.0,8.999999999999999e-08
144.336,486,144,336000000,base_link,0.0016301318913400267,-0.0005232844755451801,-0.8023860905836623,0.5968028405438777,1.0,0.0,0.0,0.0,1.0,0.0,0.0,0.0,1.0,-8.663791231811047e-05,-7.27677252143389e-06,0.018978828564286232,1.2184696791468346e-07,0.0,0.0,0.0,1.2184696791468346e-07,0.0,0.0,0.0,1.2184696791468346e-07,0.0980665,1.202169221539125e-15,9.81645665,8.999999999999999e-08,0.0,0.0,0.0,8.999999999999999e-08,0.0,0.0,0.0,8.999999999999999e-08
144.596,487,144,596000000,base_link,0.0015392489073905431,-0.0005198482960557874,-0.8008486645197024,0.598864573177909,1.0,0.0,0.0,0.0,1.0,0.0,0.0,0.0,1.0,0.00023316964507102966,-0.00042179692536592256,0.018658488988876343,1.2184696791468346e-07,0.0,0.0,0.0,1.2184696791468346e-07,0.0,0.0,0.0,1.2184696791468346e-07,-0.0196133,1.1997672850325534e-15,9.79684335,8.999999999999999e-08,0.0,0.0,0.0,8.999999999999999e-08,0.0,0.0,0.0,8.999999999999999e-08
144.836,488,144,836000000,base_link,0.0014205109683311202,-0.00047140405084893533,-0.7989421969777504,0.601405957582044,1.0,0.0,0.0,0.0,1.0,0.0,0.0,0.0,1.0,0.0003199893981218338,-0.00039068819023668484,0.023213183507323265,1.2184696791468346e-07,0.0,0.0,0.0,1.2184696791468346e-07,0.0,0.0,0.0,1.2184696791468346e-07,-0.2745862,-0.029419949999998793,9.85568325,8.999999999999999e-08,0.0,0.0,0.0,8.999999999999999e-08,0.0,0.0,0.0,8.999999999999999e-08
145.096,489,145,96000000,base_link,0.0013183878067802132,-0.0004744033319548009,-0.7966720570657746,0.6044101838037287,1.0,0.0,0.0,0.0,1.0,0.0,0.0,0.0,1.0,0.00084832648281008,-9.72164561971987e-05,0.028618987649679184,1.2184696791468346e-07,0.0,0.0,0.0,1.2184696791468346e-07,0.0,0.0,0.0,1.2184696791468346e-07,-0.85317855,0.009806650000001202,9.80665,8.999999999999999e-08,0.0,0.0,0.0,8.999999999999999e-08,0.0,0.0,0.0,8.999999999999999e-08
145.336,490,145,336000000,base_link,0.0011813654584885047,-0.0004791328358054467,-0.7943318241205181,0.6074827800001819,1.0,0.0,0.0,0.0,1.0,0.0,0.0,0.0,1.0,0.00022701581474393606,-0.0002441878896206579,0.03123605065047741,1.2184696791468346e-07,0.0,0.0,0.0,1.2184696791468346e-07,0.0,0.0,0.0,1.2184696791468346e-07,-0.59820565,0.1765197000000012,9.65955025,8.999999999999999e-08,0.0,0.0,0.0,8.999999999999999e-08,0.0,0.0,0.0,8.999999999999999e-08
145.596,491,145,596000000,base_link,0.001066034425492135,-0.0005619143401101836,-0.7906611351526769,0.6122528212935883,1.0,0.0,0.0,0.0,1.0,0.0,0.0,0.0,1.0,0.0012887004995718598,0.00034562102518976494,0.06214257702231407,1.2184696791468346e-07,0.0,0.0,0.0,1.2184696791468346e-07,0.0,0.0,0.0,1.2184696791468346e-07,0.392266,-0.0490332499999988,9.81645665,8.999999999999999e-08,0.0,0.0,0.0,8.999999999999999e-08,0.0,0.0,0.0,8.999999999999999e-08
145.837,492,145,837000000,base_link,0.0009360586669041926,-0.0005476700679898618,-0.7798968389086529,0.6259071372911156,1.0,0.0,0.0,0.0,1.0,0.0,0.0,0.0,1.0,1.879315823316574e-05,-0.0003565993392839826,0.16471588611602783,1.2184696791468346e-07,0.0,0.0,0.0,1.2184696791468346e-07,0.0,0.0,0.0,1.2184696791468346e-07,-0.196133,0.049033250000001166,9.56148375,8.999999999999999e-08,0.0,0.0,0.0,8.999999999999999e-08,0.0,0.0,0.0,8.999999999999999e-08
146.097,493,146,97000000,base_link,0.0008258292020497162,-0.0005225596965550089,-0.7708620950006094,0.6370013150918636,1.0,0.0,0.0,0.0,1.0,0.0,0.0,0.0,1.0,0.0002312974538654089,-0.0007614355999976376,0.016880230978131294,1.2184696791468346e-07,0.0,0.0,0.0,1.2184696791468346e-07,0.0,0.0,0.0,1.2184696791468346e-07,0.18632635,0.4020726500000012,9.7085835,8.999999999999999e-08,0.0,0.0,0.0,8.999999999999999e-08,0.0,0.0,0.0,8.999999999999999e-08
146.337,494,146,337000000,base_link,0.000780739616856906,-0.0004732566589905238,-0.7678892275608185,0.6405820015188025,1.0,0.0,0.0,0.0,1.0,0.0,0.0,0.0,1.0,4.1139195673167706e-05,-0.0005287268431857181,0.03886959329247475,1.2184696791468346e-07,0.0,0.0,0.0,1.2184696791468346e-07,0.0,0.0,0.0,1.2184696791468346e-07,0.0588399,1.2009682532858392e-15,9.80665,8.999999999999999e-08,0.0,0.0,0.0,8.999999999999999e-08,0.0,0.0,0.0,8.999999999999999e-08
146.597,495,146,597000000,base_link,0.0007666088325277899,-0.000384619591910852,-0.7639938042760114,0.6452230090492239,1.0,0.0,0.0,0.0,1.0,0.0,0.0,0.0,1.0,2.7793576009571552e-05,-0.0003128297394141501,0.043930910527706146,1.2184696791468346e-07,0.0,0.0,0.0,1.2184696791468346e-07,0.0,0.0,0.0,1.2184696791468346e-07,0.02941995,0.00980665000000121,9.87529655,8.999999999999999e-08,0.0,0.0,0.0,8.999999999999999e-08,0.0,0.0,0.0,8.999999999999999e-08
146.837,496,146,837000000,base_link,0.000770888955646712,-0.00029535837918190404,-0.7604789644972234,0.6493620431245398,1.0,0.0,0.0,0.0,1.0,0.0,0.0,0.0,1.0,-0.0003496735589578748,-0.0007366517093032541,0.04686011001467705,1.2184696791468346e-07,0.0,0.0,0.0,1.2184696791468346e-07,0.0,0.0,0.0,1.2184696791468346e-07,0.0784532,0.35303940000000117,9.639936950000001,8.999999999999999e-08,0.0,0.0,0.0,8.999999999999999e-08,0.0,0.0,0.0,8.999999999999999e-08
147.097,497,147,97000000,base_link,0.0007398731462732879,-0.00023675135475540127,-0.7580064442722543,0.6522465998211545,1.0,0.0,0.0,0.0,1.0,0.0,0.0,0.0,1.0,2.7151545509696007e-05,-0.0006516783032566286,0.01816382259130478,1.2184696791468346e-07,0.0,0.0,0.0,1.2184696791468346e-07,0.0,0.0,0.0,1.2184696791468346e-07,0.0980665,-0.5687856999999987,10.48330885,8.999999999999999e-08,0.0,0.0,0.0,8.999999999999999e-08,0.0,0.0,0.0,8.999999999999999e-08
