Time,header.seq,header.frame_id,child_frame_id,pose.x,pose.y,pose.z,orientation.x,orientation.y,orientation.z,orientation.w,linear.x,linear.y,linear.z,angular.x,angular.y,angular.z
114.829,368,map,base_link,0.01817834638302429,0.02219155207279755,583.612,8.558398550881166e-06,-0.0009527288895928468,-0.7505234454811522,0.660843135711885,-0.01,0.02,0.1
115.089,369,map,base_link,0.018178346592605976,0.02219155187992783,583.584,9.849329127129645e-06,-0.0009502563225822432,-0.7505937939714965,0.6607632354840778,-0.01,0.02,0.08
115.329,370,map,base_link,0.018178346491623643,0.02219155179068366,583.564,8.527662355861693e-06,-0.000945688157751854,-0.7506574419247879,0.6606909341622003,-0.01,0.02,0.11
115.589,371,map,base_link,0.018178346313078464,0.02219155148009122,583.544,5.332379874697642e-06,-0.0009450759504491327,-0.7507274563617751,0.6606113782456313,-0.01,0.02,0.11
115.829,372,map,base_link,0.01817834668943874,0.022191551473895288,583.523,4.877450144645865e-06,-0.0009429146514832673,-0.7507927401253286,0.6605371846181496,-0.01,0.02,0.14
116.09,373,map,base_link,0.01817834649921224,0.022191551419155076,583.496,1.6685162770554197e-06,-0.0009424923808349227,-0.7508639977327815,0.6604561822059609,-0.01,0.02,0.1
116.33,374,map,base_link,0.018178346398201484,0.022191551329910908,583.473,1.4889920403645833e-06,-0.0009414302045487304,-0.7509278476907446,0.6603835864628214,-0.01,0.02,0.11
116.59,375,map,base_link,0.018178346308957316,0.022191551364471707,583.461,-5.823798759342793e-08,-0.0009385120802175232,-0.7509986198682869,0.6603031062709004,-0.01,0.02,0.13
116.83,376,map,base_link,0.01817834629721915,0.022191551620323935,583.457,-1.6782326608623168e-06,-0.0009333520241304425,-0.7510618306500563,0.6602312135848841,-0.01,0.02,0.1
117.09,377,map,base_link,0.01817834629721915,0.022191551620323935,583.455,-1.8650315610557085e-06,-0.0009315228968911087,-0.7511324277543123,0.6601508980812848,-0.01,0.02,0.13
117.33,378,map,base_link,0.01817834629721915,0.022191551620323935,583.454,-5.555314807345124e-06,-0.0009318815615576137,-0.7511978984752069,0.6600763962544993,-0.01,0.02,0.12
117.59,379,map,base_link,0.01817834629721915,0.022191551620323935,583.457,-6.871099785875643e-06,-0.0009278228243758334,-0.7512689539088464,0.6599955287653864,-0.01,0.02,0.07
117.83,380,map,base_link,0.018178346398201484,0.022191551329910908,583.471,-6.717459155988152e-06,-0.0009242613707686935,-0.7513337066131885,0.6599218188563563,-0.01,0.02,0.02
118.09,381,map,base_link,0.01817834649921224,0.022191551419155076,583.495,-7.092430511193923e-06,-0.0009216021127001217,-0.7514037997143922,0.6598420116770505,-0.01,0.01,-0.02
118.331,382,map,base_link,0.018178346301766624,0.011095777011746577,583.514,-1.1330523675351186e-05,-0.000920487609512294,-0.7514450954848644,0.6597949841018217,-0.04,-0.14,-0.01
118.59,383,map,base_link,0.009089174309508508,-0.07767043025467046,583.531,-6.18228494741808e-06,-0.0009117593605541725,-0.7514614668767903,0.6597763503309516,-0.08,-0.46,0.01
118.83,384,map,base_link,-0.009089171965428022,-0.24410707012532384,583.531,3.7539516619560114e-05,-0.0008686263200831989,-0.7514539734575856,0.6597849421242553,-0.12,-0.78,0.07
119.091,385,map,base_link,-0.04544585992550765,-0.521501465666006,583.515,0.00014462626581039783,-0.0007595256081622287,-0.7514040787924804,0.6598418845284963,-0.16,-1.13,0.12
119.331,386,map,base_link,-0.08180254437567669,-0.8654705139977636,583.486,0.000266201679376793,-0.0006206882785360981,-0.7513408915742595,0.6599139402460927,-0.2,-1.46,0.06
119.591,387,map,base_link,-0.13633756607055147,-1.3314930979382211,583.476,0.0004542105011868517,-0.00039486237962936646,-0.7512821221639292,0.6599809169160761,-0.24,-1.79,0.05
119.831,388,map,base_link,-0.19087258139018104,-1.8308030096241623,583.469,0.0005969002196121602,-0.0002234261034311399,-0.7511784814392347,0.6600988432148245,-0.28,-2.08,0.08
120.091,389,map,base_link,-0.2635859289397331,-2.4521664573685484,583.463,0.0007394403563285131,-2.5577946740560266e-05,-0.7510639920621737,0.6602289999699795,-0.31,-2.39,0.1
120.331,390,map,base_link,-0.3362992618056637,-3.0957214483960342,583.449,0.000868472644662342,0.00014574976096548174,-0.7509262045175467,0.6603855388189116,-0.34,-2.67,0.13
120.591,391,map,base_link,-0.41810174934579436,-3.861329975855938,583.437,0.0009471830691656309,0.00030903325578680337,-0.7507837809601612,0.6605472894425084,-0.37,-2.96,0.12
120.831,392,map,base_link,-0.499904223132404,-4.626938504060263,583.429,0.0010079716578594007,0.0004438049138964497,-0.7506411481195308,0.6607092051577063,-0.39,-3.21,0.11
121.091,393,map,base_link,-0.5907958404013982,-5.514600564530667,583.411,0.001074401616017565,0.0005490112081560255,-0.7504464012880957,0.6609302104168089,-0.42,-3.47,0.13
121.331,394,map,base_link,-0.6816874412136542,-6.368975288112665,583.393,0.0010694951212491003,0.0005884581205588902,-0.7503540190100665,0.661035064162762,-0.42,-3.54,0.14
121.591,395,map,base_link,-0.7725790194842546,-7.289924673849896,583.38,0.0010332501430711156,0.0006182401839001646,-0.7503089992119335,0.6610861939829056,-0.4,-3.5,0.13
121.831,396,map,base_link,-0.8543814260007139,-8.122107864161364,583.383,0.0009619697076322076,0.0005989355086827458,-0.7502780554825105,0.6611214376738368,-0.39,-3.41,0.1
122.092,397,map,base_link,-0.9452729773202861,-8.976482608614617,583.382,0.0008113446836700058,0.0005117637067503284,-0.7503329999613232,0.6610593536035578,-0.37,-3.32,0.13
122.332,398,map,base_link,-1.027075357574148,-9.74209113332563,583.375,0.0006334389597698947,0.0003760656013908967,-0.7502374351648045,0.6611680937606436,-0.36,-3.24,0.11
122.592,399,map,base_link,-1.099788562297789,-10.529891224420908,583.378,0.00044994821831551436,0.00020040611718958982,-0.7504108216737232,0.6609715244236749,-0.35,-3.16,0.11
122.832,400,map,base_link,-1.172501762636017,-11.251116659652098,583.374,0.0002461782074694089,3.445828106670666e-05,-0.7504177964362381,0.6609637425764727,-0.33,-3.11,0.14
123.092,401,map,base_link,-1.254304102017528,-12.01672520342305,583.37,4.557087924815938e-05,-0.00015703199061776536,-0.7506221372356481,0.6607317007349028,-0.33,-3.06,0.14
123.332,402,map,base_link,-1.3270172787188699,-12.715759072049309,583.361,-0.00013315142859806505,-0.00030064081749105133,-0.7508460518430488,0.6604771747134806,-0.33,-3.03,0.15
123.595,403,map,base_link,-1.4088195921951296,-13.470271798609588,583.345,-0.0002831845150201311,-0.00045072523170457417,-0.7509071360682494,0.6604075935776901,-0.33,-3.01,0.16
123.832,404,map,base_link,-1.490621901817434,-14.169305664743547,583.338,-0.0003887610130981533,-0.0005702573553374869,-0.7511989628027402,0.6600754820136184,-0.33,-3.0,0.15
124.092,405,map,base_link,-1.5724241920595148,-14.923818433545762,583.331,-0.0005067375394178285,-0.000700398131774938,-0.7515638232259966,0.6596598155696964,-0.33,-2.98,0.12
124.332,406,map,base_link,-1.6542264757455598,-15.62285229997508,583.329,-0.0005544958954849915,-0.0008252175940440513,-0.7518028440140659,0.659387211949539,-0.33,-2.98,0.15
124.592,407,map,base_link,-1.7360287364453484,-16.388460846297676,583.326,-0.0005971997778326856,-0.000912811046807465,-0.7522108573090585,0.6589215706552557,-0.33,-2.97,0.14
124.832,408,map,base_link,-1.8178309912412374,-17.08749471202799,583.317,-0.0006349522601014282,-0.0009561456460349713,-0.7525578769873494,0.6585251129648924,-0.34,-2.96,0.13
125.093,409,map,base_link,-1.9087223760335519,-17.8641990381268,583.317,-0.0006355237032881891,-0.0010336378818889473,-0.752837399767002,0.6582054217449222,-0.34,-2.96,0.14
125.333,410,map,base_link,-1.9905246099092722,-18.574328738119334,583.323,-0.0006280686687453199,-0.0010807078464057374,-0.7531691358340383,0.6578257295266778,-0.35,-2.96,0.11
125.593,411,map,base_link,-2.0905051213387367,-19.339937294892422,583.328,-0.0006478766975790516,-0.0011366458315588148,-0.7536455525908969,0.6572797496895822,-0.35,-2.95,0.1
125.833,412,map,base_link,-2.172307325904768,-20.06116277724618,583.333,-0.0006495625303234848,-0.0011749188601233058,-0.7539631243123825,0.656915371118154,-0.36,-2.96,0.1
126.093,413,map,base_link,-2.27228780097019,-20.83786711447766,583.337,-0.0006007415849211453,-0.0011750307891353895,-0.7544867104142948,0.6563139966665411,-0.36,-2.94,0.08
126.333,414,map,base_link,-2.363179129643754,-21.54799682996071,583.345,-0.0005766547104191192,-0.0011644837664490308,-0.7549711367296682,0.6557567339738231,-0.37,-2.94,0.07
126.593,415,map,base_link,-2.4540704269474247,-22.335797017208733,583.361,-0.0005247459016390482,-0.0011512153518615444,-0.755463751932812,0.6551892237060614,-0.38,-2.96,0.07
126.833,416,map,base_link,-2.5540508693782726,-23.05702248386507,583.367,-0.00045024964197480644,-0.0011183048354712459,-0.7559359976820983,0.6546444180453426,-0.38,-2.94,0.07
127.093,417,map,base_link,-2.654031282254266,-23.8448226470054,583.375,-0.00037892788464007814,-0.0010697467987775908,-0.7566297442500532,0.6538425973975264,-0.38,-2.95,0.02
127.333,418,map,base_link,-2.7449225484480735,-24.566048154022326,583.389,-0.0003499382857172006,-0.0010179507547330511,-0.7569616922040121,0.6534583673464557,-0.39,-2.95,0.01
127.593,419,map,base_link,-2.8449029336060505,-25.353848406089128,583.413,-0.0002635390072407153,-0.0009537052203660674,-0.7575577122886066,0.6527674421611399,-0.39,-2.95,-0.01
127.833,420,map,base_link,-2.944883316610145,-26.086169744861877,583.432,-0.0001797324257693704,-0.0009074350116818367,-0.7583089049931306,0.6518947375658696,-0.41,-2.96,-0.02
128.094,421,map,base_link,-3.0539528098788082,-26.885065750455624,583.451,-0.00010714509097729306,-0.0008505216118213838,-0.7589230368272091,0.6511797672731271,-0.42,-2.98,-0.01
128.334,422,map,base_link,-3.1630222899851503,-27.628482794483148,583.455,-2.8466167563377543e-05,-0.0008146088303356264,-0.7594987791098964,0.6505082168064503,-0.43,-3.02,0.02
128.594,423,map,base_link,-3.272091735178435,-28.427378722725393,583.456,4.6270718480253885e-05,-0.0007647383164301801,-0.7603871252059203,0.6494696550689676,-0.43,-2.99,0.06
128.834,424,map,base_link,-3.3811611785284015,-29.17079577060821,583.453,0.00011781278414455467,-0.000700599652977118,-0.7611719389213569,0.6485497472661418,-0.44,-2.99,0.06
129.094,425,map,base_link,-3.4902305898492614,-29.95859592711747,583.456,0.00018310912723083357,-0.0006816942695996649,-0.7618508935647387,0.647752049582693,-0.44,-2.96,0.04
129.334,426,map,base_link,-3.599300016290613,-30.668725699639765,583.465,0.00021194917504817736,-0.0006475807025470753,-0.7626932703761916,0.6467600103899827,-0.46,-2.96,0.07
129.594,427,map,base_link,-3.7174585299528644,-31.456525865926324,583.467,0.00023342935909334813,-0.0006358595978590854,-0.7637444530891703,0.6455183588162543,-0.46,-2.98,0.09
129.834,428,map,base_link,-3.8265279131385057,-32.17775137114984,583.46,0.00026200979243903833,-0.0006325904228270033,-0.7643715611263175,0.6447756568928001,-0.48,-2.99,0.09
130.094,429,map,base_link,-3.9537755219968176,-32.95445571761314,583.451,0.00027861294234976774,-0.0006607899819107994,-0.7649874775347099,0.6440447538382018,-0.48,-2.97,0.08
130.334,430,map,base_link,-4.06284485946864,-33.664585344123225,583.438,0.00027255996408351643,-0.0007247312166302261,-0.7655937629024655,0.6433238614263994,-0.49,-3.01,0.11
130.594,431,map,base_link,-4.181003292138257,-34.44128968594623,583.426,0.0002142345833134904,-0.0007813149080531737,-0.7659348655359854,0.6429176661182434,-0.49,-2.99,0.09
130.834,432,map,base_link,-4.2991617328700045,-35.151419368435086,583.416,0.00017229110458355932,-0.000810402563257158,-0.7665763242861149,0.6421526707936749,-0.49,-2.98,0.08
131.094,433,map,base_link,-4.417320136506618,-35.91702798957971,583.41,9.248307507371015e-05,-0.0008485719254956466,-0.7670945782244609,0.6415334593232096,-0.49,-2.99,0.07
131.334,434,map,base_link,-4.52638940667191,-36.62715766946155,583.406,2.8836910757743206e-06,-0.0009026720508598486,-0.7676181139536454,0.6409068702277276,-0.5,-3.0,0.09
131.594,435,map,base_link,-4.644547769798578,-37.39276629450285,583.404,-9.057703362543434e-05,-0.0009530312763540848,-0.7684232434050943,0.6399412492736993,-0.5,-2.95,0.08
131.834,436,map,base_link,-4.762706142010728,-38.09180020292172,583.399,-0.00014508898154879014,-0.0010676223456838202,-0.7691208695020632,0.6391024387593158,-0.48,-3.0,0.12
132.094,437,map,base_link,-4.880864454672377,-38.86850454616706,583.385,-0.00019831056389857962,-0.001122781965771144,-0.7698936621783153,0.638171175290172,-0.47,-3.01,0.13
132.334,438,map,base_link,-4.989933647632483,-39.57863422795958,583.37,-0.00025107747918569166,-0.0011800064452549578,-0.7709018195708504,0.6369528468632829,-0.48,-2.97,0.13
132.594,439,map,base_link,-5.117181048909032,-40.344242735799696,583.356,-0.0003050489574570496,-0.0012403800941957529,-0.7716980700625741,0.6359877805933492,-0.48,-2.97,0.15
132.834,440,map,base_link,-5.235339351426575,-41.032180868074875,583.343,-0.00036680973142294733,-0.00137031562560369,-0.7723011870020114,0.6352549600286419,-0.49,-2.96,0.13
133.094,441,map,base_link,-5.3625867251266754,-41.786693663630444,583.333,-0.00042186814025833126,-0.0015193329227450785,-0.7731348003955981,0.6342397764820502,-0.5,-2.93,0.18
133.338,442,map,base_link,-5.4898341084098945,-42.474631734750574,583.318,-0.0004490713426569988,-0.0016583447668483,-0.7736544706056824,0.6336054042851946,-0.5,-2.92,0.13
133.594,443,map,base_link,-5.6261705836597,-43.218048826807376,583.317,-0.0004890739921364472,-0.0018261632896776224,-0.774171250085577,0.632973381332268,-0.51,-2.93,0.11
133.835,444,map,base_link,-5.762507071215367,-43.905987039429476,583.315,-0.000502215042014699,-0.001919655195298206,-0.7746674858321452,0.632365676723908,-0.54,-2.92,0.12
134.095,445,map,base_link,-5.907932620708351,-44.66049991968839,583.315,-0.0005250805688202297,-0.002027184726575115,-0.7750857623880286,0.6318525743841272,-0.55,-2.92,0.13
134.336,446,map,base_link,-6.044269059635553,-45.359533915045176,583.311,-0.0005330516282351002,-0.002100900149618959,-0.7752967791193301,0.6315933868888395,-0.54,-2.88,0.12
134.595,447,map,base_link,-6.189694583702817,-46.069663622963276,583.309,-0.0005721896735832435,-0.00214603961150626,-0.7757037198399097,0.631093341859578,-0.51,-2.63,0.14
134.835,448,map,base_link,-6.298763678855266,-46.65773984210165,583.305,-0.000558688024488957,-0.002200818997587244,-0.7758587352362621,0.6309025814030393,-0.45,-2.32,0.16
135.095,449,map,base_link,-6.407832786004889,-47.21252873287045,583.301,-0.0006151543326950189,-0.0023034203395247543,-0.7758484561579332,0.630914803216122,-0.39,-1.98,0.16
135.335,450,map,base_link,-6.489634592964052,-47.634168216558294,583.294,-0.0006883824366085402,-0.0023972057045965126,-0.7758266759278758,0.6309411608487222,-0.33,-1.65,0.18
135.595,451,map,base_link,-6.562347314220034,-47.98923303416268,583.289,-0.0008307341549356326,-0.002533158363445907,-0.7758183862966657,0.6309506513773538,-0.27,-1.32,0.16
135.835,452,map,base_link,-6.616881852407886,-48.25553162898609,583.279,-0.0009548302998996902,-0.002700230845515867,-0.7757766296415445,0.6310011235762464,-0.21,-1.03,0.17
136.095,453,map,base_link,-6.65323819053728,-48.46635140465827,583.272,-0.0010766762284028873,-0.0028234090165648778,-0.7757625367390899,0.6310177142695413,-0.14,-0.73,0.19
136.335,454,map,base_link,-6.671416326638877,-48.59950065655431,583.268,-0.001183924303194398,-0.0029334159746837204,-0.7758194124350004,0.6309470918254355,-0.1,-0.47,0.15
136.595,455,map,base_link,-6.689594534852603,-48.67717125743229,583.281,-0.0012947427216054358,-0.003022595498095003,-0.7759276371006684,0.6308133555506836,-0.04,-0.19,0.11
136.835,456,map,base_link,-6.689594526207827,-48.68826703394882,583.289,-0.0013068703025424734,-0.0030628464450306392,-0.7760621149882468,0.630647686701248,0.0,0.06,0.12
137.095,457,map,base_link,-6.680505455610131,-48.63278822122032,583.296,-0.00132548947311155,-0.0030936674416751873,-0.7760863987273591,0.6306176131458867,0.04,0.34,0.12
137.335,458,map,base_link,-6.662327294941036,-48.53292629803758,583.303,-0.001325502402618933,-0.0031222503151819426,-0.7761801550144207,0.630502071018121,0.09,0.58,0.11
137.595,459,map,base_link,-6.6441491536891135,-48.38868119297433,583.308,-0.001279139540119444,-0.0031400402134059927,-0.7798783201215553,0.6259219677834259,0.06,0.46,0.09
137.836,460,map,base_link,-6.635060082291716,-48.33320238052204,583.317,-0.0012122885863215152,-0.003115642031736316,-0.7799751649019694,0.6258015382429638,0.0,0.18,0.08
138.095,461,map,base_link,-6.644149190882132,-48.366489791953484,583.328,-0.0010683141654914833,-0.002998763265804289,-0.7800875819313522,0.6256622336694261,-0.07,-0.13,0.08
138.335,462,map,base_link,-6.671416498504215,-48.46635187564425,583.338,-0.0007839710464313125,-0.0027861969463170854,-0.7828173608371187,0.6222448087915098,-0.13,-0.23,0.09
138.595,463,map,base_link,-6.6986838161555795,-48.56621403537258,583.353,-0.00043040033572658764,-0.002492030110600198,-0.7850298588887208,0.6194527626822196,-0.05,0.01,0.08
138.835,464,map,base_link,-6.707772932823616,-48.58840567274632,583.362,-0.00015626696845153496,-0.0022715827276238525,-0.7863553006335288,0.6177703105994159,0.0,0.25,0.08
139.095,465,map,base_link,-6.698683859242067,-48.52183100611751,583.367,2.5779648045310216e-05,-0.002119077491284298,-0.7877575980929261,0.6159817168495015,0.07,0.54,0.07
139.338,466,map,base_link,-6.698683942234027,-48.410873243122126,583.369,0.00023181350481868272,-0.0020186983739112338,-0.827529617733222,0.5614183848910554,-0.15,0.64,0.08
139.595,467,map,base_link,-6.698684033148538,-48.288819701829254,583.365,0.0003776363772624431,-0.0019721275624893764,-0.8701845081903181,0.49272191935128895,0.14,0.44,0.11
139.836,468,map,base_link,-6.689594940278255,-48.244436589683744,583.36,0.0004142698625315926,-0.0019480453232118878,-0.8706117990248973,0.49196659327492065,-0.01,0.16,0.1
140.096,469,map,base_link,-6.698684049715922,-48.26662814891381,583.363,0.0004964730347225164,-0.001822785756121948,-0.8706462427589848,0.49190603872719,-0.18,-0.12,0.09
140.336,470,map,base_link,-6.762307837656863,-48.366490184022666,583.368,0.0006503106684151971,-0.0016277994747113402,-0.8706899496443458,0.49182917659816744,-0.33,-0.39,0.09
140.596,471,map,base_link,-6.871377187542578,-48.555118543370156,583.379,0.0009147454440493478,-0.0013665126628113523,-0.8747569778641777,0.4845591043018853,-0.41,-0.48,0.06
140.837,472,map,base_link,-6.971357415347484,-48.732651119486775,583.384,0.0011866617957675726,-0.0010819292980541184,-0.8848111052934168,0.46594713134884613,-0.51,-0.44,0.01
141.096,473,map,base_link,-7.098605007775575,-48.89908786510307,583.38,0.001413384631386201,-0.0008786379867473386,-0.908088083564771,0.4187759100364223,-0.53,-0.5,0.08
141.336,474,map,base_link,-7.2349417334601185,-49.03223721427378,583.375,0.0015466228790893995,-0.0006583117673875041,-0.9271737208318402,0.374627903368299,-0.62,-0.39,0.07
141.596,475,map,base_link,-7.389456727832908,-49.14319510476918,583.371,0.0016128419319139517,-0.0003839582705633554,-0.9520120837192447,0.3060559487569078,-0.67,-0.28,0.08
141.836,476,map,base_link,-7.553060868350059,-49.20976982185948,583.361,0.0015827574200579881,-0.00022432014093026834,-0.971204611633203,0.23824157257251105,-0.59,-0.3,0.11
142.096,477,map,base_link,-7.707575875804537,-49.28744031022296,583.354,0.0014954435629949538,-0.0001950827935348732,-0.9754148768432562,0.22037137659893358,-0.66,-0.25,0.1
142.336,478,map,base_link,-7.871180022972737,-49.354015110299315,583.354,0.0013679246168758616,-0.0003405495147153002,-0.9774356924328738,0.21122850178548108,-0.73,-0.36,0.12
142.596,479,map,base_link,-8.07114064494499,-49.431685722760676,583.356,0.001362697335036618,-0.000301868762147605,-0.9869815016020569,0.16082775701530028,-0.84,-0.1,0.12
142.836,480,map,base_link,-8.280190459563869,-49.43168591285536,583.355,0.001362766159391175,-0.00018220961945428817,-0.9976272978948404,0.06883229011945274,-0.74,-0.04,0.14
143.096,481,map,base_link,-8.452883771096253,-49.431685995223745,583.343,0.0012639652775862107,-0.00029883090047433034,-0.9979608490388956,0.06381580429201611,-0.73,-0.06,0.13
143.336,482,map,base_link,-8.625577071972458,-49.442781857182865,583.331,0.0011293320325441029,-0.00037666436587407406,-0.9990283759213675,0.04405549723962232,-0.72,-0.06,0.11
143.596,483,map,base_link,-8.816448627821472,-49.453877818922194,583.33,0.001062628338548716,-0.00040194621562294943,-0.9994431431863858,0.033348355251367645,-0.88,-0.07,0.12
143.838,484,map,base_link,-8.98914194843934,-49.44278213542509,583.326,0.0009883059983312606,-0.00038593877580291643,-0.9999904888825857,0.004230419232424398,-0.66,-0.05,0.1
144.096,485,map,base_link,-9.125478796932327,-49.44278235023097,583.33,0.000875045189045849,-0.00042035358983939005,-0.9999938678304572,0.0033648031530524314,-0.46,-0.04,0.09
144.336,486,map,base_link,-9.207280909238818,-49.43168665784492,583.338,0.0007083621054811509,-0.00039301981490407503,-0.999801136323419,-0.01992565092921511,-0.38,0.07,0.07
144.598,487,map,base_link,-9.270904833857514,-49.409495403179506,583.361,0.00047153250283947084,-0.0003322416753988124,-0.9992635911847914,-0.038365904199460954,-0.34,0.03,0.04
144.836,488,map,base_link,-9.334528718052411,-49.40949562448844,583.38,0.00026306899681585597,-0.0003362065210117536,-0.9991154838705419,-0.04204839652128334,-0.33,0.02,0.0
145.096,489,map,base_link,-9.407241739838838,-49.398400078593454,583.407,0.00012445855456150846,-0.0003080584310520085,-0.9989797210679143,-0.045159788586125515,-0.32,0.03,-0.01
145.336,490,map,base_link,-9.470865651569596,-49.38730460240669,583.434,6.992299426679956e-05,-0.00029048656626055267,-0.9988570917663087,-0.04779561649860592,-0.3,0.05,-0.04
145.596,491,map,base_link,-9.552667796150104,-49.37620906669463,583.458,3.342021869324785e-06,-0.0003377202117278256,-0.9987170540275765,-0.05063725830224697,-0.3,0.05,-0.03
145.837,492,map,base_link,-9.625380834506075,-49.36511360163007,583.487,-1.417522485520906e-07,-0.00036202956815598476,-0.9986934716808649,-0.05110008372393271,-0.34,0.05,-0.04
146.097,493,map,base_link,-9.761717730756033,-49.35401820427484,583.514,2.9247255223848515e-05,-0.0003969761780494534,-0.9986900926196512,-0.05116581337049814,-0.65,0.09,-0.04
146.337,494,map,base_link,-9.907143760646676,-49.32073118841254,583.536,9.700397868442467e-05,-0.000463773389797074,-0.9977269333908271,-0.06738502720194617,-0.54,0.1,-0.07
146.597,495,map,base_link,-10.070748026436291,-49.29853997142874,583.558,0.00018103057906493488,-0.0005070663947019642,-0.9973182676017202,-0.07318458320920357,-0.48,0.15,-0.07
146.837,496,map,base_link,-10.207084949905152,-49.25415717297062,583.575,0.00031821775129423877,-0.0005223271536704803,-0.9912473115413764,-0.1320166401397967,-0.53,0.28,-0.06
147.097,497,map,base_link,-10.361600135501817,-49.19867862090422,583.59,0.0003980296780937955,-0.0005389076799787573,-0.9882889030242619,-0.15259290714180956,-0.56,0.21,-0.05
147.337,498,map,base_link,-10.50702618267735,-49.14319998265256,583.607,0.000458582411628645,-0.000519643266195192,-0.986857219346198,-0.1615931567156781,-0.55,0.22,-0.09
147.597,499,map,base_link,-10.679719618790841,-49.08772145602251,583.624,0.00047122880799769866,-0.0005596733339816012,-0.9863313066500636,-0.16477262585498864,-0.58,0.23,-0.07
147.837,500,map,base_link,-10.825145654080757,-49.03224274487013,583.626,0.000527690968987558,-0.0005703146626382231,-0.9851788402682514,-0.1715285660498861,-0.48,0.21,-0.04
148.097,501,map,base_link,-10.925126051480618,-48.998955535104415,583.629,0.0005674199225966256,-0.0005758209010343127,-0.9841313570018493,-0.1774396196755963,-0.26,0.15,-0.06
148.337,502,map,base_link,-10.97966087422401,-48.94347679518313,583.632,0.0005721077390521861,-0.0005288165193595685,-0.9721918856536591,-0.23418439426017745,-0.16,0.4,-0.05
148.597,503,map,base_link,-11.006928366639698,-48.843614835138,583.634,0.0005279946545055427,-0.0004057494555367339,-0.9388391465776642,-0.344355359247315,-0.1,0.44,-0.06
148.837,504,map,base_link,-11.025106735139303,-48.743752865925444,583.639,0.000483359643718311,-0.0003576051744386259,-0.908206088348114,-0.41852280651048374,-0.13,0.41,-0.02
149.097,505,map,base_link,-11.070552461687328,-48.654986707252476,583.638,0.0004151615893548497,-0.000366151170364074,-0.8940253125099848,-0.44801610927019037,-0.16,0.4,0.0
149.337,506,map,base_link,-11.11599819249625,-48.577316401147186,583.64,0.0003936453558640461,-0.0003697295462417884,-0.8812837645468015,-0.47258717152459206,-0.14,0.28,-0.02
149.597,507,map,base_link,-11.152354797449703,-48.48855023111736,583.647,0.00036740699766219756,-0.0003913731171752283,-0.8725616061703902,-0.48850379248940345,-0.09,0.38,-0.01
149.837,508,map,base_link,-11.17962228331507,-48.410879902408624,583.653,0.0004110423467791623,-0.00037729286177820527,-0.863691879004151,-0.5040198675018326,-0.05,0.22,0.0
150.097,509,map,base_link,-11.197800557441383,-48.38868837086153,583.651,0.0004325363632843734,-0.0003851632043049998,-0.8623333006720495,-0.5063407381533201,0.04,0.04,0.02
150.337,510,map,base_link,-11.1887114028805,-48.39978405965161,583.64,0.0004444577322714488,-0.0003446283111564002,-0.861031708846024,-0.5085509611143677,0.12,-0.1,0.03
150.597,511,map,base_link,-11.152354820694654,-48.455262823591056,583.631,0.0004311868652606995,-0.0002587622680026071,-0.8597978228442255,-0.5106343613117961,0.25,-0.35,0.01
150.837,512,map,base_link,-11.08873082648094,-48.54402888425733,583.629,0.0003889193389924702,-0.00018180085909003224,-0.8479132481576744,-0.5301348312353165,0.34,-0.3,0.0
151.097,513,map,base_link,-11.016017717487586,-48.64389078612788,583.621,0.0004254427051058107,-5.6919334696491864e-05,-0.7864116489587167,-0.6177026259784935,0.29,-0.33,0.0
151.337,514,map,base_link,-10.979661079770494,-48.73265680330303,583.608,0.00041111170738909384,-4.587693180020045e-06,-0.7445539782374496,-0.6675621352779864,0.07,-0.36,0.01
151.597,515,map,base_link,-10.970571831713556,-48.82142293084274,583.593,0.00048585293360452154,2.7681463848571767e-05,-0.7361015959471294,-0.67687089140009,0.03,-0.42,0.05
151.838,516,map,base_link,-10.979660797943154,-48.92128477904856,583.578,0.0005117383966154249,8.718892325873836e-06,-0.7346952859786717,-0.6783970627947268,0.03,-0.52,0.07
152.098,517,map,base_link,-10.979660658837588,-49.02114669280513,583.567,0.0004779379737635949,-2.007732829643164e-05,-0.7295499969706386,-0.683927315650088,0.0,-0.25,0.09
152.338,518,map,base_link,-10.979660614427672,-49.04333816853688,583.554,0.00043663320435610633,-6.613744274706691e-05,-0.7164058350998814,-0.6976836564031904,0.05,-0.09,0.09
152.598,519,map,base_link,-10.979660584170517,-49.05443386911958,583.54,0.00038348194540971397,-0.00019096268101057457,-0.7080736968361399,-0.7061384115905708,-0.05,-0.07,0.11
152.838,520,map,base_link,-10.97966054619124,-49.04333786011313,583.517,0.00034365841709104984,-0.00032731520858073136,-0.7008066600015478,-0.7133511057404491,-0.07,-0.07,0.13
153.098,521,map,base_link,-10.997838769492489,-49.03224195159851,583.499,0.00030474243668774775,-0.00044656658366393074,-0.6997712266788404,-0.7143668091552999,-0.07,-0.06,0.12
153.338,522,map,base_link,-11.00692788132028,-49.04333773972775,583.491,0.00024141963677034567,-0.0005146169821864711,-0.6988724190470357,-0.7152461246181382,-0.07,-0.06,0.11
153.598,523,map,base_link,-11.01601697305756,-49.05443345038981,583.489,0.000146114835769194,-0.0005540895185638344,-0.6979145546671778,-0.7161808053969159,-0.06,-0.06,0.11
153.838,524,map,base_link,-11.016016959459677,-49.06552922698245,583.485,3.74944833954639e-05,-0.0005907063299542261,-0.697030502938884,-0.71704123147345,-0.05,-0.06,0.1
154.098,525,map,base_link,-11.016016945784258,-49.07662500411328,583.485,-9.59953136910496e-05,-0.0006246834410793853,-0.6956372335557507,-0.7183929564287221,-0.04,-0.07,0.1
154.338,526,map,base_link,-11.01601690177418,-49.09881647932713,583.476,-0.0002339205255045766,-0.0006432968124998039,-0.6925768701451007,-0.721343753276075,0.0,-0.17,0.09
154.599,527,map,base_link,-10.997838595946405,-49.13210371017334,583.466,-0.0003267909682614551,-0.000696065746776416,-0.6816793353824683,-0.731650662825269,-0.02,-0.06,0.06
154.838,528,map,base_link,-10.988749460199045,-49.14319947586438,583.465,-0.0004457881204445051,-0.0006894310116659535,-0.6803620339016859,-0.7328757253334246,0.0,-0.09,0.02
155.098,529,map,base_link,-10.979660314637357,-49.17648687063257,583.478,-0.0005567743208652999,-0.0007213445955025851,-0.6598331306820031,-0.751411611115184,0.09,-0.15,0.0
155.338,530,map,base_link,-10.952392952390056,-49.19867854594338,583.494,-0.0005922500177138968,-0.0007723936840987162,-0.615134017413395,-0.7884219639690222,0.05,-0.08,-0.03
155.598,531,map,base_link,-10.934214715645965,-49.22087023263225,583.511,-0.0007102454026199914,-0.0008091776109731443,-0.6094338761712177,-0.7928361693048488,0.0,-0.03,-0.01
155.838,532,map,base_link,-10.916036458256457,-49.243061840410405,583.522,-0.0007264684167135208,-0.0008454451922225825,-0.5664860617111358,-0.8240705669741358,0.06,-0.14,-0.01
156.098,533,map,base_link,-10.906947316388568,-49.287445092483836,583.543,-0.0007969340911027395,-0.0008378426853233864,-0.5471213929961944,-0.8370524740072113,-0.04,-0.12,-0.05
156.338,534,map,base_link,-10.906947323155919,-49.309636799628265,583.56,-0.0008719725141044956,-0.0008046292158167722,-0.5362130075603339,-0.844081869701548,0.04,0.03,-0.03
156.598,535,map,base_link,-10.888769137019864,-49.27634952632292,583.573,-0.0009383251371048375,-0.0007200933006824688,-0.5326978168129303,-0.8463046951153663,0.16,0.29,-0.04
156.838,536,map,base_link,-10.843323646982157,-49.187583333270595,583.584,-0.0010140236544036445,-0.0007294878978460464,-0.53191144364645,-0.8467990645491908,0.25,0.47,-0.04
157.098,537,map,base_link,-10.734254385785931,-49.021146628197755,583.591,-0.0010017993304165767,-0.0007860294356391829,-0.49764624666853124,-0.8673791510824727,0.71,0.79,-0.02
157.338,538,map,base_link,-10.525204871287201,-48.76594359040547,583.6,-0.0009729912869907357,-0.0008766444325274915,-0.4491533905580449,-0.8934537013929188,0.91,1.18,-0.02
157.598,539,map,base_link,-10.216175077931581,-48.410878376154756,583.606,-0.0009640475710957272,-0.0010224390470606414,-0.41678956696798947,-0.909001915343038,1.3,1.34,0.0
157.839,540,map,base_link,-9.870788777282911,-48.04471735538033,583.609,-0.0009289580323031323,-0.0012194387391968257,-0.40132340979246584,-0.9159351345803282,1.34,1.38,-0.01
158.099,541,map,base_link,-9.470867725743318,-47.6563647359942,583.607,-0.0008820368032276392,-0.0013694444285439404,-0.37299198373539777,-0.9278331351607183,1.57,1.47,0.0
158.339,542,map,base_link,-9.080035741274799,-47.2902036980621,583.605,-0.0008568067122984404,-0.0014456039734514871,-0.3599423038491464,-0.9329730510637371,1.74,1.5,0.0
158.599,543,map,base_link,-8.616490754653881,-46.87965942667927,583.594,-0.0007770963681966996,-0.0014544854215081666,-0.34320870805279186,-0.9392577193242155,1.9,1.54,0.01
158.84,544,map,base_link,-8.125678326710073,-46.49130670976348,583.582,-0.000819931857672149,-0.0014523450775521536,-0.3324705632148494,-0.9431121582299345,2.13,1.67,0.04
159.099,545,map,base_link,-7.543974643749692,-46.03637921137192,583.561,-0.0008766406149603213,-0.001448032625373203,-0.3250910322696987,-0.9456812123758036,2.35,1.78,0.05
159.339,546,map,base_link,-6.944092662153793,-45.58145181090333,583.554,-0.0009444040026922015,-0.0014230295174958117,-0.31430309747472196,-0.9493211500887713,2.69,1.96,0.0
159.599,547,map,base_link,-6.207873796641337,-45.02666243801576,583.559,-0.0009484444479719509,-0.0014463462974631369,-0.3066406144077674,-0.9518237978382047,3.03,2.18,0.02
159.839,548,map,base_link,-5.426209208613727,-44.4607773221565,583.554,-0.0009951704263864468,-0.0014350202520326443,-0.3019580981034144,-0.9533195987403531,3.39,2.42,0.05
160.099,549,map,base_link,-4.490029393589481,-43.79503020647189,583.552,-0.0010338642248296345,-0.0014845949471830918,-0.2976539664531047,-0.9546721130091427,3.77,2.64,0.02
160.339,550,map,base_link,-3.5447603038441002,-43.129283116131376,583.544,-0.0010592972664815116,-0.001534645798322511,-0.2963197433029495,-0.9550869763955789,3.89,2.7,0.04
160.599,551,map,base_link,-2.563134566796208,-42.44134456479446,583.538,-0.0010525133001236622,-0.0015921430371208492,-0.29569606359924316,-0.955280165850948,3.57,2.47,0.04
160.839,552,map,base_link,-1.772380395394464,-41.88655560961587,583.542,-0.001119704319731976,-0.0015343109685519078,-0.29579180847791664,-0.9552505421037203,3.1,2.14,0.0
161.099,553,map,base_link,-1.063428299319071,-41.387245682094374,583.561,-0.0012036066841681567,-0.0012476626495618042,-0.2967293841444138,-0.9549600343753343,2.64,1.85,-0.02
161.339,554,map,base_link,-0.5271696091091655,-40.99889358126404,583.581,-0.0012915405716765265,-0.0007697182250750381,-0.29764913835184165,-0.954674148542429,2.37,1.67,-0.01
161.599,555,map,base_link,-0.009089131028190423,-40.62163728571079,583.602,-0.0013739730145627767,-0.00018160837907844722,-0.2991871205774073,-0.9541934531829235,2.25,1.59,-0.03
161.839,556,map,base_link,0.42718920260466575,-40.28876412156603,583.629,-0.0014827621074393032,0.0003956709628458858,-0.30298649245153647,-0.952993615011631,2.05,1.48,-0.09
162.099,557,map,base_link,0.8998241067209563,-39.93369955256924,583.662,-0.0015809885810747191,0.0009037470942143358,-0.3067069545722314,-0.9518022524313143,2.05,1.51,-0.1
162.339,558,map,base_link,1.3270133845171301,-39.589730648225384,583.685,-0.0016238258967163285,0.0012935981595018024,-0.3196287332377712,-0.9475405862980626,1.96,1.53,-0.09
162.599,559,map,base_link,1.7905592356804334,-39.20137860234496,583.692,-0.0016007517873571544,0.001575907163409701,-0.3318066153369116,-0.9433447535917028,1.85,1.58,-0.02
162.839,560,map,base_link,2.1995703200300056,-38.824122280919084,583.695,-0.001614593934723548,0.0016816710995184165,-0.34552944504278954,-0.9384050126023202,1.79,1.6,-0.05
163.099,561,map,base_link,2.6176705904892685,-38.40248293300721,583.705,-0.001567544686787052,0.0018631987598286548,-0.36163684719369393,-0.932315859591502,1.66,1.64,-0.06
163.339,562,map,base_link,2.9994143539321954,-38.003035146365846,583.714,-0.001498460245072416,0.0019767643095931035,-0.3823662082511859,-0.9240075377438048,1.54,1.74,-0.08
163.6,563,map,base_link,3.38115817970953,-37.53701271276128,583.722,-0.0014169272318281675,0.002072956835601165,-0.40275116915590925,-0.915306064063123,1.45,1.8,-0.06
163.84,564,map,base_link,3.7174563653956625,-37.082086053099715,583.735,-0.001298664350147858,0.002121968058279162,-0.4184104149590519,-0.9082546643845323,1.37,1.74,-0.06
164.1,565,map,base_link,4.053754606768393,-36.58277629610512,583.74,-0.0011556172616378766,0.0021352292023001465,-0.45017522892995565,-0.8929369342808372,1.26,1.85,-0.07
164.34,566,map,base_link,4.326428911192465,-36.10565801705792,583.742,-0.0010452273048249911,0.0022033857699933603,-0.47562168731251314,-0.8796465558103596,1.1,1.89,-0.07
164.6,567,map,base_link,4.617281535038302,-35.59525242693377,583.74,-0.001005725371861309,0.0021961957590173405,-0.4907440016085311,-0.8713004591562606,1.04,2.02,-0.07
164.84,568,map,base_link,4.844510228002633,-35.095942586726494,583.746,-0.0009854906720508003,0.0022357580893688192,-0.514476460479234,-0.8575010214610012,0.93,1.97,-0.08
165.1,569,map,base_link,5.071738984898047,-34.55224975489131,583.76,-0.0009166106748038292,0.002340667897667138,-0.5394522747727297,-0.8420124252890756,0.88,2.06,-0.12
165.344,570,map,base_link,5.262611193561668,-34.03074840536408,583.772,-0.0008144656766970091,0.0024245743723950446,-0.5623771513501261,-0.8268768939353013,0.62,2.17,-0.09
165.6,571,map,base_link,5.398948608472153,-33.4537680342126,583.769,-0.0006287562699709069,0.0024977013313955665,-0.5975460478556952,-0.8018304601632764,0.5,2.19,-0.07
165.84,572,map,base_link,5.489840333652211,-32.910075023384366,583.768,-0.0004533273270330592,0.0025737649447035438,-0.6241560257903371,-0.7812953511303878,0.36,2.19,-0.07
166.101,573,map,base_link,5.571642929426446,-32.34419040378867,583.758,-0.00042710182706373145,0.002623771913555515,-0.6330244103479714,-0.7741272694515923,0.21,2.19,-0.06
166.34,574,map,base_link,5.617088949282817,-31.833784697998396,583.752,-0.0003639061931701049,0.0026683297845591473,-0.6486431126818579,-0.7610879449569765,0.17,2.13,-0.07
166.6,575,map,base_link,5.653445845352223,-31.29009160685314,583.749,-0.00043494041538867347,0.0027071141216452642,-0.6509678103300675,-0.7591003835291117,0.14,1.96,-0.06
166.84,576,map,base_link,5.689802712371261,-30.812973228291696,583.748,-0.0004744323779911163,0.0027299877395190997,-0.6553648159755661,-0.7553074076574208,0.11,1.99,-0.07
167.1,577,map,base_link,5.717070478471271,-30.291471784265923,583.751,-0.00047978269193718186,0.0026727957711584946,-0.6613303779349642,-0.7500898327478728,0.05,1.95,-0.04
167.34,578,map,base_link,5.744338194493793,-29.836544953815974,583.751,-0.0005276944966117589,0.0025963341247791046,-0.6636752009379869,-0.7480161818086246,0.03,1.91,-0.05
167.6,579,map,base_link,5.771605941071272,-29.32613919340315,583.747,-0.000559983216184381,0.0024471129731015178,-0.6658681925524292,-0.7460651769140921,0.02,1.89,-0.02
167.84,580,map,base_link,5.807962806331432,-28.860116546406005,583.732,-0.0005892280674316055,0.0022428379265240464,-0.6675797795379236,-0.7445346603351768,0.02,1.87,-0.01
168.1,581,map,base_link,5.844319694373411,-28.34971075148144,583.713,-0.0005954048668398328,0.0019988748709467434,-0.6718982929290419,-0.7406404890034937,0.03,1.91,0.0
168.34,582,map,base_link,5.88976572584815,-27.861496562970387,583.703,-0.0005739876354322185,0.0016932259908480048,-0.6760475323378852,-0.7368558458367515,0.01,1.95,0.0
168.6,583,map,base_link,5.9261226464736865,-27.328899263672156,583.694,-0.0005415661503200657,0.0014465639086275487,-0.678326005578242,-0.7347594465641321,0.01,1.97,-0.02
168.84,584,map,base_link,5.953390403538521,-26.840685108869252,583.695,-0.0005036885487962205,0.0012327917571211657,-0.6796624382416087,-0.7335238214030959,0.02,1.86,-0.02
169.1,585,map,base_link,5.989747326124444,-26.330279408755814,583.69,-0.0004968508716448379,0.0010430969208008176,-0.6820849264172144,-0.7312720548759185,0.01,1.84,-0.04
169.34,586,map,base_link,6.017015060270268,-25.875352545362944,583.689,-0.000512761555460224,0.0009000207562958622,-0.6844131923798225,-0.7290936216527241,0.01,1.87,0.0
169.601,587,map,base_link,6.044282819084486,-25.398234169584327,583.685,-0.0005675121976526517,0.000775966690147197,-0.6862705148934114,-0.7273457611023336,0.03,1.82,0.0
169.841,588,map,base_link,6.062461396521854,-24.965498854933685,583.675,-0.0006374391028977415,0.0007086635612532969,-0.6880681052938064,-0.7256454877863834,0.05,1.82,0.01
170.101,589,map,base_link,6.098818301741488,-24.488380448411817,583.662,-0.000640646119289391,0.0005934483908494059,-0.6895901036644777,-0.7241993691792146,0.05,1.69,0.03
170.341,590,map,base_link,6.11699687276834,-24.066740914445973,583.65,-0.0006568421531932937,0.0004922285749149494,-0.6914572522344143,-0.7224169119018804,0.05,1.69,0.04
170.601,591,map,base_link,6.135175459305771,-23.61181401585418,583.632,-0.0006512496723881612,0.0004256223171104267,-0.6931078202083366,-0.7208335066335052,0.03,1.71,0.08
170.841,592,map,base_link,6.144264869697565,-23.19017440708626,583.6,-0.0006000005817233316,0.0003765395079306715,-0.694748948137595,-0.719251970646592,0.03,1.75,0.12
171.101,593,map,base_link,6.153354300703427,-22.73524747306203,583.572,-0.0005938874682271439,0.000317832115792959,-0.6964333207455145,-0.717621192577112,0.0,1.7,0.11
171.345,594,map,base_link,6.14426542011239,-22.313607894849667,583.55,-0.0005343013839781959,0.0002186152902437613,-0.6983979052701177,-0.7157094610550413,-0.02,1.68,0.14
171.601,595,map,base_link,6.144265709687318,-21.84758518676898,583.528,-0.0005130252051614904,0.00011612738197235409,-0.7004821128305868,-0.7136697646138352,-0.02,1.73,0.09
171.841,596,map,base_link,6.135176842352138,-21.414849873321884,583.519,-0.0005085359446956473,4.121656783419099e-05,-0.7037526065289113,-0.7104449369910034,-0.02,1.75,0.08
172.101,597,map,base_link,6.135177167426036,-20.937731496404297,583.519,-0.0004644306504989492,-7.027325120636917e-05,-0.7086633691923874,-0.7055466026640161,-0.06,1.74,0.08
172.341,598,map,base_link,6.135177479384197,-20.49390047857696,583.529,-0.0004353740719159363,-8.383947845075366e-05,-0.7133682679063423,-0.7007892106508662,0.0,1.78,0.02
172.601,599,map,base_link,6.116999520720782,-20.016782152360634,583.544,-0.0003845687218186013,-0.00020837201929970663,-0.7209393424338164,-0.6929980326228179,-0.04,1.79,0.03
172.841,600,map,base_link,6.098821518588068,-19.57295108962711,583.544,-0.00032202847185332884,-0.00021890682317990455,-0.7293997552615141,-0.6840876006783848,-0.09,1.86,0.03
173.101,601,map,base_link,6.062465235483984,-19.08473691062767,583.543,-0.00024567139753456856,-0.00022757313050277998,-0.7322344215234166,-0.6810525969352899,-0.13,1.7,0.03
173.341,602,map,base_link,6.017019749292757,-18.652001576269924,583.533,-0.00020359953665571504,-0.00024099545685732886,-0.7407013810233907,-0.6718343282524794,-0.12,1.76,0.07
173.601,603,map,base_link,5.926128509915401,-18.18597888676942,583.523,-0.0001319454777706823,-0.00016302241681302433,-0.7626793092166683,-0.6467767986769997,-0.34,1.83,0.07
173.841,604,map,base_link,5.807969783043035,-17.74214773312974,583.515,-5.4027470260896924e-05,-9.976913440843848e-05,-0.7809601881634989,-0.6245807967195155,-0.4,1.88,0.07
174.101,605,map,base_link,5.662543624159468,-17.242837715138876,583.513,8.694542107287974e-05,2.7742340111775897e-05,-0.7862552934944734,-0.6179017762741712,-0.51,1.84,0.08
174.341,606,map,base_link,5.498939095155265,-16.79900653988949,583.507,0.0001864530492183364,0.00011363286381908215,-0.8013388538352471,-0.5982106599324734,-0.56,1.85,0.09
174.601,607,map,base_link,5.289888802639723,-16.29969646341101,583.498,0.0002982931583877207,0.00025756248863921077,-0.8183579044145295,-0.5747087827456753,-0.7,1.97,0.07
174.841,608,map,base_link,5.071749321178487,-15.833673740703887,583.497,0.0003862912030909901,0.0003467147496304329,-0.834615217788794,-0.5508331587725569,-0.87,1.97,0.1
175.101,609,map,base_link,4.808164048082318,-15.323267871704218,583.484,0.0004978008029038087,0.0003741865419618465,-0.8450013123244978,-0.5347638678413762,-0.96,1.99,0.09
175.341,610,map,base_link,4.553667868225972,-14.868340873540944,583.467,0.0006028705831796762,0.00041932921182518215,-0.8549505073627304,-0.5187090616812879,-1.08,1.92,0.1
175.602,611,map,base_link,4.2355475925369035,-14.357934997753944,583.457,0.0006923092535789631,0.00042343912414812744,-0.8668751740560138,-0.49852459719913655,-1.24,1.93,0.09
175.842,612,map,base_link,3.8992489511494455,-13.89191225323259,583.452,0.0007653812019048953,0.0004849230656449799,-0.8774548562918121,-0.4796583723976388,-1.38,1.94,0.09
176.103,613,map,base_link,3.4993261752430556,-13.381506373125262,583.448,0.0008351217421647901,0.0005538486689467172,-0.8881160642932342,-0.4596181590925488,-1.5,2.02,0.09
176.342,614,map,base_link,3.072135877630842,-12.882196297425764,583.441,0.0008915685966377472,0.0005692031741260927,-0.8992306731354166,-0.43747351646197946,-1.84,2.15,0.09
176.602,615,map,base_link,2.5267864734074124,-12.294119982339055,583.431,0.0009693697006282846,0.00062191132081553,-0.9053404119627807,-0.4246850739262627,-2.14,2.38,0.11
176.842,616,map,base_link,1.95416951927524,-11.694947902440674,583.411,0.0010762916773262995,0.0006976847347317638,-0.9095022225526183,-0.4156970796193829,-2.39,2.65,0.15
177.102,617,map,base_link,1.2452150924757746,-10.962626516898865,583.388,0.0012623592485686505,0.0006985605662010116,-0.9142248859562152,-0.4052046104878472,-2.75,2.89,0.14
177.342,618,map,base_link,0.5271713936010087,-10.241401000606402,583.371,0.001447440883407694,0.0007011906384935928,-0.9164012841712317,-0.4002575416102678,-3.02,3.1,0.11
177.602,619,map,base_link,-0.2999423725308361,-9.409217791359197,583.366,0.0016534413755541334,0.0007067541877344627,-0.9167898594510582,-0.3993658976901317,-3.0,3.05,0.11
177.842,620,map,base_link,-1.0179863124868405,-8.699088195001082,583.367,0.0017753057557224458,0.0006505565172688669,-0.9168894223021322,-0.3991368341009805,-2.74,2.76,0.09
178.102,621,map,base_link,-1.690584533648547,-8.044437526985007,583.366,0.0017849370605301043,0.0006187964375025587,-0.9168061120858124,-0.39932816571431,-2.38,2.36,0.13
178.342,622,map,base_link,-2.1995778468082676,-7.545127715763442,583.356,0.0015507764744603879,0.00063000701411195,-0.9165985058254373,-0.3998054243029531,-2.08,2.04,0.15
178.602,623,map,base_link,-2.6722145432194964,-7.079105252219449,583.341,0.0011403281082843408,0.0006565754226095236,-0.9162585683273956,-0.40058520258136254,-1.9,1.85,0.16
178.842,624,map,base_link,-3.072137930469836,-6.690753210376101,583.327,0.0006788849580299148,0.0006597136991725029,-0.9156520154559256,-0.4019707582456097,-1.8,1.75,0.15
179.102,625,map,base_link,-3.481150537074484,-6.269113874731943,583.312,0.0002346410665611102,0.0006168682872687043,-0.9146625677693914,-0.4042177031484268,-1.7,1.69,0.16
179.342,626,map,base_link,-3.8447173261180865,-5.880761857080017,583.294,-0.00010083516829454272,0.000541181685051898,-0.9114659588785858,-0.4113751362931318,-1.64,1.71,0.14
179.602,627,map,base_link,-4.217373346201072,-5.448026775596588,583.295,-0.00039466814164849305,0.0004618429905462774,-0.9056513641227846,-0.42402268524295916,-1.55,1.69,0.11
179.842,628,map,base_link,-4.553672721359391,-5.048579026512471,583.307,-0.0006089255194583426,0.00031619413150887877,-0.8981754980266017,-0.43963655896165965,-1.48,1.74,0.05
180.102,629,map,base_link,-4.908150508040677,-4.582556652452297,583.329,-0.0007724777872388125,0.00011852000556530693,-0.8912332868936204,-0.4535445045018961,-1.46,1.76,0.07
180.342,630,map,base_link,-5.22627165661325,-4.127630045027615,583.34,-0.000903272824839112,-6.663751238099991e-05,-0.8835189321643862,-0.4683945731589435,-1.39,1.83,0.05
180.602,631,map,base_link,-5.544392848652052,-3.6394161126006566,583.35,-0.0009858260156852595,-0.0002628319818739557,-0.8765706451763068,-0.4812721299655831,-1.28,1.84,0.02
180.842,632,map,base_link,-5.80797906416214,-3.1622979361993657,583.373,-0.0010684022257445962,-0.0004841358765494448,-0.8684384909905787,-0.49579553396046594,-1.14,1.88,0.02
181.102,633,map,base_link,-6.080654516344509,-2.629700891428115,583.396,-0.0011610864814379557,-0.0007262661728107102,-0.8617353736049783,-0.507356157244117,-1.08,1.98,0.02
181.342,634,map,base_link,-6.316973299721411,-2.1303911551097485,583.418,-0.0012322235150952789,-0.0009875440662141975,-0.850465099837765,-0.5260291059816621,-0.96,2.05,0.03
181.604,635,map,base_link,-6.544202988588552,-1.5756025382409575,583.443,-0.0012762900954360603,-0.0011996928486589932,-0.8394607598537036,-0.5434174863643089,-0.86,2.07,0.0
181.843,636,map,base_link,-6.7350759670744935,-1.0651969947950306,583.459,-0.0013132970551906437,-0.0013440175246938863,-0.832502046305869,-0.554018782862349,-0.8,2.07,0.02
182.103,637,map,base_link,-6.916859833612904,-0.5104083453588828,583.462,-0.0012534950962534849,-0.0014115445176439434,-0.8252681128616756,-0.564737973033377,-0.71,2.1,0.06
182.343,638,map,base_link,-7.080465336676895,0.011092991097655158,583.46,-0.0012567322615288446,-0.0014767188178566684,-0.8181737712246805,-0.5749677556224695,-0.55,2.16,0.06
182.603,639,map,base_link,-7.23498172450482,0.5769774321759655,583.469,-0.0012359406399339915,-0.0015140628346020913,-0.8100778563547973,-0.5863190656187838,-0.52,2.13,0.07
182.843,640,map,base_link,-7.362230576176188,1.087383017150728,583.472,-0.0012096700318970385,-0.0015835169399154693,-0.7979186639099414,-0.6027618393334876,-0.38,2.18,0.09
183.103,641,map,base_link,-7.489479477440739,1.6532674759411634,583.472,-0.001080357632153185,-0.0015793021669805506,-0.787765150069721,-0.6159727323248019,-0.35,2.1,0.09
183.343,642,map,base_link,-7.5894608008057105,2.1525772995650527,583.468,-0.000960506729938645,-0.0015508072740893525,-0.7773324518311985,-0.6290873800623551,-0.15,2.11,0.09
183.603,643,map,base_link,-7.680353008379228,2.707366005419317,583.459,-0.0008807666361700623,-0.0014991093186917303,-0.7632121889005906,-0.6461455963132088,-0.22,2.23,0.09
183.843,644,map,base_link,-7.762156064219795,3.2621547208247534,583.459,-0.0008101211649443842,-0.0014322921104542707,-0.7634252925512363,-0.6458940431185813,-0.23,2.22,0.08
184.103,645,map,base_link,-7.853048317596631,3.8169434337622192,583.467,-0.0006667445120118687,-0.0014163700514626633,-0.7634894876177821,-0.645818358088998,-0.19,1.95,0.06
184.343,646,map,base_link,-7.934851285564434,4.249678615872938,583.469,-0.0005508541501233699,-0.0013275016535064682,-0.7636906800569265,-0.6455807304228139,-0.14,1.64,0.04
184.603,647,map,base_link,-8.007565038791057,4.615839156573088,583.476,-0.000428305366501125,-0.0011249115995777977,-0.7636737791896177,-0.6456012005151888,-0.09,1.26,0.03
184.843,648,map,base_link,-8.05301114272072,4.859946181947237,583.478,-0.00038099563248139735,-0.0008816685785556748,-0.7636794661111574,-0.6455948811313666,-0.04,0.92,0.05
185.103,649,map,base_link,-8.098457191656365,5.02638278547829,583.483,-0.0003778941667725444,-0.0005425745206612412,-0.7638082855401706,-0.6454428446803586,0.0,0.56,0.02
185.343,650,map,base_link,-8.125724783301166,5.092957415268643,583.485,-0.00040338473238562774,-0.0002708640567542024,-0.7637689315676794,-0.6454895685333618,0.03,0.25,0.02
185.603,651,map,base_link,-8.143903119299239,5.070765848480676,583.488,-0.00044621754990682277,1.1693724829435618e-05,-0.763775042279966,-0.6454823665627054,0.07,-0.06,0.03
185.843,652,map,base_link,-8.143903061918422,4.993095424774367,583.493,-0.000489939238158521,0.0002627601194189261,-0.7637588670262216,-0.6455014205681388,0.11,-0.34,0.0
186.103,653,map,base_link,-8.125724608538263,4.871041916228364,583.507,-0.000517728477858045,0.00047946769614791413,-0.7637131884465689,-0.6455553174288996,0.13,-0.47,0.0
186.343,654,map,base_link,-8.125724490821682,4.726796837771815,583.514,-0.0005498749787515684,0.0006453518084940241,-0.7637278339729033,-0.6455378197856485,0.12,-0.46,0.01
186.603,655,map,base_link,-8.116635226123037,4.615839095240858,583.522,-0.0005200323820220722,0.0007766709927508052,-0.7637920634498029,-0.6454617030928969,0.1,-0.39,0.01
186.843,656,map,base_link,-8.116635156036637,4.538168664870284,583.527,-0.00044242286819873273,0.0007933226709503897,-0.7638628355866038,-0.6453779848358154,0.08,-0.32,0.0
187.103,657,map,base_link,-8.116635118944544,4.482689792576082,583.531,-0.0003109740788570264,0.0007264608722705777,-0.764005776149634,-0.6452089193119688,0.06,-0.25,0.02
187.343,658,map,base_link,-8.116635098566064,4.460498240520792,583.531,-0.00017358805649387977,0.0006353360345509582,-0.7641835049674328,-0.6449985557743515,0.04,-0.17,0.0
187.604,659,map,base_link,-8.125724278619941,4.449402464728735,583.542,8.31941946174049e-06,0.0004934658794837894,-0.764375000538666,-0.6447717541686574,0.03,-0.12,0.01
187.844,660,map,base_link,-8.134813480251864,4.460498238748187,583.555,0.00013350315522570242,0.00039882170547295056,-0.7645249304358608,-0.6445940225135484,0.02,-0.08,0.0
188.104,661,map,base_link,-8.13481351578909,4.471594027245601,583.572,0.00027006622424148667,0.0002907163117954732,-0.764694909639954,-0.644392378694071,0.01,-0.06,-0.01
188.344,662,map,base_link,-8.134813548705921,4.493785587062121,583.584,0.00038413665283204703,0.00019827449958576446,-0.7648714150458534,-0.6441828401719567,0.01,-0.05,0.0
188.604,663,map,base_link,-8.143902734768034,4.504881355675195,583.585,0.0005075848849821823,7.016850735107033e-05,-0.7650878673769841,-0.6439256887456063,0.01,-0.05,0.0
188.844,664,map,base_link,-8.152991911634416,4.504881346844627,583.579,0.0005782669245150572,2.548123178398276e-05,-0.7653131652005355,-0.643657847096428,0.01,-0.03,0.02
189.104,665,map,base_link,-8.152991918597365,4.527072892222861,583.573,0.0006192468421482844,1.3089370991555642e-05,-0.765574800326915,-0.6433465951308215,0.0,-0.02,0.01
189.344,666,map,base_link,-8.162081095863527,4.5270728842899075,583.57,0.0006461553813218807,-8.611228563399044e-07,-0.7658236898067728,-0.6430502768938222,0.0,-0.02,0.0
189.604,667,map,base_link,-8.162081095863527,4.5270728842899075,583.57,0.0006879234987755852,-5.055824436827248e-05,-0.7660998309734592,-0.6427212250949558,0.0,-0.02,0.0
189.844,668,map,base_link,-8.171170272330073,4.527072875321153,583.574,0.0006937963555876263,-3.8693372308480524e-05,-0.7663616164041589,-0.6424090519691054,0.0,0.0,0.0
190.104,669,map,base_link,-8.171170282080709,4.538168650941543,583.576,0.0007138515494029708,-7.297538577021305e-05,-0.7666440856618586,-0.6420719048597682,0.0,0.0,0.0
190.344,670,map,base_link,-8.17117029238625,4.549264426257594,583.575,0.000718665302624205,-8.206544743628851e-05,-0.7669062056481182,-0.6417587931020902,0.0,0.0,0.01
190.604,671,map,base_link,-8.17117030532441,4.549264433397525,583.582,0.0007169097013111727,-0.00011622605570450124,-0.7671881356348066,-0.6414217310577917,0.0,0.0,0.0
190.844,672,map,base_link,-8.171170317462895,4.549264441020682,583.595,0.0006944927736216699,-0.0001267208646589667,-0.7674533548753276,-0.6411043984502167,0.0,-0.02,-0.03
191.104,673,map,base_link,-8.171170330478589,4.549264447939322,583.607,0.0006636682208945404,-0.00011335523097618146,-0.7677456095097815,-0.6407544192383994,0.0,-0.02,-0.05
191.344,674,map,base_link,-8.171170343094474,4.54926445509966,583.614,0.0006393914664595559,-0.00010107247621529721,-0.7680182690086783,-0.6404276067065043,0.0,0.0,-0.05
191.604,675,map,base_link,-8.171170356032661,4.549264462239535,583.624,0.0006183057697485634,-0.00011178828681141424,-0.7683109997894623,-0.6400764116915036,0.0,-0.01,-0.07
191.844,676,map,base_link,-8.171170369048355,4.549264469537945,583.636,0.0006290415217338191,-0.00015262290480867383,-0.7685787302906409,-0.6397548877170374,0.0,-0.01,-0.05
192.104,677,map,base_link,-8.171170381664211,4.549264476318513,583.641,0.0006126273714047957,-0.0001375617267593273,-0.7688737415863094,-0.6394003247289951,0.0,-0.01,-0.02
192.344,678,map,base_link,-8.171170381664211,4.549264476318513,583.642,0.0005972387633919324,-0.00015845523365388102,-0.7691451723738012,-0.6390738001294325,0.0,-0.03,-0.02
192.604,679,map,base_link,-8.171170394679905,4.54926448361698,583.652,0.0005669563160446743,-0.0001404834982760856,-0.7694438547444177,-0.638714187427345,0.0,-0.01,-0.05
192.844,680,map,base_link,-8.171170407218256,4.549264490618725,583.663,0.000564275402353457,-0.00015382117150866185,-0.7697194849689967,-0.6383819956666854,0.0,-0.01,-0.03
193.104,681,map,base_link,-8.171170420233949,4.549264497537365,583.674,0.0005545464344537197,-0.00018464862133451114,-0.7700168625144456,-0.6380232674648691,0.0,-0.01,-0.05
193.345,682,map,base_link,-8.171170432772271,4.549264505298652,583.681,0.000526300689901372,-0.00017633826145801456,-0.770295343748047,-0.6376870512347568,0.0,0.0,-0.06
193.605,683,map,base_link,-8.171170443000278,4.560360281595422,583.683,0.0005201273914936317,-0.00020467133923689464,-0.7705962338032781,-0.6373234124252324,0.0,0.0,-0.03
193.845,684,map,base_link,-8.171170443000278,4.560360281595422,583.688,0.0005147796036605323,-0.00023073251613584976,-0.7708754723285399,-0.6369856261539313,0.01,0.0,-0.01
194.105,685,map,base_link,-8.171170443000278,4.560360281595422,583.689,0.0004862643728152219,-0.00024285897984367266,-0.7711658021725953,-0.6366341257943792,0.01,-0.01,-0.01
194.345,686,map,base_link,-8.171170443000278,4.560360281595422,583.689,0.0004833997634684735,-0.00025815830008190955,-0.7714219901185068,-0.6363236698729375,0.01,0.0,-0.01
194.605,687,map,base_link,-8.171170455938466,4.560360289115067,583.698,0.00046101162671279255,-0.00026512901326059435,-0.7716832329558039,-0.6360068436343788,0.01,0.0,-0.05
194.845,688,map,base_link,-8.171170468554322,4.560360296275405,583.707,0.00044786078710368167,-0.0002594256246632057,-0.7719140892286296,-0.6357266479937708,0.01,0.0,-0.05
195.105,689,map,base_link,-8.171170481492481,4.56036030341528,583.71,0.0004286979274392063,-0.00026256472224275526,-0.7721627033522162,-0.6354246665259784,0.01,0.0,-0.05
195.345,690,map,base_link,-8.171170481492481,4.56036030341528,583.717,0.000408187810478392,-0.0002677322640299742,-0.7723935998387081,-0.6351439904701514,0.01,0.0,-0.06
195.605,691,map,base_link,-8.171170481492481,4.56036030341528,583.719,0.00038890319769813863,-0.0002597206561707773,-0.7726428277867304,-0.6348408004919095,0.01,0.0,-0.07
195.845,692,map,base_link,-8.171170481492481,4.56036030341528,583.719,0.00036958452320190585,-0.00025335910054805343,-0.7728732848946623,-0.6345602293814041,0.01,0.0,-0.06
196.105,693,map,base_link,-8.17117050425884,4.57145608595431,583.724,0.00034563712866354687,-0.00024066471109276093,-0.7731218224369721,-0.6342574164227068,0.01,0.0,-0.07
196.345,694,map,base_link,-8.17117050425884,4.57145608595431,583.728,0.0003150501205924793,-0.00023614465666834758,-0.7733534798634889,-0.6339749523144861,0.01,0.0,-0.07
196.605,695,map,base_link,-8.171170517197027,4.571456093473955,583.735,0.0002833414855075042,-0.00022772697581646028,-0.773606300002322,-0.6336664425821714,0.01,0.0,-0.04
196.845,696,map,base_link,-8.171170517197027,4.571456093473955,583.737,0.0002546453887768883,-0.000207860692975393,-0.7738444895684429,-0.6333755583492423,0.02,0.02,-0.04
197.105,697,map,base_link,-8.162081340408179,4.571456101703518,583.737,0.0002365563999115375,-0.00019299405517965969,-0.7741028488923292,-0.6330597808510222,0.02,0.01,-0.03
197.345,698,map,base_link,-8.162081350558651,4.582551878981008,583.73,0.0002183312544723553,-0.00018629054079640734,-0.7743458209200192,-0.6327625678333058,0.02,0.01,-0.05
197.605,699,map,base_link,-8.162081337542958,4.582551871682597,583.724,0.0001858036848117095,-0.00015266789641909292,-0.7746179154696415,-0.6324294642115996,0.02,0.0,-0.04
197.845,700,map,base_link,-8.162081337542958,4.582551871682597,583.72,0.00017000455438220976,-0.00013551755437773565,-0.7748743522058644,-0.63211525137983,0.02,0.0,-0.04
198.105,701,map,base_link,-8.162081327792322,4.571456094543294,583.723,0.00014955816098516706,-9.969010285964321e-05,-0.7751503121753606,-0.6317768286576209,0.02,0.01,-0.03
198.345,702,map,base_link,-8.162081327792322,4.571456094543294,583.723,0.00011901530011615281,-6.714897091437018e-05,-0.7753949722565912,-0.6314765382225807,0.02,0.0,-0.03
198.605,703,map,base_link,-8.15299213751041,4.571456095937208,583.715,7.306234646234281e-05,-4.619925367126762e-05,-0.7756475174505795,-0.6311663181763388,0.03,0.0,-0.01
198.845,704,map,base_link,-8.152992125371924,4.5714560883141075,583.709,4.934863672580341e-05,-1.721226337853675e-05,-0.7758827812498076,-0.6308770934409593,0.02,0.0,-0.01
199.105,705,map,base_link,-8.152992125371924,4.5714560883141075,583.709,2.439507527613405e-05,1.1460429676321616e-05,-0.7761398291287345,-0.6305608336342796,0.02,0.0,-0.01
199.346,706,map,base_link,-8.15299213751041,4.571456095937208,583.71,1.8456721027490562e-05,2.968334374210815e-05,-0.7763910184517161,-0.6302515253815382,0.02,0.0,0.0
199.606,707,map,base_link,-8.152992125371924,4.5714560883141075,583.709,1.9227960808410054e-05,5.088831165083654e-05,-0.7766537046514708,-0.6299277895852916,0.02,0.0,0.0
199.846,708,map,base_link,-8.15299213751041,4.571456095937208,583.713,-4.926012445400874e-06,9.232335547346427e-05,-0.7768987646757332,-0.6296255243376434,0.02,0.0,-0.02
200.106,709,map,base_link,-8.15299213751041,4.571456095937208,583.716,-2.615095140537623e-05,0.00011537645935961927,-0.7771677982326836,-0.6292934128008676,0.02,-0.02,-0.02
200.346,710,map,base_link,-8.152992150448597,4.571456103077139,583.723,-4.538012826233074e-05,0.00015555403244657637,-0.7774155504504463,-0.6289873096187367,0.02,-0.02,-0.04
