Time,header.seq,header.stamp.secs,header.stamp.nsecs,header.frame_id,orientation.x,orientation.y,orientation.z,orientation.w,orientation_covariance_0,orientation_covariance_1,orientation_covariance_2,orientation_covariance_3,orientation_covariance_4,orientation_covariance_5,orientation_covariance_6,orientation_covariance_7,orientation_covariance_8,angular_velocity.x,angular_velocity.y,angular_velocity.z,angular_velocity_covariance_0,angular_velocity_covariance_1,angular_velocity_covariance_2,angular_velocity_covariance_3,angular_velocity_covariance_4,angular_velocity_covariance_5,angular_velocity_covariance_6,angular_velocity_covariance_7,angular_velocity_covariance_8,linear_acceleration.x,linear_acceleration.y,linear_acceleration.z,linear_acceleration_covariance_0,linear_acceleration_covariance_1,linear_acceleration_covariance_2,linear_acceleration_covariance_3,linear_acceleration_covariance_4,linear_acceleration_covariance_5,linear_acceleration_covariance_6,linear_acceleration_covariance_7,linear_acceleration_covariance_8
114.829,368,114,829000000,base_link,8.558398550881166e-06,-0.0009527288895928468,-0.7505234454811522,0.660843135711885,1.0,0.0,0.0,0.0,1.0,0.0,0.0,0.0,1.0,0.0002495796652510762,-0.00028803956229239724,-0.0018367936136201024,1.2184696791468346e-07,0.0,0.0,0.0,1.2184696791468346e-07,0.0,0.0,0.0,1.2184696791468346e-07,0.0,1.188958570752981e-15,9.7085835,8.999999999999999e-08,0.0,0.0,0.0,8.999999999999999e-08,0.0,0.0,0.0,8.999999999999999e-08
115.089,369,115,89000000,base_link,9.849329127129645e-06,-0.0009502563225822432,-0.7505937939714965,0.6607632354840778,1.0,0.0,0.0,0.0,1.0,0.0,0.0,0.0,1.0,0.00022078212350606918,-0.0002655596472322943,-0.0018508629873394966,1.2184696791468346e-07,0.0,0.0,0.0,1.2184696791468346e-07,0.0,0.0,0.0,1.2184696791468346e-07,0.0,1.1853556659931232e-15,9.67916355,8.999999999999999e-08,0.0,0.0,0.0,8.999999999999999e-08,0.0,0.0,0.0,8.999999999999999e-08
115.329,370,115,329000000,base_link,8.527662355861693e-06,-0.000945688157751854,-0.7506574419247879,0.6606909341622003,1.0,0.0,0.0,0.0,1.0,0.0,0.0,0.0,1.0,0.0002139342250302434,-0.00028934841975569747,-0.0018375399522483349,1.2184696791468346e-07,0.0,0.0,0.0,1.2184696791468346e-07,0.0,0.0,0.0,1.2184696791468346e-07,0.0,1.2045711580456967e-15,9.83606995,8.999999999999999e-08,0.0,0.0,0.0,8.999999999999999e-08,0.0,0.0,0.0,8.999999999999999e-08
115.589,371,115,589000000,base_link,5.332379874697642e-06,-0.0009450759504491327,-0.7507274563617751,0.6606113782456313,1.0,0.0,0.0,0.0,1.0,0.0,0.0,0.0,1.0,0.00021375739015638828,-0.0003019488649442794,-0.001847519539296627,1.2184696791468346e-07,0.0,0.0,0.0,1.2184696791468346e-07,0.0,0.0,0.0,1.2184696791468346e-07,0.0,1.1325130628485461e-15,9.24767095,8.999999999999999e-08,0.0,0.0,0.0,8.999999999999999e-08,0.0,0.0,0.0,8.999999999999999e-08
115.829,372,115,829000000,base_link,4.877450144645865e-06,-0.0009429146514832673,-0.7507927401253286,0.6605371846181496,1.0,0.0,0.0,0.0,1.0,0.0,0.0,0.0,1.0,0.0002227163640782237,-0.0002803498646244409,-0.0018414899241179228,1.2184696791468346e-07,0.0,0.0,0.0,1.2184696791468346e-07,0.0,0.0,0.0,1.2184696791468346e-07,0.0,1.1985663167792674e-15,9.7870367,8.999999999999999e-08,0.0,0.0,0.0,8.999999999999999e-08,0.0,0.0,0.0,8.999999999999999e-08
116.09,373,116,90000000,base_link,1.6685162770554197e-06,-0.0009424923808349227,-0.7508639977327815,0.6604561822059609,1.0,0.0,0.0,0.0,1.0,0.0,0.0,0.0,1.0,0.00021357752848416567,-0.00030927720945328496,-0.0018377776723355055,1.2184696791468346e-07,0.0,0.0,0.0,1.2184696791468346e-07,0.0,0.0,0.0,1.2184696791468346e-07,0.0,1.1901595390062667e-15,9.71839015,8.999999999999999e-08,0.0,0.0,0.0,8.999999999999999e-08,0.0,0.0,0.0,8.999999999999999e-08
116.33,374,116,330000000,base_link,1.4889920403645833e-06,-0.0009414302045487304,-0.7509278476907446,0.6603835864628214,1.0,0.0,0.0,0.0,1.0,0.0,0.0,0.0,1.0,0.0002467710291966796,-0.00028387387283146403,-0.0018319885712116957,1.2184696791468346e-07,0.0,0.0,0.0,1.2184696791468346e-07,0.0,0.0,0.0,1.2184696791468346e-07,0.0,1.1781498564734082e-15,9.62032365,8.999999999999999e-08,0.0,0.0,0.0,8.999999999999999e-08,0.0,0.0,0.0,8.999999999999999e-08
116.59,375,116,590000000,base_link,-5.823798759342793e-08,-0.0009385120802175232,-0.7509986198682869,0.6603031062709004,1.0,0.0,0.0,0.0,1.0,0.0,0.0,0.0,1.0,0.000218841596506536,-0.00029009219724684975,-0.0018416985403746367,1.2184696791468346e-07,0.0,0.0,0.0,1.2184696791468346e-07,0.0,0.0,0.0,1.2184696791468346e-07,0.0,1.1937624437661242e-15,9.7478101,8.999999999999999e-08,0.0,0.0,0.0,8.999999999999999e-08,0.0,0.0,0.0,8.999999999999999e-08
116.83,376,116,830000000,base_link,-1.6782326608623168e-06,-0.0009333520241304425,-0.7510618306500563,0.6602312135848841,1.0,0.0,0.0,0.0,1.0,0.0,0.0,0.0,1.0,0.00018870597705245018,-0.0002912683412432673,-0.0018048936035484076,1.2184696791468346e-07,0.0,0.0,0.0,1.2184696791468346e-07,0.0,0.0,0.0,1.2184696791468346e-07,0.0,1.164939205687264e-15,9.5124505,8.999999999999999e-08,0.0,0.0,0.0,8.999999999999999e-08,0.0,0.0,0.0,8.999999999999999e-08
117.09,377,117,90000000,base_link,-1.8650315610557085e-06,-0.0009315228968911087,-0.7511324277543123,0.6601508980812848,1.0,0.0,0.0,0.0,1.0,0.0,0.0,0.0,1.0,0.0002260798355564475,-0.0002848790027201178,-0.001824629376642406,1.2184696791468346e-07,0.0,0.0,0.0,1.2184696791468346e-07,0.0,0.0,0.0,1.2184696791468346e-07,0.0,1.1709440469536932e-15,9.56148375,8.999999999999999e-08,0.0,0.0,0.0,8.999999999999999e-08,0.0,0.0,0.0,8.999999999999999e-08
117.33,378,117,330000000,base_link,-5.555314807345124e-06,-0.0009318815615576137,-0.7511978984752069,0.6600763962544993,1.0,0.0,0.0,0.0,1.0,0.0,0.0,0.0,1.0,0.00021690817084163427,-0.0003107611555606129,-0.0018360901158303022,1.2184696791468346e-07,0.0,0.0,0.0,1.2184696791468346e-07,0.0,0.0,0.0,1.2184696791468346e-07,0.0,1.1229053168222594e-15,9.16921775,8.999999999999999e-08,0.0,0.0,0.0,8.999999999999999e-08,0.0,0.0,0.0,8.999999999999999e-08
117.59,379,117,590000000,base_link,-6.871099785875643e-06,-0.0009278228243758334,-0.7512689539088464,0.6599955287653864,1.0,0.0,0.0,0.0,1.0,0.0,0.0,0.0,1.0,0.0002189768711104989,-0.0002823062241077425,-0.0018134491983801126,1.2184696791468346e-07,0.0,0.0,0.0,1.2184696791468346e-07,0.0,0.0,0.0,1.2184696791468346e-07,0.0,1.1337140311018321e-15,9.2574776,8.999999999999999e-08,0.0,0.0,0.0,8.999999999999999e-08,0.0,0.0,0.0,8.999999999999999e-08
117.83,380,117,830000000,base_link,-6.717459155988152e-06,-0.0009242613707686935,-0.7513337066131885,0.6599218188563563,1.0,0.0,0.0,0.0,1.0,0.0,0.0,0.0,1.0,0.0002023829147219658,-0.00028229341842234156,-0.0018427192699164152,1.2184696791468346e-07,0.0,0.0,0.0,1.2184696791468346e-07,0.0,0.0,0.0,1.2184696791468346e-07,0.0,1.1277091898354029e-15,9.20844435,8.999999999999999e-08,0.0,0.0,0.0,8.999999999999999e-08,0.0,0.0,0.0,8.999999999999999e-08
118.09,381,118,90000000,base_link,-7.092430511193923e-06,-0.0009216021127001217,-0.7514037997143922,0.6598420116770505,1.0,0.0,0.0,0.0,1.0,0.0,0.0,0.0,1.0,0.0002306716050952673,-0.0002872290788218381,-0.00182990706525743,1.2184696791468346e-07,0.0,0.0,0.0,1.2184696791468346e-07,0.0,0.0,0.0,1.2184696791468346e-07,0.0,1.2442031104041293e-15,10.1596894,8.999999999999999e-08,0.0,0.0,0.0,8.999999999999999e-08,0.0,0.0,0.0,8.999999999999999e-08
118.33,382,118,330000000,base_link,-1.1330523675351186e-05,-0.000920487609512294,-0.7514450954848644,0.6597949841018217,1.0,0.0,0.0,0.0,1.0,0.0,0.0,0.0,1.0,0.0002037863014265895,-0.00033901364076882617,-0.0014529259642586112,1.2184696791468346e-07,0.0,0.0,0.0,1.2184696791468346e-07,0.0,0.0,0.0,1.2184696791468346e-07,0.12748645,1.1613363009274065e-15,9.48303055,8.999999999999999e-08,0.0,0.0,0.0,8.999999999999999e-08,0.0,0.0,0.0,8.999999999999999e-08
118.59,383,118,590000000,base_link,-6.18228494741808e-06,-0.0009117593605541725,-0.7514614668767903,0.6597763503309516,1.0,0.0,0.0,0.0,1.0,0.0,0.0,0.0,1.0,0.00021952891256660223,-0.000306137138977647,-0.0011146478354930878,1.2184696791468346e-07,0.0,0.0,0.0,1.2184696791468346e-07,0.0,0.0,0.0,1.2184696791468346e-07,0.95124505,1.143321777128119e-15,9.3359308,8.999999999999999e-08,0.0,0.0,0.0,8.999999999999999e-08,0.0,0.0,0.0,8.999999999999999e-08
118.83,384,118,830000000,base_link,3.7539516619560114e-05,-0.0008686263200831989,-0.7514539734575856,0.6597849421242553,1.0,0.0,0.0,0.0,1.0,0.0,0.0,0.0,1.0,0.00023003073874861002,-0.00023235660046339046,-0.0008579397690482438,1.2184696791468346e-07,0.0,0.0,0.0,1.2184696791468346e-07,0.0,0.0,0.0,1.2184696791468346e-07,1.2552512,1.1481256501412623e-15,9.3751574,8.999999999999999e-08,0.0,0.0,0.0,8.999999999999999e-08,0.0,0.0,0.0,8.999999999999999e-08
119.091,385,119,91000000,base_link,0.00014462626581039783,-0.0007595256081622287,-0.7514040787924804,0.6598418845284963,1.0,0.0,0.0,0.0,1.0,0.0,0.0,0.0,1.0,0.0001874708104878664,-0.00032047252170741563,-0.00038599394611082966,1.2184696791468346e-07,0.0,0.0,0.0,1.2184696791468346e-07,0.0,0.0,0.0,1.2184696791468346e-07,1.34351105,-0.01961329999999881,9.7281968,8.999999999999999e-08,0.0,0.0,0.0,8.999999999999999e-08,0.0,0.0,0.0,8.999999999999999e-08
119.331,386,119,331000000,base_link,0.000266201679376793,-0.0006206882785360981,-0.7513408915742595,0.6599139402460927,1.0,0.0,0.0,0.0,1.0,0.0,0.0,0.0,1.0,0.00018858537077903748,-0.00022817635908722886,-0.0007643107092007995,1.2184696791468346e-07,0.0,0.0,0.0,1.2184696791468346e-07,0.0,0.0,0.0,1.2184696791468346e-07,1.2748645,1.1481256501412623e-15,9.3751574,8.999999999999999e-08,0.0,0.0,0.0,8.999999999999999e-08,0.0,0.0,0.0,8.999999999999999e-08
119.591,387,119,591000000,base_link,0.0004542105011868517,-0.00039486237962936646,-0.7512821221639292,0.6599809169160761,1.0,0.0,0.0,0.0,1.0,0.0,0.0,0.0,1.0,0.00021581642795354128,-0.00013102358207106604,-0.001082448405213654,1.2184696791468346e-07,0.0,0.0,0.0,1.2184696791468346e-07,0.0,0.0,0.0,1.2184696791468346e-07,1.176798,0.009806650000001168,9.5320638,8.999999999999999e-08,0.0,0.0,0.0,8.999999999999999e-08,0.0,0.0,0.0,8.999999999999999e-08
119.831,388,119,831000000,base_link,0.0005969002196121602,-0.0002234261034311399,-0.7511784814392347,0.6600988432148245,1.0,0.0,0.0,0.0,1.0,0.0,0.0,0.0,1.0,0.00020847260020673275,-0.00021524133626371628,-0.0005243986379355192,1.2184696791468346e-07,0.0,0.0,0.0,1.2184696791468346e-07,0.0,0.0,0.0,1.2184696791468346e-07,1.1571847,1.2586147294435593e-15,10.2773692,8.999999999999999e-08,0.0,0.0,0.0,8.999999999999999e-08,0.0,0.0,0.0,8.999999999999999e-08
120.091,389,120,91000000,base_link,0.0007394403563285131,-2.5577946740560266e-05,-0.7510639920621737,0.6602289999699795,1.0,0.0,0.0,0.0,1.0,0.0,0.0,0.0,1.0,0.00016429543029516935,-0.00020445196423679606,-0.0013615841744467616,1.2184696791468346e-07,0.0,0.0,0.0,1.2184696791468346e-07,0.0,0.0,0.0,1.2184696791468346e-07,1.1179581,1.1829537294865517e-15,9.65955025,8.999999999999999e-08,0.0,0.0,0.0,8.999999999999999e-08,0.0,0.0,0.0,8.999999999999999e-08
120.331,390,120,331000000,base_link,0.000868472644662342,0.00014574976096548174,-0.7509262045175467,0.6603855388189116,1.0,0.0,0.0,0.0,1.0,0.0,0.0,0.0,1.0,0.0002030476462095976,0.00024661398492753495,-0.0006989060784690082,1.2184696791468346e-07,0.0,0.0,0.0,1.2184696791468346e-07,0.0,0.0,0.0,1.2184696791468346e-07,1.0983448,-0.009806649999998855,9.3555441,8.999999999999999e-08,0.0,0.0,0.0,8.999999999999999e-08,0.0,0.0,0.0,8.999999999999999e-08
120.591,391,120,591000000,base_link,0.0009471830691656309,0.00030903325578680337,-0.7507837809601612,0.6605472894425084,1.0,0.0,0.0,0.0,1.0,0.0,0.0,0.0,1.0,5.6491000577807426e-05,-0.0001309626968577506,-0.0015937834978103638,1.2184696791468346e-07,0.0,0.0,0.0,1.2184696791468346e-07,0.0,0.0,0.0,1.2184696791468346e-07,1.2160246,1.2009682532858392e-15,9.80665,8.999999999999999e-08,0.0,0.0,0.0,8.999999999999999e-08,0.0,0.0,0.0,8.999999999999999e-08
120.831,392,120,831000000,base_link,0.0010079716578594007,0.0004438049138964497,-0.7506411481195308,0.6607092051577063,1.0,0.0,0.0,0.0,1.0,0.0,0.0,0.0,1.0,4.006887320429087e-05,0.00017927377484738813,-0.0012042054440826178,1.2184696791468346e-07,0.0,0.0,0.0,1.2184696791468346e-07,0.0,0.0,0.0,1.2184696791468346e-07,0.980665,1.1937624437661242e-15,9.7478101,8.999999999999999e-08,0.0,0.0,0.0,8.999999999999999e-08,0.0,0.0,0.0,8.999999999999999e-08
121.091,393,121,91000000,base_link,0.001074401616017565,0.0005490112081560255,-0.7504464012880957,0.6609302104168089,1.0,0.0,0.0,0.0,1.0,0.0,0.0,0.0,1.0,0.0005342352669686079,0.00048574514221400033,0.0007373029366135596,1.2184696791468346e-07,0.0,0.0,0.0,1.2184696791468346e-07,0.0,0.0,0.0,1.2184696791468346e-07,0.91201845,1.1373169358616896e-15,9.28689755,8.999999999999999e-08,0.0,0.0,0.0,8.999999999999999e-08,0.0,0.0,0.0,8.999999999999999e-08
121.331,394,121,331000000,base_link,0.0010694951212491003,0.0005884581205588902,-0.7503540190100665,0.661035064162762,1.0,0.0,0.0,0.0,1.0,0.0,0.0,0.0,1.0,0.00022708578035235405,-0.00015573250129818946,-0.0024030914064496756,1.2184696791468346e-07,0.0,0.0,0.0,1.2184696791468346e-07,0.0,0.0,0.0,1.2184696791468346e-07,0.9218251,0.0392266000000012,9.81645665,8.999999999999999e-08,0.0,0.0,0.0,8.999999999999999e-08,0.0,0.0,0.0,8.999999999999999e-08
121.591,395,121,591000000,base_link,0.0010332501430711156,0.0006182401839001646,-0.7503089992119335,0.6610861939829056,1.0,0.0,0.0,0.0,1.0,0.0,0.0,0.0,1.0,0.00015484914183616638,-0.00042256840970367237,-0.003725562710314989,1.2184696791468346e-07,0.0,0.0,0.0,1.2184696791468346e-07,0.0,0.0,0.0,1.2184696791468346e-07,-0.0784532,-0.009806649999998779,9.9635564,8.999999999999999e-08,0.0,0.0,0.0,8.999999999999999e-08,0.0,0.0,0.0,8.999999999999999e-08
121.831,396,121,831000000,base_link,0.0009619697076322076,0.0005989355086827458,-0.7502780554825105,0.6611214376738368,1.0,0.0,0.0,0.0,1.0,0.0,0.0,0.0,1.0,0.0002019555540755391,0.00013896031305193877,-0.0020473639015108347,1.2184696791468346e-07,0.0,0.0,0.0,1.2184696791468346e-07,0.0,0.0,0.0,1.2184696791468346e-07,-0.12748645,1.2045711580456967e-15,9.83606995,8.999999999999999e-08,0.0,0.0,0.0,8.999999999999999e-08,0.0,0.0,0.0,8.999999999999999e-08
122.092,397,122,92000000,base_link,0.0008113446836700058,0.0005117637067503284,-0.7503329999613232,0.6610593536035578,1.0,0.0,0.0,0.0,1.0,0.0,0.0,0.0,1.0,8.647690992802382e-05,8.180341683328131e-05,-0.0016978892963379622,1.2184696791468346e-07,0.0,0.0,0.0,1.2184696791468346e-07,0.0,0.0,0.0,1.2184696791468346e-07,-0.3334261,1.2009682532858392e-15,9.80665,8.999999999999999e-08,0.0,0.0,0.0,8.999999999999999e-08,0.0,0.0,0.0,8.999999999999999e-08
122.332,398,122,332000000,base_link,0.0006334389597698947,0.0003760656013908967,-0.7502374351648045,0.6611680937606436,1.0,0.0,0.0,0.0,1.0,0.0,0.0,0.0,1.0,0.000399818760342896,0.00014506967272609467,-0.0003441374283283949,1.2184696791468346e-07,0.0,0.0,0.0,1.2184696791468346e-07,0.0,0.0,0.0,1.2184696791468346e-07,-0.2157463,1.188958570752981e-15,9.7085835,8.999999999999999e-08,0.0,0.0,0.0,8.999999999999999e-08,0.0,0.0,0.0,8.999999999999999e-08
122.592,399,122,592000000,base_link,0.00044994821831551436,0.00020040611718958982,-0.7504108216737232,0.6609715244236749,1.0,0.0,0.0,0.0,1.0,0.0,0.0,0.0,1.0,0.00022403767798095942,-3.2678013667464724e-05,-0.003819355508312583,1.2184696791468346e-07,0.0,0.0,0.0,1.2184696791468346e-07,0.0,0.0,0.0,1.2184696791468346e-07,-0.392266,1.2153798723252691e-15,9.9243298,8.999999999999999e-08,0.0,0.0,0.0,8.999999999999999e-08,0.0,0.0,0.0,8.999999999999999e-08
122.832,400,122,832000000,base_link,0.0002461782074694089,3.445828106670666e-05,-0.7504177964362381,0.6609637425764727,1.0,0.0,0.0,0.0,1.0,0.0,0.0,0.0,1.0,0.00023894687183201313,-0.0002018538070842623,0.0006304314592853189,1.2184696791468346e-07,0.0,0.0,0.0,1.2184696791468346e-07,0.0,0.0,0.0,1.2184696791468346e-07,-0.24516625,-0.0882598499999988,9.7870367,8.999999999999999e-08,0.0,0.0,0.0,8.999999999999999e-08,0.0,0.0,0.0,8.999999999999999e-08
123.092,401,123,92000000,base_link,4.557087924815938e-05,-0.00015703199061776536,-0.7506221372356481,0.6607317007349028,1.0,0.0,0.0,0.0,1.0,0.0,0.0,0.0,1.0,0.0002839904045686126,-6.304087582975659e-05,-0.0026616875547915697,1.2184696791468346e-07,0.0,0.0,0.0,1.2184696791468346e-07,0.0,0.0,0.0,1.2184696791468346e-07,-0.1569064,0.03922660000000117,9.610517,8.999999999999999e-08,0.0,0.0,0.0,8.999999999999999e-08,0.0,0.0,0.0,8.999999999999999e-08
123.332,402,123,332000000,base_link,-0.00013315142859806505,-0.00030064081749105133,-0.7508460518430488,0.6604771747134806,1.0,0.0,0.0,0.0,1.0,0.0,0.0,0.0,1.0,0.00010439858306199312,-0.0002467904705554253,-0.00494722742587328,1.2184696791468346e-07,0.0,0.0,0.0,1.2184696791468346e-07,0.0,0.0,0.0,1.2184696791468346e-07,-0.0588399,0.009806650000001202,9.81645665,8.999999999999999e-08,0.0,0.0,0.0,8.999999999999999e-08,0.0,0.0,0.0,8.999999999999999e-08
123.592,403,123,592000000,base_link,-0.0002831845150201311,-0.00045072523170457417,-0.7509071360682494,0.6604075935776901,1.0,0.0,0.0,0.0,1.0,0.0,0.0,0.0,1.0,9.931705426424742e-05,-0.00039137632120400667,3.566477971617137e-05,1.2184696791468346e-07,0.0,0.0,0.0,1.2184696791468346e-07,0.0,0.0,0.0,1.2184696791468346e-07,-0.02941995,-0.0098066499999988,9.80665,8.999999999999999e-08,0.0,0.0,0.0,8.999999999999999e-08,0.0,0.0,0.0,8.999999999999999e-08
123.832,404,123,832000000,base_link,-0.0003887610130981533,-0.0005702573553374869,-0.7511989628027402,0.6600754820136184,1.0,0.0,0.0,0.0,1.0,0.0,0.0,0.0,1.0,0.00022664968855679035,-0.0002636876888573174,-0.003361850744113326,1.2184696791468346e-07,0.0,0.0,0.0,1.2184696791468346e-07,0.0,0.0,0.0,1.2184696791468346e-07,0.0196133,-0.029419949999998782,9.97336305,8.999999999999999e-08,0.0,0.0,0.0,8.999999999999999e-08,0.0,0.0,0.0,8.999999999999999e-08
124.092,405,124,92000000,base_link,-0.0005067375394178285,-0.000700398131774938,-0.7515638232259966,0.6596598155696964,1.0,0.0,0.0,0.0,1.0,0.0,0.0,0.0,1.0,0.00015308638103306293,-0.0006293730111792691,-0.006452165078371763,1.2184696791468346e-07,0.0,0.0,0.0,1.2184696791468346e-07,0.0,0.0,0.0,1.2184696791468346e-07,0.0,-0.019613299999998803,9.7674234,8.999999999999999e-08,0.0,0.0,0.0,8.999999999999999e-08,0.0,0.0,0.0,8.999999999999999e-08
124.332,406,124,332000000,base_link,-0.0005544958954849915,-0.0008252175940440513,-0.7518028440140659,0.659387211949539,1.0,0.0,0.0,0.0,1.0,0.0,0.0,0.0,1.0,0.0006216525798663497,-0.0003347087185829882,-0.0033485139720141888,1.2184696791468346e-07,0.0,0.0,0.0,1.2184696791468346e-07,0.0,0.0,0.0,1.2184696791468346e-07,-0.0588399,-0.029419949999998793,9.85568325,8.999999999999999e-08,0.0,0.0,0.0,8.999999999999999e-08,0.0,0.0,0.0,8.999999999999999e-08
124.592,407,124,592000000,base_link,-0.0005971997778326856,-0.000912811046807465,-0.7522108573090585,0.6589215706552557,1.0,0.0,0.0,0.0,1.0,0.0,0.0,0.0,1.0,0.0007839808240532875,-0.0006517913425341254,-0.004682427272200584,1.2184696791468346e-07,0.0,0.0,0.0,1.2184696791468346e-07,0.0,0.0,0.0,1.2184696791468346e-07,0.0588399,0.019613300000001183,9.6889702,8.999999999999999e-08,0.0,0.0,0.0,8.999999999999999e-08,0.0,0.0,0.0,8.999999999999999e-08
124.832,408,124,832000000,base_link,-0.0006349522601014282,-0.0009561456460349713,-0.7525578769873494,0.6585251129648924,1.0,0.0,0.0,0.0,1.0,0.0,0.0,0.0,1.0,0.00012133538257330656,-5.873956251889548e-05,-0.006575774867087603,1.2184696791468346e-07,0.0,0.0,0.0,1.2184696791468346e-07,0.0,0.0,0.0,1.2184696791468346e-07,0.06864655,1.1925614755128384e-15,9.73800345,8.999999999999999e-08,0.0,0.0,0.0,8.999999999999999e-08,0.0,0.0,0.0,8.999999999999999e-08
125.093,409,125,93000000,base_link,-0.0006355237032881891,-0.0010336378818889473,-0.752837399767002,0.6582054217449222,1.0,0.0,0.0,0.0,1.0,0.0,0.0,0.0,1.0,0.0005618029972538352,-0.0002326579997316008,-0.004111122339963913,1.2184696791468346e-07,0.0,0.0,0.0,1.2184696791468346e-07,0.0,0.0,0.0,1.2184696791468346e-07,-0.1176798,-0.04903324999999878,9.93413645,8.999999999999999e-08,0.0,0.0,0.0,8.999999999999999e-08,0.0,0.0,0.0,8.999999999999999e-08
125.333,410,125,333000000,base_link,-0.0006280686687453199,-0.0010807078464057374,-0.7531691358340383,0.6578257295266778,1.0,0.0,0.0,0.0,1.0,0.0,0.0,0.0,1.0,0.0003547318046912551,-0.0006151165580376986,-0.0024578676093369722,1.2184696791468346e-07,0.0,0.0,0.0,1.2184696791468346e-07,0.0,0.0,0.0,1.2184696791468346e-07,0.2549729,0.03922660000000119,9.639936950000001,8.999999999999999e-08,0.0,0.0,0.0,8.999999999999999e-08,0.0,0.0,0.0,8.999999999999999e-08
125.593,411,125,593000000,base_link,-0.0006478766975790516,-0.0011366458315588148,-0.7536455525908969,0.6572797496895822,1.0,0.0,0.0,0.0,1.0,0.0,0.0,0.0,1.0,0.0003030267544090748,-0.000578736071474851,-0.007521954830735922,1.2184696791468346e-07,0.0,0.0,0.0,1.2184696791468346e-07,0.0,0.0,0.0,1.2184696791468346e-07,0.04903325,0.0098066500000012,9.79684335,8.999999999999999e-08,0.0,0.0,0.0,8.999999999999999e-08,0.0,0.0,0.0,8.999999999999999e-08
125.833,412,125,833000000,base_link,-0.0006495625303234848,-0.0011749188601233058,-0.7539631243123825,0.656915371118154,1.0,0.0,0.0,0.0,1.0,0.0,0.0,0.0,1.0,0.00021550070960074663,-0.00036272441502660567,-0.004322650842368603,1.2184696791468346e-07,0.0,0.0,0.0,1.2184696791468346e-07,0.0,0.0,0.0,1.2184696791468346e-07,-0.14709975,-0.06864654999999878,10.002783,8.999999999999999e-08,0.0,0.0,0.0,8.999999999999999e-08,0.0,0.0,0.0,8.999999999999999e-08
126.093,413,126,93000000,base_link,-0.0006007415849211453,-0.0011750307891353895,-0.7544867104142948,0.6563139966665411,1.0,0.0,0.0,0.0,1.0,0.0,0.0,0.0,1.0,0.00041700457222759724,-0.00021118891891092124,-0.005078645423054695,1.2184696791468346e-07,0.0,0.0,0.0,1.2184696791468346e-07,0.0,0.0,0.0,1.2184696791468346e-07,0.42168595,0.019613300000001197,9.79684335,8.999999999999999e-08,0.0,0.0,0.0,8.999999999999999e-08,0.0,0.0,0.0,8.999999999999999e-08
126.333,414,126,333000000,base_link,-0.0005766547104191192,-0.0011644837664490308,-0.7549711367296682,0.6557567339738231,1.0,0.0,0.0,0.0,1.0,0.0,0.0,0.0,1.0,5.21800247952342e-05,-0.000288259470835329,-0.007396591827273369,1.2184696791468346e-07,0.0,0.0,0.0,1.2184696791468346e-07,0.0,0.0,0.0,1.2184696791468346e-07,-0.0588399,-0.0392265999999988,9.77723005,8.999999999999999e-08,0.0,0.0,0.0,8.999999999999999e-08,0.0,0.0,0.0,8.999999999999999e-08
126.593,415,126,593000000,base_link,-0.0005247459016390482,-0.0011512153518615444,-0.755463751932812,0.6551892237060614,1.0,0.0,0.0,0.0,1.0,0.0,0.0,0.0,1.0,0.00037272146437317133,-0.0002803690731525427,-0.004963763058185577,1.2184696791468346e-07,0.0,0.0,0.0,1.2184696791468346e-07,0.0,0.0,0.0,1.2184696791468346e-07,0.04903325,-0.0392265999999988,9.7674234,8.999999999999999e-08,0.0,0.0,0.0,8.999999999999999e-08,0.0,0.0,0.0,8.999999999999999e-08
126.833,416,126,833000000,base_link,-0.00045024964197480644,-0.0011183048354712459,-0.7559359976820983,0.6546444180453426,1.0,0.0,0.0,0.0,1.0,0.0,0.0,0.0,1.0,0.00037612905725836754,1.4255056157701902e-06,-0.005116998217999935,1.2184696791468346e-07,0.0,0.0,0.0,1.2184696791468346e-07,0.0,0.0,0.0,1.2184696791468346e-07,0.16671305,-0.009806649999998786,9.9243298,8.999999999999999e-08,0.0,0.0,0.0,8.999999999999999e-08,0.0,0.0,0.0,8.999999999999999e-08
127.093,417,127,93000000,base_link,-0.00037892788464007814,-0.0010697467987775908,-0.7566297442500532,0.6538425973975264,1.0,0.0,0.0,0.0,1.0,0.0,0.0,0.0,1.0,-6.387976463884115e-05,-0.00011954188812524221,-0.011488758958876133,1.2184696791468346e-07,0.0,0.0,0.0,1.2184696791468346e-07,0.0,0.0,0.0,1.2184696791468346e-07,-0.28439285000000003,-0.009806649999998794,9.8458766,8.999999999999999e-08,0.0,0.0,0.0,8.999999999999999e-08,0.0,0.0,0.0,8.999999999999999e-08
127.333,418,127,333000000,base_link,-0.0003499382857172006,-0.0010179507547330511,-0.7569616922040121,0.6534583673464557,1.0,0.0,0.0,0.0,1.0,0.0,0.0,0.0,1.0,-2.0054285414516926e-05,-0.0004143823171034461,-0.005087881814688444,1.2184696791468346e-07,0.0,0.0,0.0,1.2184696791468346e-07,0.0,0.0,0.0,1.2184696791468346e-07,-0.196133,-0.08825984999999871,10.48330885,8.999999999999999e-08,0.0,0.0,0.0,8.999999999999999e-08,0.0,0.0,0.0,8.999999999999999e-08
127.593,419,127,593000000,base_link,-0.0002635390072407153,-0.0009537052203660674,-0.7575577122886066,0.6527674421611399,1.0,0.0,0.0,0.0,1.0,0.0,0.0,0.0,1.0,0.00023319781757891178,-0.00021701119840145165,-0.004502164199948311,1.2184696791468346e-07,0.0,0.0,0.0,1.2184696791468346e-07,0.0,0.0,0.0,1.2184696791468346e-07,0.0980665,0.0294199500000012,9.8262633,8.999999999999999e-08,0.0,0.0,0.0,8.999999999999999e-08,0.0,0.0,0.0,8.999999999999999e-08
127.833,420,127,833000000,base_link,-0.0001797324257693704,-0.0009074350116818367,-0.7583089049931306,0.6518947375658696,1.0,0.0,0.0,0.0,1.0,0.0,0.0,0.0,1.0,0.00038312701508402824,-0.0003069296944886463,-0.01364237628877163,1.2184696791468346e-07,0.0,0.0,0.0,1.2184696791468346e-07,0.0,0.0,0.0,1.2184696791468346e-07,0.3138128,0.039226600000001194,9.7674234,8.999999999999999e-08,0.0,0.0,0.0,8.999999999999999e-08,0.0,0.0,0.0,8.999999999999999e-08
128.094,421,128,94000000,base_link,-0.00010714509097729306,-0.0008505216118213838,-0.7589230368272091,0.6511797672731271,1.0,0.0,0.0,0.0,1.0,0.0,0.0,0.0,1.0,5.217606667429209e-05,-0.00037725490983575734,-0.01218641921877861,1.2184696791468346e-07,0.0,0.0,0.0,1.2184696791468346e-07,0.0,0.0,0.0,1.2184696791468346e-07,-0.65704555,-0.1176797999999988,9.83606995,8.999999999999999e-08,0.0,0.0,0.0,8.999999999999999e-08,0.0,0.0,0.0,8.999999999999999e-08
128.334,422,128,334000000,base_link,-2.8466167563377543e-05,-0.0008146088303356264,-0.7594987791098964,0.6505082168064503,1.0,0.0,0.0,0.0,1.0,0.0,0.0,0.0,1.0,-8.86223278939724e-06,-0.0003263722173869617,-0.005884790793061256,1.2184696791468346e-07,0.0,0.0,0.0,1.2184696791468346e-07,0.0,0.0,0.0,1.2184696791468346e-07,0.16671305,-0.03922659999999882,9.6497436,8.999999999999999e-08,0.0,0.0,0.0,8.999999999999999e-08,0.0,0.0,0.0,8.999999999999999e-08
128.594,423,128,594000000,base_link,4.6270718480253885e-05,-0.0007647383164301801,-0.7603871252059203,0.6494696550689676,1.0,0.0,0.0,0.0,1.0,0.0,0.0,0.0,1.0,0.00038275273982435465,-0.00033870956394821487,-0.006848332937806845,1.2184696791468346e-07,0.0,0.0,0.0,1.2184696791468346e-07,0.0,0.0,0.0,1.2184696791468346e-07,0.6864655,0.03922660000000121,9.85568325,8.999999999999999e-08,0.0,0.0,0.0,8.999999999999999e-08,0.0,0.0,0.0,8.999999999999999e-08
128.834,424,128,834000000,base_link,0.00011781278414455467,-0.000700599652977118,-0.7611719389213569,0.6485497472661418,1.0,0.0,0.0,0.0,1.0,0.0,0.0,0.0,1.0,-7.445202209055424e-05,-0.0003038620343431848,-0.014285110868513584,1.2184696791468346e-07,0.0,0.0,0.0,1.2184696791468346e-07,0.0,0.0,0.0,1.2184696791468346e-07,-0.73549875,1.2009682532858392e-15,9.80665,8.999999999999999e-08,0.0,0.0,0.0,8.999999999999999e-08,0.0,0.0,0.0,8.999999999999999e-08
129.094,425,129,94000000,base_link,0.00018310912723083357,-0.0006816942695996649,-0.7618508935647387,0.647752049582693,1.0,0.0,0.0,0.0,1.0,0.0,0.0,0.0,1.0,0.00041839247569441795,-0.0004075489705428497,-0.012934387661516666,1.2184696791468346e-07,0.0,0.0,0.0,1.2184696791468346e-07,0.0,0.0,0.0,1.2184696791468346e-07,0.06864655,-0.01961329999999881,9.7281968,8.999999999999999e-08,0.0,0.0,0.0,8.999999999999999e-08,0.0,0.0,0.0,8.999999999999999e-08
129.334,426,129,334000000,base_link,0.00021194917504817736,-0.0006475807025470753,-0.7626932703761916,0.6467600103899827,1.0,0.0,0.0,0.0,1.0,0.0,0.0,0.0,1.0,0.00043131515849381685,-0.0002546091563999663,-0.0085989935323596,1.2184696791468346e-07,0.0,0.0,0.0,1.2184696791468346e-07,0.0,0.0,0.0,1.2184696791468346e-07,0.30400615,0.01961330000000128,10.4538889,8.999999999999999e-08,0.0,0.0,0.0,8.999999999999999e-08,0.0,0.0,0.0,8.999999999999999e-08
129.594,427,129,594000000,base_link,0.00023342935909334813,-0.0006358595978590854,-0.7637444530891703,0.6455183588162543,1.0,0.0,0.0,0.0,1.0,0.0,0.0,0.0,1.0,0.00023500400129705667,-0.00039272871799767196,-0.01450379192829132,1.2184696791468346e-07,0.0,0.0,0.0,1.2184696791468346e-07,0.0,0.0,0.0,1.2184696791468346e-07,-0.40207265000000003,-0.019613299999998817,9.65955025,8.999999999999999e-08,0.0,0.0,0.0,8.999999999999999e-08,0.0,0.0,0.0,8.999999999999999e-08
129.834,428,129,834000000,base_link,0.00026200979243903833,-0.0006325904228270033,-0.7643715611263175,0.6447756568928001,1.0,0.0,0.0,0.0,1.0,0.0,0.0,0.0,1.0,0.0005083789583295584,-0.0002995964605361242,-0.015282616019248962,1.2184696791468346e-07,0.0,0.0,0.0,1.2184696791468346e-07,0.0,0.0,0.0,1.2184696791468346e-07,0.51975245,0.1470997500000012,9.7674234,8.999999999999999e-08,0.0,0.0,0.0,8.999999999999999e-08,0.0,0.0,0.0,8.999999999999999e-08
130.094,429,130,94000000,base_link,0.00027861294234976774,-0.0006607899819107994,-0.7649874775347099,0.6440447538382018,1.0,0.0,0.0,0.0,1.0,0.0,0.0,0.0,1.0,0.0005119031993672252,-0.0002202433533966546,-0.003773241303861141,1.2184696791468346e-07,0.0,0.0,0.0,1.2184696791468346e-07,0.0,0.0,0.0,1.2184696791468346e-07,0.08825985,-0.03922659999999881,9.75761675,8.999999999999999e-08,0.0,0.0,0.0,8.999999999999999e-08,0.0,0.0,0.0,8.999999999999999e-08
130.334,430,130,334000000,base_link,0.00027255996408351643,-0.0007247312166302261,-0.7655937629024655,0.6433238614263994,1.0,0.0,0.0,0.0,1.0,0.0,0.0,0.0,1.0,0.0008329760748893023,-0.0006488203071057807,-0.008963461965322495,1.2184696791468346e-07,0.0,0.0,0.0,1.2184696791468346e-07,0.0,0.0,0.0,1.2184696791468346e-07,-0.6276256,0.009806650000001197,9.7870367,8.999999999999999e-08,0.0,0.0,0.0,8.999999999999999e-08,0.0,0.0,0.0,8.999999999999999e-08
130.594,431,130,594000000,base_link,0.0002142345833134904,-0.0007813149080531737,-0.7659348655359854,0.6429176661182434,1.0,0.0,0.0,0.0,1.0,0.0,0.0,0.0,1.0,0.00027157366275787354,-0.000284749199636281,-0.0038637134712189436,1.2184696791468346e-07,0.0,0.0,0.0,1.2184696791468346e-07,0.0,0.0,0.0,1.2184696791468346e-07,0.32361945000000003,1.1841546977398374e-15,9.6693569,8.999999999999999e-08,0.0,0.0,0.0,8.999999999999999e-08,0.0,0.0,0.0,8.999999999999999e-08
130.834,432,130,834000000,base_link,0.00017229110458355932,-0.000810402563257158,-0.7665763242861149,0.6421526707936749,1.0,0.0,0.0,0.0,1.0,0.0,0.0,0.0,1.0,0.000446074060164392,-5.069677717983857e-05,-0.010960593819618225,1.2184696791468346e-07,0.0,0.0,0.0,1.2184696791468346e-07,0.0,0.0,0.0,1.2184696791468346e-07,0.7060788,0.029419950000001197,9.79684335,8.999999999999999e-08,0.0,0.0,0.0,8.999999999999999e-08,0.0,0.0,0.0,8.999999999999999e-08
131.094,433,131,103179876,base_link,9.248307507371015e-05,-0.0008485719254956466,-0.7670945782244609,0.6415334593232096,1.0,0.0,0.0,0.0,1.0,0.0,0.0,0.0,1.0,1.2274831533432007e-06,-0.00012136751320213185,-0.00861866120249033,1.2184696791468346e-07,0.0,0.0,0.0,1.2184696791468346e-07,0.0,0.0,0.0,1.2184696791468346e-07,0.0588399,0.12748645000000122,10.0223963,8.999999999999999e-08,0.0,0.0,0.0,8.999999999999999e-08,0.0,0.0,0.0,8.999999999999999e-08
131.334,434,131,343374987,base_link,2.8836910757743206e-06,-0.0009026720508598486,-0.7676181139536454,0.6409068702277276,1.0,0.0,0.0,0.0,1.0,0.0,0.0,0.0,1.0,1.2013246305286884e-05,-0.00025512510910630286,-0.004957863595336676,1.2184696791468346e-07,0.0,0.0,0.0,1.2184696791468346e-07,0.0,0.0,0.0,1.2184696791468346e-07,0.10787315,1.2165808405785551e-15,9.93413645,8.999999999999999e-08,0.0,0.0,0.0,8.999999999999999e-08,0.0,0.0,0.0,8.999999999999999e-08
131.594,435,131,603667660,base_link,-9.057703362543434e-05,-0.0009530312763540848,-0.7684232434050943,0.6399412492736993,1.0,0.0,0.0,0.0,1.0,0.0,0.0,0.0,1.0,0.00022347283083945513,-0.000350810354575516,-0.009943592362105846,1.2184696791468346e-07,0.0,0.0,0.0,1.2184696791468346e-07,0.0,0.0,0.0,1.2184696791468346e-07,0.6472389000000001,0.009806650000001202,9.80665,8.999999999999999e-08,0.0,0.0,0.0,8.999999999999999e-08,0.0,0.0,0.0,8.999999999999999e-08
131.834,436,131,843861287,base_link,-0.00014508898154879014,-0.0010676223456838202,-0.7691208695020632,0.6391024387593158,1.0,0.0,0.0,0.0,1.0,0.0,0.0,0.0,1.0,0.0007826007204130292,-0.000754387583583595,-0.013579278253018856,1.2184696791468346e-07,0.0,0.0,0.0,1.2184696791468346e-07,0.0,0.0,0.0,1.2184696791468346e-07,-0.50013915,0.009806650000001232,10.0616229,8.999999999999999e-08,0.0,0.0,0.0,8.999999999999999e-08,0.0,0.0,0.0,8.999999999999999e-08
132.094,437,132,104152120,base_link,-0.00019831056389857962,-0.001122781965771144,-0.7698936621783153,0.638171175290172,1.0,0.0,0.0,0.0,1.0,0.0,0.0,0.0,1.0,2.0816572941839695e-05,-0.0002701521152630453,-0.004187384620308876,1.2184696791468346e-07,0.0,0.0,0.0,1.2184696791468346e-07,0.0,0.0,0.0,1.2184696791468346e-07,0.46091255,0.6472389000000012,9.3555441,8.999999999999999e-08,0.0,0.0,0.0,8.999999999999999e-08,0.0,0.0,0.0,8.999999999999999e-08
132.334,438,132,344341271,base_link,-0.00025107747918569166,-0.0011800064452549578,-0.7709018195708504,0.6369528468632829,1.0,0.0,0.0,0.0,1.0,0.0,0.0,0.0,1.0,0.0004902100190520287,-0.0003210443537682311,-0.01306384801864624,1.2184696791468346e-07,0.0,0.0,0.0,1.2184696791468346e-07,0.0,0.0,0.0,1.2184696791468346e-07,0.34323275,1.1997672850325534e-15,9.79684335,8.999999999999999e-08,0.0,0.0,0.0,8.999999999999999e-08,0.0,0.0,0.0,8.999999999999999e-08
132.594,439,132,604623517,base_link,-0.0003050489574570496,-0.0012403800941957529,-0.7716980700625741,0.6359877805933492,1.0,0.0,0.0,0.0,1.0,0.0,0.0,0.0,1.0,0.00020229921210557222,-0.0005340197822079082,-0.01606575772166252,1.2184696791468346e-07,0.0,0.0,0.0,1.2184696791468346e-07,0.0,0.0,0.0,1.2184696791468346e-07,-0.7060788,-0.05883989999999877,10.0420096,8.999999999999999e-08,0.0,0.0,0.0,8.999999999999999e-08,0.0,0.0,0.0,8.999999999999999e-08
132.834,440,132,844811202,base_link,-0.00036680973142294733,-0.00137031562560369,-0.7723011870020114,0.6352549600286419,1.0,0.0,0.0,0.0,1.0,0.0,0.0,0.0,1.0,0.0006174107547849417,-0.0005654677515849477,-0.004692705348134041,1.2184696791468346e-07,0.0,0.0,0.0,1.2184696791468346e-07,0.0,0.0,0.0,1.2184696791468346e-07,0.14709975,-0.02941994999999884,9.4732239,8.999999999999999e-08,0.0,0.0,0.0,8.999999999999999e-08,0.0,0.0,0.0,8.999999999999999e-08
133.094,441,133,105093136,base_link,-0.00042186814025833126,-0.0015193329227450785,-0.7731348003955981,0.6342397764820502,1.0,0.0,0.0,0.0,1.0,0.0,0.0,0.0,1.0,0.0008152407826855779,-0.00022004789207130782,-0.009012586437165737,1.2184696791468346e-07,0.0,0.0,0.0,1.2184696791468346e-07,0.0,0.0,0.0,1.2184696791468346e-07,0.57859235,1.1997672850325534e-15,9.79684335,8.999999999999999e-08,0.0,0.0,0.0,8.999999999999999e-08,0.0,0.0,0.0,8.999999999999999e-08
133.338,442,133,345277864,base_link,-0.0004490713426569988,-0.0016583447668483,-0.7736544706056824,0.6336054042851946,1.0,0.0,0.0,0.0,1.0,0.0,0.0,0.0,1.0,0.0003802677383646369,-0.00013738591223955263,-0.0087641766294837,1.2184696791468346e-07,0.0,0.0,0.0,1.2184696791468346e-07,0.0,0.0,0.0,1.2184696791468346e-07,-0.08825985,-0.06864654999999882,9.62032365,8.999999999999999e-08,0.0,0.0,0.0,8.999999999999999e-08,0.0,0.0,0.0,8.999999999999999e-08
133.594,443,133,605552740,base_link,-0.0004890739921364472,-0.0018261632896776224,-0.774171250085577,0.632973381332268,1.0,0.0,0.0,0.0,1.0,0.0,0.0,0.0,1.0,0.00018929480575025082,-0.00023584009613841818,-0.0037511640693992376,1.2184696791468346e-07,0.0,0.0,0.0,1.2184696791468346e-07,0.0,0.0,0.0,1.2184696791468346e-07,-0.02941995,-0.06864654999999872,10.395049,8.999999999999999e-08,0.0,0.0,0.0,8.999999999999999e-08,0.0,0.0,0.0,8.999999999999999e-08
133.835,444,133,846734522,base_link,-0.000502215042014699,-0.001919655195298206,-0.7746674858321452,0.632365676723908,1.0,0.0,0.0,0.0,1.0,0.0,0.0,0.0,1.0,0.00039763515815138817,-0.0003932268591597686,-0.007833399809896946,1.2184696791468346e-07,0.0,0.0,0.0,1.2184696791468346e-07,0.0,0.0,0.0,1.2184696791468346e-07,0.0196133,-0.029419949999998793,9.8458766,8.999999999999999e-08,0.0,0.0,0.0,8.999999999999999e-08,0.0,0.0,0.0,8.999999999999999e-08
134.095,445,134,107004989,base_link,-0.0005250805688202297,-0.002027184726575115,-0.7750857623880286,0.6318525743841272,1.0,0.0,0.0,0.0,1.0,0.0,0.0,0.0,1.0,0.00018978165462613106,-0.0007566814310848722,-0.007054335903376341,1.2184696791468346e-07,0.0,0.0,0.0,1.2184696791468346e-07,0.0,0.0,0.0,1.2184696791468346e-07,0.1765197,-0.0392265999999988,9.81645665,8.999999999999999e-08,0.0,0.0,0.0,8.999999999999999e-08,0.0,0.0,0.0,8.999999999999999e-08
134.335,446,134,347186834,base_link,-0.0005330516282351002,-0.002100900149618959,-0.7752967791193301,0.6315933868888395,1.0,0.0,0.0,0.0,1.0,0.0,0.0,0.0,1.0,0.0001026263926178217,-0.0003922666655853394,-0.0026897399220615625,1.2184696791468346e-07,0.0,0.0,0.0,1.2184696791468346e-07,0.0,0.0,0.0,1.2184696791468346e-07,0.0784532,-0.009806649999998833,9.54187045,8.999999999999999e-08,0.0,0.0,0.0,8.999999999999999e-08,0.0,0.0,0.0,8.999999999999999e-08
134.595,447,134,607455903,base_link,-0.0005721896735832435,-0.00214603961150626,-0.7757037198399097,0.631093341859578,1.0,0.0,0.0,0.0,1.0,0.0,0.0,0.0,1.0,0.0004647892201319337,-0.00046928541269153427,-0.0058531868271529675,1.2184696791468346e-07,0.0,0.0,0.0,1.2184696791468346e-07,0.0,0.0,0.0,1.2184696791468346e-07,-0.48052585000000003,0.009806650000001202,9.80665,8.999999999999999e-08,0.0,0.0,0.0,8.999999999999999e-08,0.0,0.0,0.0,8.999999999999999e-08
134.835,448,134,847631824,base_link,-0.000558688024488957,-0.002200818997587244,-0.7758587352362621,0.6309025814030393,1.0,0.0,0.0,0.0,1.0,0.0,0.0,0.0,1.0,0.00033396075014024973,-0.0005518932593986395,-0.0025214862544089556,1.2184696791468346e-07,0.0,0.0,0.0,1.2184696791468346e-07,0.0,0.0,0.0,1.2184696791468346e-07,-1.08853815,-0.0196132999999988,9.80665,8.999999999999999e-08,0.0,0.0,0.0,8.999999999999999e-08,0.0,0.0,0.0,8.999999999999999e-08
135.095,449,135,106900644,base_link,-0.0006151543326950189,-0.0023034203395247543,-0.7758484561579332,0.630914803216122,1.0,0.0,0.0,0.0,1.0,0.0,0.0,0.0,1.0,0.0005535644013434649,-0.000411853427067399,-0.00019947653345298017,1.2184696791468346e-07,0.0,0.0,0.0,1.2184696791468346e-07,0.0,0.0,0.0,1.2184696791468346e-07,-1.2944778000000001,1.1817527612332657e-15,9.6497436,8.999999999999999e-08,0.0,0.0,0.0,8.999999999999999e-08,0.0,0.0,0.0,8.999999999999999e-08
135.335,450,135,347076652,base_link,-0.0006883824366085402,-0.0023972057045965126,-0.7758266759278758,0.6309411608487222,1.0,0.0,0.0,0.0,1.0,0.0,0.0,0.0,1.0,0.0007732205558568239,-0.00020490307360887538,-0.0009634754387661815,1.2184696791468346e-07,0.0,0.0,0.0,1.2184696791468346e-07,0.0,0.0,0.0,1.2184696791468346e-07,-1.34351105,-0.019613299999998807,9.7478101,8.999999999999999e-08,0.0,0.0,0.0,8.999999999999999e-08,0.0,0.0,0.0,8.999999999999999e-08
135.595,451,135,607332483,base_link,-0.0008307341549356326,-0.002533158363445907,-0.7758183862966657,0.6309506513773538,1.0,0.0,0.0,0.0,1.0,0.0,0.0,0.0,1.0,0.0004160816315561533,-0.0006502524483948945,0.0009603656944818796,1.2184696791468346e-07,0.0,0.0,0.0,1.2184696791468346e-07,0.0,0.0,0.0,1.2184696791468346e-07,-1.38273765,-0.08825984999999882,9.6889702,8.999999999999999e-08,0.0,0.0,0.0,8.999999999999999e-08,0.0,0.0,0.0,8.999999999999999e-08
135.835,452,135,847504089,base_link,-0.0009548302998996902,-0.002700230845515867,-0.7757766296415445,0.6310011235762464,1.0,0.0,0.0,0.0,1.0,0.0,0.0,0.0,1.0,0.0003626189427450299,-0.0006113848648965358,0.0008336215978488327,1.2184696791468346e-07,0.0,0.0,0.0,1.2184696791468346e-07,0.0,0.0,0.0,1.2184696791468346e-07,-1.1964113,1.1961643802726959e-15,9.7674234,8.999999999999999e-08,0.0,0.0,0.0,8.999999999999999e-08,0.0,0.0,0.0,8.999999999999999e-08
136.095,453,136,107757076,base_link,-0.0010766762284028873,-0.0028234090165648778,-0.7757625367390899,0.6310177142695413,1.0,0.0,0.0,0.0,1.0,0.0,0.0,0.0,1.0,-3.649934660643339e-05,-0.0005994277307763695,0.0005570467328652741,1.2184696791468346e-07,0.0,0.0,0.0,1.2184696791468346e-07,0.0,0.0,0.0,1.2184696791468346e-07,-1.01008495,0.06864655000000118,9.67916355,8.999999999999999e-08,0.0,0.0,0.0,8.999999999999999e-08,0.0,0.0,0.0,8.999999999999999e-08
136.335,454,136,347927293,base_link,-0.001183924303194398,-0.0029334159746837204,-0.7758194124350004,0.6309470918254355,1.0,0.0,0.0,0.0,1.0,0.0,0.0,0.0,1.0,0.0005056520458310843,-0.0005963022122159601,-0.0011570436181500554,1.2184696791468346e-07,0.0,0.0,0.0,1.2184696791468346e-07,0.0,0.0,0.0,1.2184696791468346e-07,-1.1179581,0.009806650000001192,9.71839015,8.999999999999999e-08,0.0,0.0,0.0,8.999999999999999e-08,0.0,0.0,0.0,8.999999999999999e-08
136.595,455,136,608178957,base_link,-0.0012947427216054358,-0.003022595498095003,-0.7759276371006684,0.6308133555506836,1.0,0.0,0.0,0.0,1.0,0.0,0.0,0.0,1.0,0.00022411684039980173,-0.0004914287710562349,-0.0010709977941587567,1.2184696791468346e-07,0.0,0.0,0.0,1.2184696791468346e-07,0.0,0.0,0.0,1.2184696791468346e-07,-1.18660465,-0.009806649999998768,10.0616229,8.999999999999999e-08,0.0,0.0,0.0,8.999999999999999e-08,0.0,0.0,0.0,8.999999999999999e-08
136.835,456,136,848343297,base_link,-0.0013068703025424734,-0.0030628464450306392,-0.7760621149882468,0.630647686701248,1.0,0.0,0.0,0.0,1.0,0.0,0.0,0.0,1.0,0.00046741554979234934,-0.0004563103429973129,-0.0029784520156681538,1.2184696791468346e-07,0.0,0.0,0.0,1.2184696791468346e-07,0.0,0.0,0.0,1.2184696791468346e-07,-1.0395049,1.1997672850325534e-15,9.79684335,8.999999999999999e-08,0.0,0.0,0.0,8.999999999999999e-08,0.0,0.0,0.0,8.999999999999999e-08
137.095,457,137,108592153,base_link,-0.00132548947311155,-0.0030936674416751873,-0.7760863987273591,0.6306176131458867,1.0,0.0,0.0,0.0,1.0,0.0,0.0,0.0,1.0,0.0003517462173476815,-0.0005152311641722919,-0.001061644172295928,1.2184696791468346e-07,0.0,0.0,0.0,1.2184696791468346e-07,0.0,0.0,0.0,1.2184696791468346e-07,-0.99047165,1.2009682532858392e-15,9.80665,8.999999999999999e-08,0.0,0.0,0.0,8.999999999999999e-08,0.0,0.0,0.0,8.999999999999999e-08
137.335,458,137,348753630,base_link,-0.001325502402618933,-0.0031222503151819426,-0.7761801550144207,0.630502071018121,1.0,0.0,0.0,0.0,1.0,0.0,0.0,0.0,1.0,0.00033114803954958916,-0.0005828492576256397,-0.0015291539020836353,1.2184696791468346e-07,0.0,0.0,0.0,1.2184696791468346e-07,0.0,0.0,0.0,1.2184696791468346e-07,-1.08853815,1.2009682532858392e-15,9.80665,8.999999999999999e-08,0.0,0.0,0.0,8.999999999999999e-08,0.0,0.0,0.0,8.999999999999999e-08
137.595,459,137,608993702,base_link,-0.001279139540119444,-0.0031400402134059927,-0.7798783201215553,0.6259219677834259,1.0,0.0,0.0,0.0,1.0,0.0,0.0,0.0,1.0,0.0004095466574653983,-0.00043563614599406714,0.0005545798339881003,1.2184696791468346e-07,0.0,0.0,0.0,1.2184696791468346e-07,0.0,0.0,0.0,1.2184696791468346e-07,-0.81395195,1.2009682532858392e-15,9.80665,8.999999999999999e-08,0.0,0.0,0.0,8.999999999999999e-08,0.0,0.0,0.0,8.999999999999999e-08
137.835,460,137,849155329,base_link,-0.0012122885863215152,-0.003115642031736316,-0.7799751649019694,0.6258015382429638,1.0,0.0,0.0,0.0,1.0,0.0,0.0,0.0,1.0,0.0003269794397056103,-0.00041417253669351356,-0.0014465986751019955,1.2184696791468346e-07,0.0,0.0,0.0,1.2184696791468346e-07,0.0,0.0,0.0,1.2184696791468346e-07,1.2748645,-0.0196132999999988,9.80665,8.999999999999999e-08,0.0,0.0,0.0,8.999999999999999e-08,0.0,0.0,0.0,8.999999999999999e-08
138.095,461,138,109398266,base_link,-0.0010683141654914833,-0.002998763265804289,-0.7800875819313522,0.6256622336694261,1.0,0.0,0.0,0.0,1.0,0.0,0.0,0.0,1.0,0.00019139063078910112,-0.0005401120288297535,-0.0011893851915374398,1.2184696791468346e-07,0.0,0.0,0.0,1.2184696791468346e-07,0.0,0.0,0.0,1.2184696791468346e-07,1.2160246,1.2009682532858392e-15,9.80665,8.999999999999999e-08,0.0,0.0,0.0,8.999999999999999e-08,0.0,0.0,0.0,8.999999999999999e-08
138.335,462,138,349554059,base_link,-0.0007839710464313125,-0.0027861969463170854,-0.7828173608371187,0.6222448087915098,1.0,0.0,0.0,0.0,1.0,0.0,0.0,0.0,1.0,0.00013698183465749025,0.0002835590858012349,-0.07275079935789108,1.2184696791468346e-07,0.0,0.0,0.0,1.2184696791468346e-07,0.0,0.0,0.0,1.2184696791468346e-07,1.20621795,1.2009682532858392e-15,9.80665,8.999999999999999e-08,0.0,0.0,0.0,8.999999999999999e-08,0.0,0.0,0.0,8.999999999999999e-08
138.595,463,138,609790125,base_link,-0.00043040033572658764,-0.002492030110600198,-0.7850298588887208,0.6194527626822196,1.0,0.0,0.0,0.0,1.0,0.0,0.0,0.0,1.0,7.819198071956635e-05,-0.00019575795158744086,-0.018682900816202164,1.2184696791468346e-07,0.0,0.0,0.0,1.2184696791468346e-07,0.0,0.0,0.0,1.2184696791468346e-07,-0.91201845,-0.47071919999999884,9.48303055,8.999999999999999e-08,0.0,0.0,0.0,8.999999999999999e-08,0.0,0.0,0.0,8.999999999999999e-08
138.835,464,138,849946097,base_link,-0.00015626696845153496,-0.0022715827276238525,-0.7863553006335288,0.6177703105994159,1.0,0.0,0.0,0.0,1.0,0.0,0.0,0.0,1.0,0.00019150110892951488,-0.0004295312101021432,-0.01876099593937397,1.2184696791468346e-07,0.0,0.0,0.0,1.2184696791468346e-07,0.0,0.0,0.0,1.2184696791468346e-07,-1.01008495,0.07845320000000121,9.83606995,8.999999999999999e-08,0.0,0.0,0.0,8.999999999999999e-08,0.0,0.0,0.0,8.999999999999999e-08
139.095,465,139,110177571,base_link,2.5779648045310216e-05,-0.002119077491284298,-0.7877575980929261,0.6159817168495015,1.0,0.0,0.0,0.0,1.0,0.0,0.0,0.0,1.0,0.00021612155251204967,-0.0006416132673621199,-0.017882555723190308,1.2184696791468346e-07,0.0,0.0,0.0,1.2184696791468346e-07,0.0,0.0,0.0,1.2184696791468346e-07,-1.32389775,-0.039226599999998786,9.9243298,8.999999999999999e-08,0.0,0.0,0.0,8.999999999999999e-08,0.0,0.0,0.0,8.999999999999999e-08
139.335,466,139,350327737,base_link,0.00023181350481868272,-0.0020186983739112338,-0.827529617733222,0.5614183848910554,1.0,0.0,0.0,0.0,1.0,0.0,0.0,0.0,1.0,0.00011449144221842289,0.00011661695316421739,-0.9935845732688904,1.2184696791468346e-07,0.0,0.0,0.0,1.2184696791468346e-07,0.0,0.0,0.0,1.2184696791468346e-07,-1.22583125,0.06864655000000128,10.3754357,8.999999999999999e-08,0.0,0.0,0.0,8.999999999999999e-08,0.0,0.0,0.0,8.999999999999999e-08
139.595,467,139,610552386,base_link,0.0003776363772624431,-0.0019721275624893764,-0.8701845081903181,0.49272191935128895,1.0,0.0,0.0,0.0,1.0,0.0,0.0,0.0,1.0,0.0002989990171045065,-0.0003426817711443187,-0.3903827369213104,1.2184696791468346e-07,0.0,0.0,0.0,1.2184696791468346e-07,0.0,0.0,0.0,1.2184696791468346e-07,0.588399,-1.186604649999999,9.639936950000001,8.999999999999999e-08,0.0,0.0,0.0,8.999999999999999e-08,0.0,0.0,0.0,8.999999999999999e-08
139.836,468,139,851699761,base_link,0.0004142698625315926,-0.0019480453232118878,-0.8706117990248973,0.49196659327492065,1.0,0.0,0.0,0.0,1.0,0.0,0.0,0.0,1.0,0.0002874945057556033,-0.0003092115512117741,0.0022344915196299553,1.2184696791468346e-07,0.0,0.0,0.0,1.2184696791468346e-07,0.0,0.0,0.0,1.2184696791468346e-07,0.38245935,2.549729000000001,9.80665,8.999999999999999e-08,0.0,0.0,0.0,8.999999999999999e-08,0.0,0.0,0.0,8.999999999999999e-08
140.096,469,140,111927367,base_link,0.0004964730347225164,-0.001822785756121948,-0.8706462427589848,0.49190603872719,1.0,0.0,0.0,0.0,1.0,0.0,0.0,0.0,1.0,0.00027641444467008114,-0.00030950293876230733,-0.0013508490519598126,1.2184696791468346e-07,0.0,0.0,0.0,1.2184696791468346e-07,0.0,0.0,0.0,1.2184696791468346e-07,1.1964113,1.2009682532858392e-15,9.80665,8.999999999999999e-08,0.0,0.0,0.0,8.999999999999999e-08,0.0,0.0,0.0,8.999999999999999e-08
140.336,470,140,352080964,base_link,0.0006503106684151971,-0.0016277994747113402,-0.8706899496443458,0.49182917659816744,1.0,0.0,0.0,0.0,1.0,0.0,0.0,0.0,1.0,0.0002569354837760329,-0.0002811317099258305,-0.0014220941811800003,1.2184696791468346e-07,0.0,0.0,0.0,1.2184696791468346e-07,0.0,0.0,0.0,1.2184696791468346e-07,1.1964113,1.2009682532858392e-15,9.80665,8.999999999999999e-08,0.0,0.0,0.0,8.999999999999999e-08,0.0,0.0,0.0,8.999999999999999e-08
140.596,471,140,612301791,base_link,0.0009147454440493478,-0.0013665126628113523,-0.8747569778641777,0.4845591043018853,1.0,0.0,0.0,0.0,1.0,0.0,0.0,0.0,1.0,0.0004046384710818529,-0.00034111679997296936,-0.14660678803920746,1.2184696791468346e-07,0.0,0.0,0.0,1.2184696791468346e-07,0.0,0.0,0.0,1.2184696791468346e-07,1.1964113,1.2009682532858392e-15,9.80665,8.999999999999999e-08,0.0,0.0,0.0,8.999999999999999e-08,0.0,0.0,0.0,8.999999999999999e-08
140.836,472,140,851448132,base_link,0.0011866617957675726,-0.0010819292980541184,-0.8848111052934168,0.46594713134884613,1.0,0.0,0.0,0.0,1.0,0.0,0.0,0.0,1.0,0.0005246616201475263,-0.00021814694628122635,-0.25851964950561523,1.2184696791468346e-07,0.0,0.0,0.0,1.2184696791468346e-07,0.0,0.0,0.0,1.2184696791468346e-07,-1.24544455,-0.17651969999999875,10.267562550000001,8.999999999999999e-08,0.0,0.0,0.0,8.999999999999999e-08,0.0,0.0,0.0,8.999999999999999e-08
141.096,473,141,111665959,base_link,0.001413384631386201,-0.0008786379867473386,-0.908088083564771,0.4187759100364223,1.0,0.0,0.0,0.0,1.0,0.0,0.0,0.0,1.0,0.0009170995326712728,-0.0010417681187391704,-0.34450918436050415,1.2184696791468346e-07,0.0,0.0,0.0,1.2184696791468346e-07,0.0,0.0,0.0,1.2184696791468346e-07,0.50013915,-1.4611908499999988,10.07142955,8.999999999999999e-08,0.0,0.0,0.0,8.999999999999999e-08,0.0,0.0,0.0,8.999999999999999e-08
141.336,474,141,351811056,base_link,0.0015466228790893995,-0.0006583117673875041,-0.9271737208318402,0.374627903368299,1.0,0.0,0.0,0.0,1.0,0.0,0.0,0.0,1.0,0.0004934269236400723,-0.00019900174811489097,-0.5444509983062744,1.2184696791468346e-07,0.0,0.0,0.0,1.2184696791468346e-07,0.0,0.0,0.0,1.2184696791468346e-07,0.81395195,0.5393657500000012,9.6889702,8.999999999999999e-08,0.0,0.0,0.0,8.999999999999999e-08,0.0,0.0,0.0,8.999999999999999e-08
141.596,475,141,612026648,base_link,0.0016128419319139517,-0.0003839582705633554,-0.9520120837192447,0.3060559487569078,1.0,0.0,0.0,0.0,1.0,0.0,0.0,0.0,1.0,0.00031633174512535334,-0.000584947993047596,-0.4950490891933441,1.2184696791468346e-07,0.0,0.0,0.0,1.2184696791468346e-07,0.0,0.0,0.0,1.2184696791468346e-07,0.1176798,-0.5295590999999988,9.610517,8.999999999999999e-08,0.0,0.0,0.0,8.999999999999999e-08,0.0,0.0,0.0,8.999999999999999e-08
141.836,476,141,852167518,base_link,0.0015827574200579881,-0.00022432014093026834,-0.971204611633203,0.23824157257251105,1.0,0.0,0.0,0.0,1.0,0.0,0.0,0.0,1.0,0.0003782047424465418,-0.00038508675061171957,-0.4629729390144348,1.2184696791468346e-07,0.0,0.0,0.0,1.2184696791468346e-07,0.0,0.0,0.0,1.2184696791468346e-07,-0.06864655,-0.8335652499999989,9.48303055,8.999999999999999e-08,0.0,0.0,0.0,8.999999999999999e-08,0.0,0.0,0.0,8.999999999999999e-08
142.096,477,142,112373034,base_link,0.0014954435629949538,-0.0001950827935348732,-0.9754148768432562,0.22037137659893358,1.0,0.0,0.0,0.0,1.0,0.0,0.0,0.0,1.0,0.00016243965364992619,-0.0003708746517077259,-0.1395111232995987,1.2184696791468346e-07,0.0,0.0,0.0,1.2184696791468346e-07,0.0,0.0,0.0,1.2184696791468346e-07,-0.93163175,1.539644050000001,9.77723005,8.999999999999999e-08,0.0,0.0,0.0,8.999999999999999e-08,0.0,0.0,0.0,8.999999999999999e-08
142.336,478,142,352512692,base_link,0.0013679246168758616,-0.0003405495147153002,-0.9774356924328738,0.21122850178548108,1.0,0.0,0.0,0.0,1.0,0.0,0.0,0.0,1.0,0.00024690397549420595,-0.0004213597858324658,-0.009002108126878738,1.2184696791468346e-07,0.0,0.0,0.0,1.2184696791468346e-07,0.0,0.0,0.0,1.2184696791468346e-07,0.67665885,-0.6080122999999988,9.79684335,8.999999999999999e-08,0.0,0.0,0.0,8.999999999999999e-08,0.0,0.0,0.0,8.999999999999999e-08
142.596,479,142,612711158,base_link,0.001362697335036618,-0.000301868762147605,-0.9869815016020569,0.16082775701530028,1.0,0.0,0.0,0.0,1.0,0.0,0.0,0.0,1.0,0.0001930649159476161,0.00024228706024578256,-0.7266198992729187,1.2184696791468346e-07,0.0,0.0,0.0,1.2184696791468346e-07,0.0,0.0,0.0,1.2184696791468346e-07,1.24544455,1.2009682532858392e-15,9.80665,8.999999999999999e-08,0.0,0.0,0.0,8.999999999999999e-08,0.0,0.0,0.0,8.999999999999999e-08
142.836,480,142,852848122,base_link,0.001362766159391175,-0.00018220961945428817,-0.9976272978948404,0.06883229011945274,1.0,0.0,0.0,0.0,1.0,0.0,0.0,0.0,1.0,-0.00026755325961858034,-0.0001284999307245989,-0.794428825378418,1.2184696791468346e-07,0.0,0.0,0.0,1.2184696791468346e-07,0.0,0.0,0.0,1.2184696791468346e-07,0.34323275,-0.45110589999999884,9.80665,8.999999999999999e-08,0.0,0.0,0.0,8.999999999999999e-08,0.0,0.0,0.0,8.999999999999999e-08
143.096,481,143,113050055,base_link,0.0012639652775862107,-0.00029883090047433034,-0.9979608490388956,0.06381580429201611,1.0,0.0,0.0,0.0,1.0,0.0,0.0,0.0,1.0,0.000449712504632771,-0.00026080023963004584,-0.01918581686913967,1.2184696791468346e-07,0.0,0.0,0.0,1.2184696791468346e-07,0.0,0.0,0.0,1.2184696791468346e-07,-1.22583125,2.373209300000001,9.80665,8.999999999999999e-08,0.0,0.0,0.0,8.999999999999999e-08,0.0,0.0,0.0,8.999999999999999e-08
143.336,482,143,353182843,base_link,0.0011293320325441029,-0.00037666436587407406,-0.9990283759213675,0.04405549723962232,1.0,0.0,0.0,0.0,1.0,0.0,0.0,0.0,1.0,0.00017903512343764305,-0.00047677417751403837,-0.1772981435060501,1.2184696791468346e-07,0.0,0.0,0.0,1.2184696791468346e-07,0.0,0.0,0.0,1.2184696791468346e-07,1.48080415,-0.2745861999999988,9.9635564,8.999999999999999e-08,0.0,0.0,0.0,8.999999999999999e-08,0.0,0.0,0.0,8.999999999999999e-08
143.596,483,143,613376277,base_link,0.001062628338548716,-0.00040194621562294943,-0.9994431431863858,0.033348355251367645,1.0,0.0,0.0,0.0,1.0,0.0,0.0,0.0,1.0,0.00029967271257191896,-0.0001875666202977444,-0.11773217469453812,1.2184696791468346e-07,0.0,0.0,0.0,1.2184696791468346e-07,0.0,0.0,0.0,1.2184696791468346e-07,-1.18660465,0.8629852000000011,9.54187045,8.999999999999999e-08,0.0,0.0,0.0,8.999999999999999e-08,0.0,0.0,0.0,8.999999999999999e-08
143.836,484,143,853507908,base_link,0.0009883059983312606,-0.00038593877580291643,-0.9999904888825857,0.004230419232424398,1.0,0.0,0.0,0.0,1.0,0.0,0.0,0.0,1.0,0.0003072681138291955,-0.0002023214474320502,-0.07363823801279068,1.2184696791468346e-07,0.0,0.0,0.0,1.2184696791468346e-07,0.0,0.0,0.0,1.2184696791468346e-07,1.1375714000000001,0.5001391500000011,9.3751574,8.999999999999999e-08,0.0,0.0,0.0,8.999999999999999e-08,0.0,0.0,0.0,8.999999999999999e-08
144.096,485,144,113703365,base_link,0.000875045189045849,-0.00042035358983939005,-0.9999938678304572,0.0033648031530524314,1.0,0.0,0.0,0.0,1.0,0.0,0.0,0.0,1.0,0.00026059953961521387,-0.0001511432928964506,-0.008438266813755035,1.2184696791468346e-07,0.0,0.0,0.0,1.2184696791468346e-07,0.0,0.0,0.0,1.2184696791468346e-07,-0.6864655,-0.019613299999998803,9.7870367,8.999999999999999e-08,0.0,0.0,0.0,8.999999999999999e-08,0.0,0.0,0.0,8.999999999999999e-08
144.336,486,144,353832355,base_link,0.0007083621054811509,-0.00039301981490407503,-0.999801136323419,-0.01992565092921511,1.0,0.0,0.0,0.0,1.0,0.0,0.0,0.0,1.0,-8.377479389309883e-06,-0.00022383686155085154,-0.35588517785072327,1.2184696791468346e-07,0.0,0.0,0.0,1.2184696791468346e-07,0.0,0.0,0.0,1.2184696791468346e-07,-0.980665,0.029419950000001215,9.9047165,8.999999999999999e-08,0.0,0.0,0.0,8.999999999999999e-08,0.0,0.0,0.0,8.999999999999999e-08
144.596,487,144,614022365,base_link,0.00047153250283947084,-0.0003322416753988124,-0.9992635911847914,-0.038365904199460954,1.0,0.0,0.0,0.0,1.0,0.0,0.0,0.0,1.0,0.0002581187291070819,-0.00022560951765627447,-0.06360059976577759,1.2184696791468346e-07,0.0,0.0,0.0,1.2184696791468346e-07,0.0,0.0,0.0,1.2184696791468346e-07,0.02941995,0.2157463000000012,9.79684335,8.999999999999999e-08,0.0,0.0,0.0,8.999999999999999e-08,0.0,0.0,0.0,8.999999999999999e-08
144.836,488,144,854151733,base_link,0.00026306899681585597,-0.0003362065210117536,-0.9991154838705419,-0.04204839652128334,1.0,0.0,0.0,0.0,1.0,0.0,0.0,0.0,1.0,0.00032014306634664536,-0.00018544448539615027,-0.028639188036322594,1.2184696791468346e-07,0.0,0.0,0.0,1.2184696791468346e-07,0.0,0.0,0.0,1.2184696791468346e-07,-0.1372931,0.09806650000000121,9.7870367,8.999999999999999e-08,0.0,0.0,0.0,8.999999999999999e-08,0.0,0.0,0.0,8.999999999999999e-08
145.096,489,145,114338955,base_link,0.00012445855456150846,-0.0003080584310520085,-0.9989797210679143,-0.045159788586125515,1.0,0.0,0.0,0.0,1.0,0.0,0.0,0.0,1.0,0.0001955544576048851,-0.00020892277825624035,-0.023160915821790695,1.2184696791468346e-07,0.0,0.0,0.0,1.2184696791468346e-07,0.0,0.0,0.0,1.2184696791468346e-07,-0.0392266,-0.019613299999998803,9.7674234,8.999999999999999e-08,0.0,0.0,0.0,8.999999999999999e-08,0.0,0.0,0.0,8.999999999999999e-08
145.336,490,145,354459718,base_link,6.992299426679956e-05,-0.00029048656626055267,-0.9988570917663087,-0.04779561649860592,1.0,0.0,0.0,0.0,1.0,0.0,0.0,0.0,1.0,8.071248885244131e-05,-0.0001176800578832655,-0.023323439061641693,1.2184696791468346e-07,0.0,0.0,0.0,1.2184696791468346e-07,0.0,0.0,0.0,1.2184696791468346e-07,-0.0196133,-0.05883989999999879,9.87529655,8.999999999999999e-08,0.0,0.0,0.0,8.999999999999999e-08,0.0,0.0,0.0,8.999999999999999e-08
145.596,491,145,614641920,base_link,3.342021869324785e-06,-0.0003377202117278256,-0.9987170540275765,-0.05063725830224697,1.0,0.0,0.0,0.0,1.0,0.0,0.0,0.0,1.0,0.0005627545760944486,-0.0005229251692071584,-0.022367320954799652,1.2184696791468346e-07,0.0,0.0,0.0,1.2184696791468346e-07,0.0,0.0,0.0,1.2184696791468346e-07,0.02941995,-0.05883989999999879,9.87529655,8.999999999999999e-08,0.0,0.0,0.0,8.999999999999999e-08,0.0,0.0,0.0,8.999999999999999e-08
145.837,492,145,855701138,base_link,-1.417522485520906e-07,-0.00036202956815598476,-0.9986934716808649,-0.05110008372393271,1.0,0.0,0.0,0.0,1.0,0.0,0.0,0.0,1.0,0.0002890465548262,-0.00026573857758194214,-0.0005740178748965263,1.2184696791468346e-07,0.0,0.0,0.0,1.2184696791468346e-07,0.0,0.0,0.0,1.2184696791468346e-07,0.08825985,0.1569064000000012,9.56148375,8.999999999999999e-08,0.0,0.0,0.0,8.999999999999999e-08,0.0,0.0,0.0,8.999999999999999e-08
146.097,493,146,115701138,base_link,2.9247255223848515e-05,-0.0003969761780494534,-0.9986900926196512,-0.05116581337049814,1.0,0.0,0.0,0.0,1.0,0.0,0.0,0.0,1.0,0.0003400591667741537,-0.00020858214702457206,-0.0012419965351000428,1.2184696791468346e-07,0.0,0.0,0.0,1.2184696791468346e-07,0.0,0.0,0.0,1.2184696791468346e-07,0.3334261,1.2009682532858392e-15,9.80665,8.999999999999999e-08,0.0,0.0,0.0,8.999999999999999e-08,0.0,0.0,0.0,8.999999999999999e-08
146.337,494,146,355761800,base_link,9.700397868442467e-05,-0.000463773389797074,-0.9977269333908271,-0.06738502720194617,1.0,0.0,0.0,0.0,1.0,0.0,0.0,0.0,1.0,0.0005384781397879124,-0.00034728040918709626,-0.14501774311065674,1.2184696791468346e-07,0.0,0.0,0.0,1.2184696791468346e-07,0.0,0.0,0.0,1.2184696791468346e-07,1.1964113,1.2009682532858392e-15,9.80665,8.999999999999999e-08,0.0,0.0,0.0,8.999999999999999e-08,0.0,0.0,0.0,8.999999999999999e-08
146.597,495,146,615761800,base_link,0.00018103057906493488,-0.0005070663947019642,-0.9973182676017202,-0.07318458320920357,1.0,0.0,0.0,0.0,1.0,0.0,0.0,0.0,1.0,0.00026299874298274517,-0.0005174449179321586,-0.04801721125841141,1.2184696791468346e-07,0.0,0.0,0.0,1.2184696791468346e-07,0.0,0.0,0.0,1.2184696791468346e-07,0.02941995,0.6178189500000012,9.8654899,8.999999999999999e-08,0.0,0.0,0.0,8.999999999999999e-08,0.0,0.0,0.0,8.999999999999999e-08
146.837,496,146,854761800,base_link,0.00031821775129423877,-0.0005223271536704803,-0.9912473115413764,-0.1320166401397967,1.0,0.0,0.0,0.0,1.0,0.0,0.0,0.0,1.0,-0.00040229468140751123,-3.5269185900760054e-05,-0.586966872215271,1.2184696791468346e-07,0.0,0.0,0.0,1.2184696791468346e-07,0.0,0.0,0.0,1.2184696791468346e-07,-0.2549729,-1.3925442999999988,9.85568325,8.999999999999999e-08,0.0,0.0,0.0,8.999999999999999e-08,0.0,0.0,0.0,8.999999999999999e-08
147.097,497,147,114822556,base_link,0.0003980296780937955,-0.0005389076799787573,-0.9882889030242619,-0.15259290714180956,1.0,0.0,0.0,0.0,1.0,0.0,0.0,0.0,1.0,0.0003425872419029474,-0.00033939781133085733,-0.01992013305425644,1.2184696791468346e-07,0.0,0.0,0.0,1.2184696791468346e-07,0.0,0.0,0.0,1.2184696791468346e-07,0.2353596,0.6276256000000012,9.71839015,8.999999999999999e-08,0.0,0.0,0.0,8.999999999999999e-08,0.0,0.0,0.0,8.999999999999999e-08
