Time,header.seq,header.stamp.secs,header.stamp.nsecs,header.frame_id,orientation.x,orientation.y,orientation.z,orientation.w,orientation_covariance_0,orientation_covariance_1,orientation_covariance_2,orientation_covariance_3,orientation_covariance_4,orientation_covariance_5,orientation_covariance_6,orientation_covariance_7,orientation_covariance_8,angular_velocity.x,angular_velocity.y,angular_velocity.z,angular_velocity_covariance_0,angular_velocity_covariance_1,angular_velocity_covariance_2,angular_velocity_covariance_3,angular_velocity_covariance_4,angular_velocity_covariance_5,angular_velocity_covariance_6,angular_velocity_covariance_7,angular_velocity_covariance_8,linear_acceleration.x,linear_acceleration.y,linear_acceleration.z,linear_acceleration_covariance_0,linear_acceleration_covariance_1,linear_acceleration_covariance_2,linear_acceleration_covariance_3,linear_acceleration_covariance_4,linear_acceleration_covariance_5,linear_acceleration_covariance_6,linear_acceleration_covariance_7,linear_acceleration_covariance_8
114.829,369,114,829000000,base_link,-0.0008814851391224657,-5.389516292310549e-05,-0.6649281182796075,-0.746906833280029,1.0,0.0,0.0,0.0,1.0,0.0,0.0,0.0,1.0,0.0003513356205075979,-0.00028307142201811097,-0.00180018600076437,1.2184696791468346e-07,0.0,0.0,0.0,1.2184696791468346e-07,0.0,0.0,0.0,1.2184696791468346e-07,0.0,1.188958570752981e-15,9.7085835,8.999999999999999e-08,0.0,0.0,0.0,8.999999999999999e-08,0.0,0.0,0.0,8.999999999999999e-08
115.089,370,115,89000000,base_link,-0.0008797637122740334,-5.5201878786424817e-05,-0.6648365677441518,-0.746988327324289,1.0,0.0,0.0,0.0,1.0,0.0,0.0,0.0,1.0,0.00035258778370916843,-0.0002679099561646583,-0.0017823009984567761,1.2184696791468346e-07,0.0,0.0,0.0,1.2184696791468346e-07,0.0,0.0,0.0,1.2184696791468346e-07,0.0,1.1853556659931232e-15,9.67916355,8.999999999999999e-08,0.0,0.0,0.0,8.999999999999999e-08,0.0,0.0,0.0,8.999999999999999e-08
115.329,371,115,329000000,base_link,-0.0008753800833161781,-5.3831497546633464e-05,-0.6647536432298974,-0.7470621290257309,1.0,0.0,0.0,0.0,1.0,0.0,0.0,0.0,1.0,0.00033145491033792496,-0.00027142534963786624,-0.001794388983398676,1.2184696791468346e-07,0.0,0.0,0.0,1.2184696791468346e-07,0.0,0.0,0.0,1.2184696791468346e-07,0.0,1.2045711580456967e-15,9.83606995,8.999999999999999e-08,0.0,0.0,0.0,8.999999999999999e-08,0.0,0.0,0.0,8.999999999999999e-08
115.589,372,115,589000000,base_link,-0.0008749306247503243,-5.0364901078763384e-05,-0.6646611921450785,-0.7471443847182831,1.0,0.0,0.0,0.0,1.0,0.0,0.0,0.0,1.0,0.00033788091968744993,-0.0002813348546624186,-0.0018033075612038374,1.2184696791468346e-07,0.0,0.0,0.0,1.2184696791468346e-07,0.0,0.0,0.0,1.2184696791468346e-07,0.0,1.1325130628485461e-15,9.24767095,8.999999999999999e-08,0.0,0.0,0.0,8.999999999999999e-08,0.0,0.0,0.0,8.999999999999999e-08
115.829,373,115,829000000,base_link,-0.0008737866884852357,-4.938859074378137e-05,-0.6645763659438768,-0.7472198390610493,1.0,0.0,0.0,0.0,1.0,0.0,0.0,0.0,1.0,0.00033769826404750347,-0.00026987947057932637,-0.0017970125190913677,1.2184696791468346e-07,0.0,0.0,0.0,1.2184696791468346e-07,0.0,0.0,0.0,1.2184696791468346e-07,0.0,1.1985663167792674e-15,9.7870367,8.999999999999999e-08,0.0,0.0,0.0,8.999999999999999e-08,0.0,0.0,0.0,8.999999999999999e-08
116.09,374,116,90000000,base_link,-0.000873308918508295,-4.738871440614244e-05,-0.6644830989129697,-0.7473027809026666,1.0,0.0,0.0,0.0,1.0,0.0,0.0,0.0,1.0,0.00033379311207681894,-0.000292756478302181,-0.0017881444655358791,1.2184696791468346e-07,0.0,0.0,0.0,1.2184696791468346e-07,0.0,0.0,0.0,1.2184696791468346e-07,0.0,1.1901595390062667e-15,9.71839015,8.999999999999999e-08,0.0,0.0,0.0,8.999999999999999e-08,0.0,0.0,0.0,8.999999999999999e-08
116.33,375,116,330000000,base_link,-0.0008731129756298791,-4.7639801137379806e-05,-0.6643998332527502,-0.747376810570076,1.0,0.0,0.0,0.0,1.0,0.0,0.0,0.0,1.0,0.00037364650052040815,-0.0002670494141057136,-0.0017794503364712,1.2184696791468346e-07,0.0,0.0,0.0,1.2184696791468346e-07,0.0,0.0,0.0,1.2184696791468346e-07,0.0,1.1781498564734082e-15,9.62032365,8.999999999999999e-08,0.0,0.0,0.0,8.999999999999999e-08,0.0,0.0,0.0,8.999999999999999e-08
116.59,376,116,590000000,base_link,-0.0008719055524524168,-4.616508025878384e-05,-0.664308066844508,-0.7474583800953771,1.0,0.0,0.0,0.0,1.0,0.0,0.0,0.0,1.0,0.0003182303626090288,-0.00029473670292645715,-0.0018046016339212656,1.2184696791468346e-07,0.0,0.0,0.0,1.2184696791468346e-07,0.0,0.0,0.0,1.2184696791468346e-07,0.0,1.1937624437661242e-15,9.7478101,8.999999999999999e-08,0.0,0.0,0.0,8.999999999999999e-08,0.0,0.0,0.0,8.999999999999999e-08
116.83,377,116,830000000,base_link,-0.0008675930576338175,-4.798599105742427e-05,-0.664224878045188,-0.7475323112518187,1.0,0.0,0.0,0.0,1.0,0.0,0.0,0.0,1.0,0.00033288029953837395,-0.0002567175542935731,-0.0017609467031434178,1.2184696791468346e-07,0.0,0.0,0.0,1.2184696791468346e-07,0.0,0.0,0.0,1.2184696791468346e-07,0.0,1.164939205687264e-15,9.5124505,8.999999999999999e-08,0.0,0.0,0.0,8.999999999999999e-08,0.0,0.0,0.0,8.999999999999999e-08
117.09,378,117,90000000,base_link,-0.0008669007113275345,-4.8586188577560175e-05,-0.6641322400479148,-0.7476146158626634,1.0,0.0,0.0,0.0,1.0,0.0,0.0,0.0,1.0,0.00032915512565523386,-0.00026771263219416163,-0.0018047866178676486,1.2184696791468346e-07,0.0,0.0,0.0,1.2184696791468346e-07,0.0,0.0,0.0,1.2184696791468346e-07,0.0,1.1709440469536932e-15,9.56148375,8.999999999999999e-08,0.0,0.0,0.0,8.999999999999999e-08,0.0,0.0,0.0,8.999999999999999e-08
117.33,379,117,330000000,base_link,-0.0008686826455688531,-4.461369639692757e-05,-0.66404657560162,-0.7476907039891838,1.0,0.0,0.0,0.0,1.0,0.0,0.0,0.0,1.0,0.00035038695205003023,-0.00030330708250403426,-0.0017856047488749027,1.2184696791468346e-07,0.0,0.0,0.0,1.2184696791468346e-07,0.0,0.0,0.0,1.2184696791468346e-07,0.0,1.1229053168222594e-15,9.16921775,8.999999999999999e-08,0.0,0.0,0.0,8.999999999999999e-08,0.0,0.0,0.0,8.999999999999999e-08
117.59,380,117,590000000,base_link,-0.0008685419659601483,-4.251091872205264e-05,-0.6639781255314443,-0.7477514912345041,1.0,0.0,0.0,0.0,1.0,0.0,0.0,0.0,1.0,0.0003363800933584571,-0.0003175066085532309,-0.0014112641802057624,1.2184696791468346e-07,0.0,0.0,0.0,1.2184696791468346e-07,0.0,0.0,0.0,1.2184696791468346e-07,0.0,1.1337140311018321e-15,9.2574776,8.999999999999999e-08,0.0,0.0,0.0,8.999999999999999e-08,0.0,0.0,0.0,8.999999999999999e-08
117.83,381,117,830000000,base_link,-0.0008571411086123142,-5.289431524840583e-05,-0.6639466650409778,-0.7477794383989672,1.0,0.0,0.0,0.0,1.0,0.0,0.0,0.0,1.0,0.0003298441879451275,-0.00026856607291847484,-0.001127580995671451,1.2184696791468346e-07,0.0,0.0,0.0,1.2184696791468346e-07,0.0,0.0,0.0,1.2184696791468346e-07,0.8629852,1.1289101580886886e-15,9.218251,8.999999999999999e-08,0.0,0.0,0.0,8.999999999999999e-08,0.0,0.0,0.0,8.999999999999999e-08
118.09,382,118,90000000,base_link,-0.0008157436370038322,-9.307385054037765e-05,-0.6639380532146215,-0.7477871270576643,1.0,0.0,0.0,0.0,1.0,0.0,0.0,0.0,1.0,0.00032706616912037134,-0.00023469235748052608,-0.0008760562632232904,1.2184696791468346e-07,0.0,0.0,0.0,1.2184696791468346e-07,0.0,0.0,0.0,1.2184696791468346e-07,1.3140911,1.2442031104041293e-15,10.1596894,8.999999999999999e-08,0.0,0.0,0.0,8.999999999999999e-08,0.0,0.0,0.0,8.999999999999999e-08
118.33,383,118,330000000,base_link,-0.0007282681488576077,-0.00016815538228390567,-0.6639628197998172,-0.7477652140028621,1.0,0.0,0.0,0.0,1.0,0.0,0.0,0.0,1.0,0.00034844945184886456,-0.0003470581723377109,-0.0004911427386105061,1.2184696791468346e-07,0.0,0.0,0.0,1.2184696791468346e-07,0.0,0.0,0.0,1.2184696791468346e-07,1.30428445,1.1613363009274065e-15,9.48303055,8.999999999999999e-08,0.0,0.0,0.0,8.999999999999999e-08,0.0,0.0,0.0,8.999999999999999e-08
118.59,384,118,590000000,base_link,-0.0005798774235751971,-0.00030657474353165866,-0.6640255917149772,-0.7477095581184414,1.0,0.0,0.0,0.0,1.0,0.0,0.0,0.0,1.0,0.00036234641447663307,-0.00022631313186138874,-0.00044804214849136764,1.2184696791468346e-07,0.0,0.0,0.0,1.2184696791468346e-07,0.0,0.0,0.0,1.2184696791468346e-07,1.372931,1.2550118246837018e-15,10.24794925,8.999999999999999e-08,0.0,0.0,0.0,8.999999999999999e-08,0.0,0.0,0.0,8.999999999999999e-08
118.83,385,118,830000000,base_link,-0.00042777588795458673,-0.00044775535646602503,-0.6640507202029463,-0.7476872725417216,1.0,0.0,0.0,0.0,1.0,0.0,0.0,0.0,1.0,0.00032566965091973543,-0.00046607363037765037,-0.0010238824179396033,1.2184696791468346e-07,0.0,0.0,0.0,1.2184696791468346e-07,0.0,0.0,0.0,1.2184696791468346e-07,1.30428445,1.2634186024567028e-15,10.3165958,8.999999999999999e-08,0.0,0.0,0.0,8.999999999999999e-08,0.0,0.0,0.0,8.999999999999999e-08
119.091,386,119,91000000,base_link,-0.0002583747827540894,-0.0006079043575232034,-0.6641059680101407,-0.7476381657914996,1.0,0.0,0.0,0.0,1.0,0.0,0.0,0.0,1.0,0.000357016921043396,-0.00019396992865949877,-0.0006063494365662336,1.2184696791468346e-07,0.0,0.0,0.0,1.2184696791468346e-07,0.0,0.0,0.0,1.2184696791468346e-07,1.0983448,1.172145015206979e-15,9.5712904,8.999999999999999e-08,0.0,0.0,0.0,8.999999999999999e-08,0.0,0.0,0.0,8.999999999999999e-08
119.331,387,119,331000000,base_link,-9.875203142348246e-05,-0.0007497572348255942,-0.6641728294591744,-0.7475786786153811,1.0,0.0,0.0,0.0,1.0,0.0,0.0,0.0,1.0,0.00025292113423347473,0.00013198703527450548,-0.0011081559350714087,1.2184696791468346e-07,0.0,0.0,0.0,1.2184696791468346e-07,0.0,0.0,0.0,1.2184696791468346e-07,1.04931155,1.1493266183945482e-15,9.38496405,8.999999999999999e-08,0.0,0.0,0.0,8.999999999999999e-08,0.0,0.0,0.0,8.999999999999999e-08
119.591,388,119,591000000,base_link,4.2568003338554974e-05,-0.0008760478993806333,-0.6642434013849926,-0.7475158422699406,1.0,0.0,0.0,0.0,1.0,0.0,0.0,0.0,1.0,0.0004558415384963155,-0.0001380945323035122,-0.0008907782612368464,1.2184696791468346e-07,0.0,0.0,0.0,1.2184696791468346e-07,0.0,0.0,0.0,1.2184696791468346e-07,1.02969825,1.1637382374339782e-15,9.50264385,8.999999999999999e-08,0.0,0.0,0.0,8.999999999999999e-08,0.0,0.0,0.0,8.999999999999999e-08
119.831,389,119,831000000,base_link,0.000159670355353257,-0.0009387800607616015,-0.6643358351926403,-0.7474336032560164,1.0,0.0,0.0,0.0,1.0,0.0,0.0,0.0,1.0,4.779733717441559e-05,-9.7262440249324e-05,-0.001250823843292892,1.2184696791468346e-07,0.0,0.0,0.0,1.2184696791468346e-07,0.0,0.0,0.0,1.2184696791468346e-07,1.08853815,1.230992459617985e-15,10.05181625,8.999999999999999e-08,0.0,0.0,0.0,8.999999999999999e-08,0.0,0.0,0.0,8.999999999999999e-08
120.091,390,120,91000000,base_link,0.00024243487497278544,-0.000992506678632752,-0.6644319421149247,-0.747348078510418,1.0,0.0,0.0,0.0,1.0,0.0,0.0,0.0,1.0,0.000250775832682848,-5.794421304017314e-05,-0.0007446971721947193,1.2184696791468346e-07,0.0,0.0,0.0,1.2184696791468346e-07,0.0,0.0,0.0,1.2184696791468346e-07,1.0198916,1.1781498564734082e-15,9.62032365,8.999999999999999e-08,0.0,0.0,0.0,8.999999999999999e-08,0.0,0.0,0.0,8.999999999999999e-08
120.331,391,120,331000000,base_link,0.0003026489119836205,-0.0010117440896335685,-0.6645098449785136,-0.7472787637181756,1.0,0.0,0.0,0.0,1.0,0.0,0.0,0.0,1.0,0.0003916968125849962,-0.00045028410386294143,-0.0012161446502432227,1.2184696791468346e-07,0.0,0.0,0.0,1.2184696791468346e-07,0.0,0.0,0.0,1.2184696791468346e-07,0.9610517000000001,1.173345983460265e-15,9.58109705,8.999999999999999e-08,0.0,0.0,0.0,8.999999999999999e-08,0.0,0.0,0.0,8.999999999999999e-08
120.591,392,120,591000000,base_link,0.00036344890629391583,-0.001018700648436073,-0.6645584130332757,-0.7472355357051585,1.0,0.0,0.0,0.0,1.0,0.0,0.0,0.0,1.0,0.00024965929333120584,-8.927192538976957e-06,-0.0023583173751831055,1.2184696791468346e-07,0.0,0.0,0.0,1.2184696791468346e-07,0.0,0.0,0.0,1.2184696791468346e-07,1.0787315,1.2177818088318409e-15,9.9439431,8.999999999999999e-08,0.0,0.0,0.0,8.999999999999999e-08,0.0,0.0,0.0,8.999999999999999e-08
120.831,393,120,831000000,base_link,0.000401389933156618,-0.0010024892097977678,-0.6646488013210232,-0.7471551410544083,1.0,0.0,0.0,0.0,1.0,0.0,0.0,0.0,1.0,7.27225560694933e-05,-0.00012195936869829907,-0.0010978742502629757,1.2184696791468346e-07,0.0,0.0,0.0,1.2184696791468346e-07,0.0,0.0,0.0,1.2184696791468346e-07,0.0,-0.009806649999998803,9.7674234,8.999999999999999e-08,0.0,0.0,0.0,8.999999999999999e-08,0.0,0.0,0.0,8.999999999999999e-08
121.091,394,121,91000000,base_link,0.00037464951137730287,-0.0009399681773555664,-0.6647065648798876,-0.747103847335261,1.0,0.0,0.0,0.0,1.0,0.0,0.0,0.0,1.0,0.0002555229002609849,2.1196436136960905e-05,-0.0006478434079326689,1.2184696791468346e-07,0.0,0.0,0.0,1.2184696791468346e-07,0.0,0.0,0.0,1.2184696791468346e-07,-0.24516625,1.1156995073025444e-15,9.11037785,8.999999999999999e-08,0.0,0.0,0.0,8.999999999999999e-08,0.0,0.0,0.0,8.999999999999999e-08
121.331,395,121,331000000,base_link,0.00026651375416461115,-0.000816546298498617,-0.6646376495173191,-0.7471653478759936,1.0,0.0,0.0,0.0,1.0,0.0,0.0,0.0,1.0,0.00043600017670542,-0.0003589330008253458,-0.002324323868378997,1.2184696791468346e-07,0.0,0.0,0.0,1.2184696791468346e-07,0.0,0.0,0.0,1.2184696791468346e-07,-0.26477955,1.1817527612332657e-15,9.6497436,8.999999999999999e-08,0.0,0.0,0.0,8.999999999999999e-08,0.0,0.0,0.0,8.999999999999999e-08
121.591,396,121,591000000,base_link,9.436343105382494e-05,-0.0006074454815539128,-0.6645630936328165,-0.7472319028833754,1.0,0.0,0.0,0.0,1.0,0.0,0.0,0.0,1.0,0.0003051171079277992,-0.00048010854516178413,-0.003694542683660984,1.2184696791468346e-07,0.0,0.0,0.0,1.2184696791468346e-07,0.0,0.0,0.0,1.2184696791468346e-07,-0.28439285000000003,-0.06864654999999872,10.46369555,8.999999999999999e-08,0.0,0.0,0.0,8.999999999999999e-08,0.0,0.0,0.0,8.999999999999999e-08
121.831,397,121,831000000,base_link,-7.836614835507027e-05,-0.00040634363171046793,-0.6645305149823123,-0.7472610142386278,1.0,0.0,0.0,0.0,1.0,0.0,0.0,0.0,1.0,0.0003215752076357603,-0.0003365739248692991,-0.0011618173448368907,1.2184696791468346e-07,0.0,0.0,0.0,1.2184696791468346e-07,0.0,0.0,0.0,1.2184696791468346e-07,-0.1372931,1.1961643802726959e-15,9.7674234,8.999999999999999e-08,0.0,0.0,0.0,8.999999999999999e-08,0.0,0.0,0.0,8.999999999999999e-08
122.092,398,122,92000000,base_link,-0.00028344116430530786,-0.00016221486962529345,-0.6643139649301995,-0.7474535767164137,1.0,0.0,0.0,0.0,1.0,0.0,0.0,0.0,1.0,0.00024301244411617517,-0.0008024813141673807,-0.0023090424947440624,1.2184696791468346e-07,0.0,0.0,0.0,1.2184696791468346e-07,0.0,0.0,0.0,1.2184696791468346e-07,-0.18632635,1.2009682532858392e-15,9.80665,8.999999999999999e-08,0.0,0.0,0.0,8.999999999999999e-08,0.0,0.0,0.0,8.999999999999999e-08
122.332,399,122,332000000,base_link,-0.0004406743530541284,5.646529458197906e-06,-0.6640990667386255,-0.7476444578348173,1.0,0.0,0.0,0.0,1.0,0.0,0.0,0.0,1.0,0.00027555227279663086,0.0004715004470199341,-0.004359118174761534,1.2184696791468346e-07,0.0,0.0,0.0,1.2184696791468346e-07,0.0,0.0,0.0,1.2184696791468346e-07,-0.0980665,0.009806650000001185,9.67916355,8.999999999999999e-08,0.0,0.0,0.0,8.999999999999999e-08,0.0,0.0,0.0,8.999999999999999e-08
122.592,400,122,592000000,base_link,-0.00063810804814083,0.0002468797873844871,-0.6639858258427693,-0.7477448461530075,1.0,0.0,0.0,0.0,1.0,0.0,0.0,0.0,1.0,5.770823918282986e-06,-0.00033026793971657775,-0.001885877107270062,1.2184696791468346e-07,0.0,0.0,0.0,1.2184696791468346e-07,0.0,0.0,0.0,1.2184696791468346e-07,-0.18632635,-0.029419949999998803,9.7674234,8.999999999999999e-08,0.0,0.0,0.0,8.999999999999999e-08,0.0,0.0,0.0,8.999999999999999e-08
122.832,401,122,832000000,base_link,-0.0008148968582866872,0.0004481063265205866,-0.6637773866913579,-0.7479296197243573,1.0,0.0,0.0,0.0,1.0,0.0,0.0,0.0,1.0,0.00024326599668711424,-5.0021568313241276e-05,-0.0022221836261451244,1.2184696791468346e-07,0.0,0.0,0.0,1.2184696791468346e-07,0.0,0.0,0.0,1.2184696791468346e-07,-0.0588399,1.1997672850325534e-15,9.79684335,8.999999999999999e-08,0.0,0.0,0.0,8.999999999999999e-08,0.0,0.0,0.0,8.999999999999999e-08
123.092,402,123,92000000,base_link,-0.000991028909676754,0.0006093311239001521,-0.663498947152922,-0.7481763119106658,1.0,0.0,0.0,0.0,1.0,0.0,0.0,0.0,1.0,0.00026883650571107864,-0.0003252576570957904,-0.003979411907494068,1.2184696791468346e-07,0.0,0.0,0.0,1.2184696791468346e-07,0.0,0.0,0.0,1.2184696791468346e-07,-0.02941995,1.1373169358616896e-15,9.28689755,8.999999999999999e-08,0.0,0.0,0.0,8.999999999999999e-08,0.0,0.0,0.0,8.999999999999999e-08
123.332,403,123,332000000,base_link,-0.001105967209927466,0.0007089631327874632,-0.6632927775951909,-0.7483588480120106,1.0,0.0,0.0,0.0,1.0,0.0,0.0,0.0,1.0,0.000353927374817431,-0.0005938295507803563,-0.0029765020590275526,1.2184696791468346e-07,0.0,0.0,0.0,1.2184696791468346e-07,0.0,0.0,0.0,1.2184696791468346e-07,0.00980665,-0.0098066499999988,9.79684335,8.999999999999999e-08,0.0,0.0,0.0,8.999999999999999e-08,0.0,0.0,0.0,8.999999999999999e-08
123.592,404,123,592000000,base_link,-0.0011984800952843844,0.0008011985497262571,-0.662988193759107,-0.7486284637003737,1.0,0.0,0.0,0.0,1.0,0.0,0.0,0.0,1.0,0.00036066840402781963,-6.418244447559152e-05,-0.002804510062560439,1.2184696791468346e-07,0.0,0.0,0.0,1.2184696791468346e-07,0.0,0.0,0.0,1.2184696791468346e-07,0.02941995,0.0098066500000012,9.79684335,8.999999999999999e-08,0.0,0.0,0.0,8.999999999999999e-08,0.0,0.0,0.0,8.999999999999999e-08
123.832,405,123,832000000,base_link,-0.0012879344722712593,0.0008839020576270648,-0.6626541624081345,-0.7489239086750545,1.0,0.0,0.0,0.0,1.0,0.0,0.0,0.0,1.0,0.0002622052561491728,-0.0007243063300848013,-0.004770492669194937,1.2184696791468346e-07,0.0,0.0,0.0,1.2184696791468346e-07,0.0,0.0,0.0,1.2184696791468346e-07,0.00980665,-0.01961329999999882,9.639936950000001,8.999999999999999e-08,0.0,0.0,0.0,8.999999999999999e-08,0.0,0.0,0.0,8.999999999999999e-08
124.092,406,124,92000000,base_link,-0.0013404514431263265,0.0009787412505053686,-0.6624854962863445,-0.7490729019699812,1.0,0.0,0.0,0.0,1.0,0.0,0.0,0.0,1.0,-5.854177288711071e-06,-0.0008971182396635416,-0.0030404331628233194,1.2184696791468346e-07,0.0,0.0,0.0,1.2184696791468346e-07,0.0,0.0,0.0,1.2184696791468346e-07,0.0392266,-0.019613299999998803,9.77723005,8.999999999999999e-08,0.0,0.0,0.0,8.999999999999999e-08,0.0,0.0,0.0,8.999999999999999e-08
124.332,407,124,332000000,base_link,-0.0013608784891228501,0.0009934070363213214,-0.6621647724112496,-0.7493563740502619,1.0,0.0,0.0,0.0,1.0,0.0,0.0,0.0,1.0,0.00031813967507332563,-0.00012697302736341994,-0.003367543686181307,1.2184696791468346e-07,0.0,0.0,0.0,1.2184696791468346e-07,0.0,0.0,0.0,1.2184696791468346e-07,-0.0588399,0.009806650000001213,9.9047165,8.999999999999999e-08,0.0,0.0,0.0,8.999999999999999e-08,0.0,0.0,0.0,8.999999999999999e-08
124.592,408,124,592000000,base_link,-0.0013808273462664,0.0010113558685459648,-0.6617288506995591,-0.7497412877966555,1.0,0.0,0.0,0.0,1.0,0.0,0.0,0.0,1.0,0.00032274750992655754,-0.0007656981470063334,-0.0045865788124501705,1.2184696791468346e-07,0.0,0.0,0.0,1.2184696791468346e-07,0.0,0.0,0.0,1.2184696791468346e-07,-0.0196133,-0.029419949999998817,9.65955025,8.999999999999999e-08,0.0,0.0,0.0,8.999999999999999e-08,0.0,0.0,0.0,8.999999999999999e-08
124.832,409,124,832000000,base_link,-0.0014156352217711274,0.001025410709886827,-0.6615147603296085,-0.749930107660611,1.0,0.0,0.0,0.0,1.0,0.0,0.0,0.0,1.0,0.0007128457073122263,-0.00047836476005613847,-0.003438094165176153,1.2184696791468346e-07,0.0,0.0,0.0,1.2184696791468346e-07,0.0,0.0,0.0,1.2184696791468346e-07,0.06864655,-0.029419949999998807,9.75761675,8.999999999999999e-08,0.0,0.0,0.0,8.999999999999999e-08,0.0,0.0,0.0,8.999999999999999e-08
125.093,410,125,93000000,base_link,-0.0014383184864068333,0.0010030709752922595,-0.661191250014179,-0.7502153397480201,1.0,0.0,0.0,0.0,1.0,0.0,0.0,0.0,1.0,0.000758482376113534,-0.0002567173214629295,-0.002320206956937909,1.2184696791468346e-07,0.0,0.0,0.0,1.2184696791468346e-07,0.0,0.0,0.0,1.2184696791468346e-07,0.0588399,0.029419950000001194,9.75761675,8.999999999999999e-08,0.0,0.0,0.0,8.999999999999999e-08,0.0,0.0,0.0,8.999999999999999e-08
125.333,411,125,333000000,base_link,-0.0014063940379028259,0.0010094341728749496,-0.6608303659430949,-0.750533297426554,1.0,0.0,0.0,0.0,1.0,0.0,0.0,0.0,1.0,0.00040277570951730013,-0.00021582690533250627,-0.0047484999522566795,1.2184696791468346e-07,0.0,0.0,0.0,1.2184696791468346e-07,0.0,0.0,0.0,1.2184696791468346e-07,0.0196133,0.009806650000001183,9.65955025,8.999999999999999e-08,0.0,0.0,0.0,8.999999999999999e-08,0.0,0.0,0.0,8.999999999999999e-08
125.593,412,125,593000000,base_link,-0.0014132546588287588,0.0009883066622175401,-0.6605002464214954,-0.7508238478087619,1.0,0.0,0.0,0.0,1.0,0.0,0.0,0.0,1.0,0.0005093393847346306,-0.00046498782467097093,-0.004060471896082163,1.2184696791468346e-07,0.0,0.0,0.0,1.2184696791468346e-07,0.0,0.0,0.0,1.2184696791468346e-07,0.00980665,-0.04903324999999881,9.75761675,8.999999999999999e-08,0.0,0.0,0.0,8.999999999999999e-08,0.0,0.0,0.0,8.999999999999999e-08
125.833,413,125,833000000,base_link,-0.001390035599839171,0.0009533482597354188,-0.6601682124976777,-0.7511158966070071,1.0,0.0,0.0,0.0,1.0,0.0,0.0,0.0,1.0,0.00025106663815677166,-0.0004410707624629144,-0.003551883390173316,1.2184696791468346e-07,0.0,0.0,0.0,1.2184696791468346e-07,0.0,0.0,0.0,1.2184696791468346e-07,-0.16671305,-0.04903324999999878,9.9439431,8.999999999999999e-08,0.0,0.0,0.0,8.999999999999999e-08,0.0,0.0,0.0,8.999999999999999e-08
126.093,414,126,93000000,base_link,-0.0013416110297290494,0.0008836014931655339,-0.6597788980841591,-0.7514580660097401,1.0,0.0,0.0,0.0,1.0,0.0,0.0,0.0,1.0,0.00034029525704681873,0.0006046376656740898,-0.004524125251919031,1.2184696791468346e-07,0.0,0.0,0.0,1.2184696791468346e-07,0.0,0.0,0.0,1.2184696791468346e-07,0.02941995,1.202169221539125e-15,9.81645665,8.999999999999999e-08,0.0,0.0,0.0,8.999999999999999e-08,0.0,0.0,0.0,8.999999999999999e-08
126.333,415,126,333000000,base_link,-0.001309808647956445,0.0008552866308882029,-0.6594275939272889,-0.7517664539292449,1.0,0.0,0.0,0.0,1.0,0.0,0.0,0.0,1.0,0.00032821064814925194,-0.00036193360574543536,-0.004796553403139114,1.2184696791468346e-07,0.0,0.0,0.0,1.2184696791468346e-07,0.0,0.0,0.0,1.2184696791468346e-07,-0.02941995,-0.019613299999998845,9.4339973,8.999999999999999e-08,0.0,0.0,0.0,8.999999999999999e-08,0.0,0.0,0.0,8.999999999999999e-08
126.593,416,126,593000000,base_link,-0.0012557175597391924,0.0007963136752036891,-0.6591049444575948,-0.7520495071798745,1.0,0.0,0.0,0.0,1.0,0.0,0.0,0.0,1.0,0.0002549682976678014,-0.00034705200232565446,-0.0035222829319536686,1.2184696791468346e-07,0.0,0.0,0.0,1.2184696791468346e-07,0.0,0.0,0.0,1.2184696791468346e-07,0.00980665,-0.0098066499999988,9.79684335,8.999999999999999e-08,0.0,0.0,0.0,8.999999999999999e-08,0.0,0.0,0.0,8.999999999999999e-08
126.833,417,126,833000000,base_link,-0.0012240979227186365,0.0007654446751859719,-0.6587729375526957,-0.7523404365225339,1.0,0.0,0.0,0.0,1.0,0.0,0.0,0.0,1.0,0.000266849878244102,-0.0006150581175461416,-0.0037197149358689785,1.2184696791468346e-07,0.0,0.0,0.0,1.2184696791468346e-07,0.0,0.0,0.0,1.2184696791468346e-07,0.02941995,0.009806650000001204,9.83606995,8.999999999999999e-08,0.0,0.0,0.0,8.999999999999999e-08,0.0,0.0,0.0,8.999999999999999e-08
127.093,418,127,93000000,base_link,-0.0011771682132365013,0.0007055130883911306,-0.6583998715742979,-0.7526670748991402,1.0,0.0,0.0,0.0,1.0,0.0,0.0,0.0,1.0,0.00023668562062084675,-0.00045531976502388775,-0.005082081072032452,1.2184696791468346e-07,0.0,0.0,0.0,1.2184696791468346e-07,0.0,0.0,0.0,1.2184696791468346e-07,0.02941995,0.009806650000001195,9.7674234,8.999999999999999e-08,0.0,0.0,0.0,8.999999999999999e-08,0.0,0.0,0.0,8.999999999999999e-08
127.333,419,127,333000000,base_link,-0.0011406410947898081,0.0006182105931918488,-0.6581028736845412,-0.7529269050855494,1.0,0.0,0.0,0.0,1.0,0.0,0.0,0.0,1.0,0.00038994429633021355,-0.0002661446342244749,-0.003872401313856244,1.2184696791468346e-07,0.0,0.0,0.0,1.2184696791468346e-07,0.0,0.0,0.0,1.2184696791468346e-07,-0.04903325,-0.04903324999999881,9.75761675,8.999999999999999e-08,0.0,0.0,0.0,8.999999999999999e-08,0.0,0.0,0.0,8.999999999999999e-08
127.593,420,127,593000000,base_link,-0.0010758058845623543,0.0005070049689225065,-0.6577272909128433,-0.7532552000325733,1.0,0.0,0.0,0.0,1.0,0.0,0.0,0.0,1.0,0.0006694287294521928,4.5191147364675524e-05,-0.0038700751028954983,1.2184696791468346e-07,0.0,0.0,0.0,1.2184696791468346e-07,0.0,0.0,0.0,1.2184696791468346e-07,-0.0980665,0.01961330000000123,10.03220295,8.999999999999999e-08,0.0,0.0,0.0,8.999999999999999e-08,0.0,0.0,0.0,8.999999999999999e-08
127.833,421,127,833000000,base_link,-0.0010328726263713357,0.0004483046008129617,-0.6573302037824404,-0.7536018414205593,1.0,0.0,0.0,0.0,1.0,0.0,0.0,0.0,1.0,0.00023362820502370596,-0.00011490460019558733,-0.0053560868836939335,1.2184696791468346e-07,0.0,0.0,0.0,1.2184696791468346e-07,0.0,0.0,0.0,1.2184696791468346e-07,0.0196133,-0.009806649999998805,9.75761675,8.999999999999999e-08,0.0,0.0,0.0,8.999999999999999e-08,0.0,0.0,0.0,8.999999999999999e-08
128.094,422,128,94000000,base_link,-0.0009944114964064352,0.00038508759730547374,-0.6569522669537449,-0.75393141717112,1.0,0.0,0.0,0.0,1.0,0.0,0.0,0.0,1.0,0.0007258986588567495,-0.0004521681694313889,-0.004405792336910963,1.2184696791468346e-07,0.0,0.0,0.0,1.2184696791468346e-07,0.0,0.0,0.0,1.2184696791468346e-07,-0.0196133,-0.029419949999998793,9.85568325,8.999999999999999e-08,0.0,0.0,0.0,8.999999999999999e-08,0.0,0.0,0.0,8.999999999999999e-08
128.334,423,128,334000000,base_link,-0.0009233494930772368,0.0002981164421575051,-0.6565353704748562,-0.7542946147678266,1.0,0.0,0.0,0.0,1.0,0.0,0.0,0.0,1.0,0.00041208090260624886,0.00047747540520504063,-0.0043778978288173676,1.2184696791468346e-07,0.0,0.0,0.0,1.2184696791468346e-07,0.0,0.0,0.0,1.2184696791468346e-07,0.04903325,0.029419950000001194,9.7281968,8.999999999999999e-08,0.0,0.0,0.0,8.999999999999999e-08,0.0,0.0,0.0,8.999999999999999e-08
128.594,424,128,594000000,base_link,-0.0008466627691232538,0.00023114800558815155,-0.6561455622699369,-0.754633838922045,1.0,0.0,0.0,0.0,1.0,0.0,0.0,0.0,1.0,0.00028490705881267786,0.00017129234038293316,-0.0038068846333771944,1.2184696791468346e-07,0.0,0.0,0.0,1.2184696791468346e-07,0.0,0.0,0.0,1.2184696791468346e-07,0.00980665,1.2105759993121259e-15,9.8851032,8.999999999999999e-08,0.0,0.0,0.0,8.999999999999999e-08,0.0,0.0,0.0,8.999999999999999e-08
128.834,425,128,834000000,base_link,-0.0007925746094169111,0.0001545175534998268,-0.6557736671387113,-0.7549571149656521,1.0,0.0,0.0,0.0,1.0,0.0,0.0,0.0,1.0,0.000540834735147655,-0.00044172094203531796,-0.004315239377319813,1.2184696791468346e-07,0.0,0.0,0.0,1.2184696791468346e-07,0.0,0.0,0.0,1.2184696791468346e-07,0.0,1.2261885866048418e-15,10.01258965,8.999999999999999e-08,0.0,0.0,0.0,8.999999999999999e-08,0.0,0.0,0.0,8.999999999999999e-08
129.094,426,129,94000000,base_link,-0.0007408875160930734,0.00010104084966963907,-0.655317787968683,-0.7553529225787556,1.0,0.0,0.0,0.0,1.0,0.0,0.0,0.0,1.0,0.000228642369620502,-0.00025351892691105664,-0.004747884813696146,1.2184696791468346e-07,0.0,0.0,0.0,1.2184696791468346e-07,0.0,0.0,0.0,1.2184696791468346e-07,-0.02941995,0.019613300000001208,9.85568325,8.999999999999999e-08,0.0,0.0,0.0,8.999999999999999e-08,0.0,0.0,0.0,8.999999999999999e-08
129.334,427,129,334000000,base_link,-0.0006996723966815334,2.6748468974808568e-05,-0.6549190988137646,-0.7556986725885015,1.0,0.0,0.0,0.0,1.0,0.0,0.0,0.0,1.0,0.0006241756491363049,7.62895215302699e-05,-0.005555588286370039,1.2184696791468346e-07,0.0,0.0,0.0,1.2184696791468346e-07,0.0,0.0,0.0,1.2184696791468346e-07,0.02941995,1.1685421104471215e-15,9.54187045,8.999999999999999e-08,0.0,0.0,0.0,8.999999999999999e-08,0.0,0.0,0.0,8.999999999999999e-08
129.594,428,129,594000000,base_link,-0.0006651970684908782,-4.199092486127479e-05,-0.6544987144273614,-0.756062820513318,1.0,0.0,0.0,0.0,1.0,0.0,0.0,0.0,1.0,0.0003017772687599063,-0.0002598797436803586,-0.005169896874576807,1.2184696791468346e-07,0.0,0.0,0.0,1.2184696791468346e-07,0.0,0.0,0.0,1.2184696791468346e-07,0.1372931,1.2514089199238443e-15,10.2185293,8.999999999999999e-08,0.0,0.0,0.0,8.999999999999999e-08,0.0,0.0,0.0,8.999999999999999e-08
129.834,429,129,834000000,base_link,-0.0006440748560692975,-9.376541371870703e-05,-0.6540936748533924,-0.7564132738737543,1.0,0.0,0.0,0.0,1.0,0.0,0.0,0.0,1.0,0.00037508609239012003,-0.000145211233757437,-0.0060600396245718,1.2184696791468346e-07,0.0,0.0,0.0,1.2184696791468346e-07,0.0,0.0,0.0,1.2184696791468346e-07,0.02941995,1.2105759993121259e-15,9.8851032,8.999999999999999e-08,0.0,0.0,0.0,8.999999999999999e-08,0.0,0.0,0.0,8.999999999999999e-08
130.094,430,130,94000000,base_link,-0.0006008728795789196,-0.00014252887343084493,-0.6537110590257555,-0.7567439923413518,1.0,0.0,0.0,0.0,1.0,0.0,0.0,0.0,1.0,0.0004361181054264307,-0.00028561672661453545,-0.004989847540855408,1.2184696791468346e-07,0.0,0.0,0.0,1.2184696791468346e-07,0.0,0.0,0.0,1.2184696791468346e-07,-0.0196133,-0.0098066499999988,9.80665,8.999999999999999e-08,0.0,0.0,0.0,8.999999999999999e-08,0.0,0.0,0.0,8.999999999999999e-08
130.334,431,130,334000000,base_link,-0.0005621876221238438,-0.0001942522428480594,-0.653302759410456,-0.7570965267109786,1.0,0.0,0.0,0.0,1.0,0.0,0.0,0.0,1.0,0.0002582517918199301,3.415939863771139e-05,-0.00496376259252429,1.2184696791468346e-07,0.0,0.0,0.0,1.2184696791468346e-07,0.0,0.0,0.0,1.2184696791468346e-07,0.04903325,-0.019613299999998782,9.93413645,8.999999999999999e-08,0.0,0.0,0.0,8.999999999999999e-08,0.0,0.0,0.0,8.999999999999999e-08
130.594,432,130,594000000,base_link,-0.0005278458287715791,-0.00023797478269635628,-0.6529333327658381,-0.7574151620545229,1.0,0.0,0.0,0.0,1.0,0.0,0.0,0.0,1.0,0.00013498833868652582,-0.0001906809629872447,-0.004753597546368837,1.2184696791468346e-07,0.0,0.0,0.0,1.2184696791468346e-07,0.0,0.0,0.0,1.2184696791468346e-07,-0.0980665,-0.00980664999999876,10.13026945,8.999999999999999e-08,0.0,0.0,0.0,8.999999999999999e-08,0.0,0.0,0.0,8.999999999999999e-08
130.834,433,130,834000000,base_link,-0.0005390985190862562,-0.0002586136482420112,-0.652555595930027,-0.7577406130808715,1.0,0.0,0.0,0.0,1.0,0.0,0.0,0.0,1.0,0.000582084758207202,-0.00017493416089564635,-0.0060580214485526085,1.2184696791468346e-07,0.0,0.0,0.0,1.2184696791468346e-07,0.0,0.0,0.0,1.2184696791468346e-07,0.0784532,1.2153798723252691e-15,9.9243298,8.999999999999999e-08,0.0,0.0,0.0,8.999999999999999e-08,0.0,0.0,0.0,8.999999999999999e-08
131.094,434,131,94000000,base_link,-0.0005361515586487738,-0.00028389454823773074,-0.6522762577563204,-0.7579810785981417,1.0,0.0,0.0,0.0,1.0,0.0,0.0,0.0,1.0,0.00026798946782946587,-0.00035573728382587476,-0.003453499171882868,1.2184696791468346e-07,0.0,0.0,0.0,1.2184696791468346e-07,0.0,0.0,0.0,1.2184696791468346e-07,0.1765197,-0.009806649999998687,10.718668450000001,8.999999999999999e-08,0.0,0.0,0.0,8.999999999999999e-08,0.0,0.0,0.0,8.999999999999999e-08
131.334,435,131,334000000,base_link,-0.000516382216101089,-0.00030954052692155865,-0.6518972626494958,-0.7583070594977757,1.0,0.0,0.0,0.0,1.0,0.0,0.0,0.0,1.0,0.00022663583513349295,-0.00027732516173273374,-0.003802952589467168,1.2184696791468346e-07,0.0,0.0,0.0,1.2184696791468346e-07,0.0,0.0,0.0,1.2184696791468346e-07,-0.00980665,1.2117769675654117e-15,9.89490985,8.999999999999999e-08,0.0,0.0,0.0,8.999999999999999e-08,0.0,0.0,0.0,8.999999999999999e-08
131.594,436,131,594000000,base_link,-0.0005098734355868276,-0.0003220009060177428,-0.651448511863068,-0.7586926075400303,1.0,0.0,0.0,0.0,1.0,0.0,0.0,0.0,1.0,0.000563194858841598,-0.0002548760967329152,-0.006283072754740715,1.2184696791468346e-07,0.0,0.0,0.0,1.2184696791468346e-07,0.0,0.0,0.0,1.2184696791468346e-07,0.16671305,0.04903325000000122,9.93413645,8.999999999999999e-08,0.0,0.0,0.0,8.999999999999999e-08,0.0,0.0,0.0,8.999999999999999e-08
131.834,437,131,834000000,base_link,-0.00048517537749779855,-0.00036169868823929306,-0.6509092389902674,-0.7591553176893533,1.0,0.0,0.0,0.0,1.0,0.0,0.0,0.0,1.0,0.0003258960787206888,0.0002296653110533941,-0.009605253115296364,1.2184696791468346e-07,0.0,0.0,0.0,1.2184696791468346e-07,0.0,0.0,0.0,1.2184696791468346e-07,0.1765197,0.08825985000000122,10.002783,8.999999999999999e-08,0.0,0.0,0.0,8.999999999999999e-08,0.0,0.0,0.0,8.999999999999999e-08
132.094,438,132,94000000,base_link,-0.00047323105863282446,-0.0003925769218869297,-0.6486069857414912,-0.7611232488783026,1.0,0.0,0.0,0.0,1.0,0.0,0.0,0.0,1.0,0.0002544977469369769,-0.00029569026082754585,-0.03661099076271057,1.2184696791468346e-07,0.0,0.0,0.0,1.2184696791468346e-07,0.0,0.0,0.0,1.2184696791468346e-07,-0.28439285000000003,-0.16671304999999875,10.2577559,8.999999999999999e-08,0.0,0.0,0.0,8.999999999999999e-08,0.0,0.0,0.0,8.999999999999999e-08
132.334,439,132,334000000,base_link,-0.0005029051362337131,-0.0003894954196874066,-0.6418613175077126,-0.7668204773393871,1.0,0.0,0.0,0.0,1.0,0.0,0.0,0.0,1.0,0.00046283588744699955,-0.00030897895339877226,-0.06625423580408096,1.2184696791468346e-07,0.0,0.0,0.0,1.2184696791468346e-07,0.0,0.0,0.0,1.2184696791468346e-07,0.6276256,0.2353596000000012,9.79684335,8.999999999999999e-08,0.0,0.0,0.0,8.999999999999999e-08,0.0,0.0,0.0,8.999999999999999e-08
132.594,440,132,594000000,base_link,-0.0005026618446949747,-0.0003900501957328548,-0.6340942894773295,-0.7732554734653714,1.0,0.0,0.0,0.0,1.0,0.0,0.0,0.0,1.0,0.0003192689036950469,-0.0002048419555649207,-0.037073180079460144,1.2184696791468346e-07,0.0,0.0,0.0,1.2184696791468346e-07,0.0,0.0,0.0,1.2184696791468346e-07,-0.8433719,0.07845320000000122,10.0223963,8.999999999999999e-08,0.0,0.0,0.0,8.999999999999999e-08,0.0,0.0,0.0,8.999999999999999e-08
132.834,441,132,834000000,base_link,-0.0005644306095496528,-0.0003540170657084734,-0.6207653311402285,-0.7839961477866884,1.0,0.0,0.0,0.0,1.0,0.0,0.0,0.0,1.0,0.0002490236656740308,-2.507562749089086e-05,-0.10416369140148163,1.2184696791468346e-07,0.0,0.0,0.0,1.2184696791468346e-07,0.0,0.0,0.0,1.2184696791468346e-07,-0.83356525,-0.6864654999999987,10.198916,8.999999999999999e-08,0.0,0.0,0.0,8.999999999999999e-08,0.0,0.0,0.0,8.999999999999999e-08
133.094,442,133,94000000,base_link,-0.000597243486546414,-0.00033563087175534327,-0.6075465034997766,-0.7942838137198389,1.0,0.0,0.0,0.0,1.0,0.0,0.0,0.0,1.0,0.0004284394672140479,-0.0003272293834015981,-0.20714572072029114,1.2184696791468346e-07,0.0,0.0,0.0,1.2184696791468346e-07,0.0,0.0,0.0,1.2184696791468346e-07,0.9610517000000001,-1.8436501999999988,9.8458766,8.999999999999999e-08,0.0,0.0,0.0,8.999999999999999e-08,0.0,0.0,0.0,8.999999999999999e-08
133.338,443,133,334000000,base_link,-0.000638926796910057,-0.00032432356711527657,-0.599625009990816,-0.8002807844627321,1.0,0.0,0.0,0.0,1.0,0.0,0.0,0.0,1.0,0.00040597422048449516,-0.0002696602605283283,-0.018736403435468674,1.2184696791468346e-07,0.0,0.0,0.0,1.2184696791468346e-07,0.0,0.0,0.0,1.2184696791468346e-07,0.28439285000000003,-0.47071919999999884,9.639936950000001,8.999999999999999e-08,0.0,0.0,0.0,8.999999999999999e-08,0.0,0.0,0.0,8.999999999999999e-08
133.594,444,133,594000000,base_link,-0.0007003820169162775,-0.00033788568476771384,-0.5926163454488659,-0.8054844892393178,1.0,0.0,0.0,0.0,1.0,0.0,0.0,0.0,1.0,0.0006016170373186469,-0.00025718251708896486,-0.12412310391664505,1.2184696791468346e-07,0.0,0.0,0.0,1.2184696791468346e-07,0.0,0.0,0.0,1.2184696791468346e-07,0.63743225,1.2009682532858392e-15,9.80665,8.999999999999999e-08,0.0,0.0,0.0,8.999999999999999e-08,0.0,0.0,0.0,8.999999999999999e-08
133.835,445,133,835000000,base_link,-0.0007343894186490503,-0.00032083339020615317,-0.58972380037923,-0.807604604372954,1.0,0.0,0.0,0.0,1.0,0.0,0.0,0.0,1.0,0.0002251695841550827,-0.0002377537311986099,-0.00833433773368597,1.2184696791468346e-07,0.0,0.0,0.0,1.2184696791468346e-07,0.0,0.0,0.0,1.2184696791468346e-07,-2.1378497,-0.4314925999999987,10.1008495,8.999999999999999e-08,0.0,0.0,0.0,8.999999999999999e-08,0.0,0.0,0.0,8.999999999999999e-08
134.095,446,134,95000000,base_link,-0.0008241736579021331,-0.00021969049319713074,-0.5885783205298665,-0.8084397522859145,1.0,0.0,0.0,0.0,1.0,0.0,0.0,0.0,1.0,0.00035216042306274176,-0.00026812264695763615,-0.002243742346763611,1.2184696791468346e-07,0.0,0.0,0.0,1.2184696791468346e-07,0.0,0.0,0.0,1.2184696791468346e-07,-0.9610517000000001,1.1985663167792674e-15,9.7870367,8.999999999999999e-08,0.0,0.0,0.0,8.999999999999999e-08,0.0,0.0,0.0,8.999999999999999e-08
134.335,447,134,335000000,base_link,-0.0010041773899549904,-2.5720806775621052e-05,-0.5824349563351225,-0.812876689667697,1.0,0.0,0.0,0.0,1.0,0.0,0.0,0.0,1.0,9.278836660087109e-05,-0.00027567544020713704,-0.10829165577888489,1.2184696791468346e-07,0.0,0.0,0.0,1.2184696791468346e-07,0.0,0.0,0.0,1.2184696791468346e-07,-1.0983448,1.2009682532858392e-15,9.80665,8.999999999999999e-08,0.0,0.0,0.0,8.999999999999999e-08,0.0,0.0,0.0,8.999999999999999e-08
134.595,448,134,595000000,base_link,-0.0012471935056352246,0.000263215043186972,-0.5759393003426257,-0.817491466345091,1.0,0.0,0.0,0.0,1.0,0.0,0.0,0.0,1.0,0.0004921304062008858,-0.0005675023421645195,-0.024967879056930542,1.2184696791468346e-07,0.0,0.0,0.0,1.2184696791468346e-07,0.0,0.0,0.0,1.2184696791468346e-07,-4.2756994,1.637710550000001,8.87501825,8.999999999999999e-08,0.0,0.0,0.0,8.999999999999999e-08,0.0,0.0,0.0,8.999999999999999e-08
134.835,449,134,835000000,base_link,-0.001434971991622004,0.0006053648496675107,-0.5726581354706815,-0.8197927995951321,1.0,0.0,0.0,0.0,1.0,0.0,0.0,0.0,1.0,8.12384532764554e-05,-0.0005325112724676758,-0.023901836946606636,1.2184696791468346e-07,0.0,0.0,0.0,1.2184696791468346e-07,0.0,0.0,0.0,1.2184696791468346e-07,-1.3140911,-0.1372930999999988,9.80665,8.999999999999999e-08,0.0,0.0,0.0,8.999999999999999e-08,0.0,0.0,0.0,8.999999999999999e-08
135.095,450,135,95000000,base_link,-0.001643412891920369,0.0009400238737395614,-0.5676881630583637,-0.8232414986336657,1.0,0.0,0.0,0.0,1.0,0.0,0.0,0.0,1.0,0.00039876927621662617,-0.00045500637497753626,-0.05881553143262863,1.2184696791468346e-07,0.0,0.0,0.0,1.2184696791468346e-07,0.0,0.0,0.0,1.2184696791468346e-07,-1.1964113,-0.009806649999998831,9.551677100000001,8.999999999999999e-08,0.0,0.0,0.0,8.999999999999999e-08,0.0,0.0,0.0,8.999999999999999e-08
135.335,451,135,335000000,base_link,-0.0018436493676324609,0.0012004179840618121,-0.5499860140141006,-0.8351709671334094,1.0,0.0,0.0,0.0,1.0,0.0,0.0,0.0,1.0,0.0001779249869287014,-0.0006137299351394479,-0.24679027497768402,1.2184696791468346e-07,0.0,0.0,0.0,1.2184696791468346e-07,0.0,0.0,0.0,1.2184696791468346e-07,0.04903325,-0.019613299999998803,9.77723005,8.999999999999999e-08,0.0,0.0,0.0,8.999999999999999e-08,0.0,0.0,0.0,8.999999999999999e-08
135.595,452,135,595000000,base_link,-0.0020874211100289906,0.0012089237982837303,-0.4691233986549444,-0.8831293325503311,1.0,0.0,0.0,0.0,1.0,0.0,0.0,0.0,1.0,0.0004055054159834981,-0.00036962144076833973,-0.799102783203125,1.2184696791468346e-07,0.0,0.0,0.0,1.2184696791468346e-07,0.0,0.0,0.0,1.2184696791468346e-07,-0.196133,-0.7256920999999988,9.3163175,8.999999999999999e-08,0.0,0.0,0.0,8.999999999999999e-08,0.0,0.0,0.0,8.999999999999999e-08
135.835,453,135,835000000,base_link,-0.0023197858802777613,0.001004819659538279,-0.3579336433712448,-0.9337436028556811,1.0,0.0,0.0,0.0,1.0,0.0,0.0,0.0,1.0,1.660024281591177e-05,-0.0004944381071255996,-1.13095223903656,1.2184696791468346e-07,0.0,0.0,0.0,1.2184696791468346e-07,0.0,0.0,0.0,1.2184696791468346e-07,-0.02941995,-0.22555294999999878,9.81645665,8.999999999999999e-08,0.0,0.0,0.0,8.999999999999999e-08,0.0,0.0,0.0,8.999999999999999e-08
136.095,454,136,95000000,base_link,-0.002503046983954685,0.0005853372524122202,-0.20657979572544377,-0.9784263795166864,1.0,0.0,0.0,0.0,1.0,0.0,0.0,0.0,1.0,-0.0003260917728766799,-0.00013745517935618526,-1.1979414224624634,1.2184696791468346e-07,0.0,0.0,0.0,1.2184696791468346e-07,0.0,0.0,0.0,1.2184696791468346e-07,-0.0980665,-0.5295590999999988,9.62032365,8.999999999999999e-08,0.0,0.0,0.0,8.999999999999999e-08,0.0,0.0,0.0,8.999999999999999e-08
136.335,455,136,335000000,base_link,-0.0025468812638426573,0.0003323597864835316,-0.17133253925957087,-0.9852099085594237,1.0,0.0,0.0,0.0,1.0,0.0,0.0,0.0,1.0,0.00024496542755514383,-0.00019428716041147644,0.005407013464719057,1.2184696791468346e-07,0.0,0.0,0.0,1.2184696791468346e-07,0.0,0.0,0.0,1.2184696791468346e-07,-0.08825985,0.6668522000000012,9.7478101,8.999999999999999e-08,0.0,0.0,0.0,8.999999999999999e-08,0.0,0.0,0.0,8.999999999999999e-08
136.595,456,136,595000000,base_link,-0.002414347851071732,0.0002240750208295325,-0.16887740283736957,-0.9856340819623395,1.0,0.0,0.0,0.0,1.0,0.0,0.0,0.0,1.0,0.00034391949884593487,-0.0005030102329328682,-0.020833637565374374,1.2184696791468346e-07,0.0,0.0,0.0,1.2184696791468346e-07,0.0,0.0,0.0,1.2184696791468346e-07,-1.1179581,0.029419950000001176,9.610517,8.999999999999999e-08,0.0,0.0,0.0,8.999999999999999e-08,0.0,0.0,0.0,8.999999999999999e-08
136.835,457,136,835000000,base_link,-0.0021857374104989487,0.00013094682342836456,-0.16179322920487788,-0.9868222516686376,1.0,0.0,0.0,0.0,1.0,0.0,0.0,0.0,1.0,0.000392528367228806,-0.00037717109080405523,-0.12074615061283112,1.2184696791468346e-07,0.0,0.0,0.0,1.2184696791468346e-07,0.0,0.0,0.0,1.2184696791468346e-07,-0.9610517000000001,0.019613300000001218,9.97336305,8.999999999999999e-08,0.0,0.0,0.0,8.999999999999999e-08,0.0,0.0,0.0,8.999999999999999e-08
137.095,458,137,95000000,base_link,-0.0019211123707206653,-1.5411988981678146e-05,-0.10955955117165173,-0.9939783769462975,1.0,0.0,0.0,0.0,1.0,0.0,0.0,0.0,1.0,0.00039146572817116976,-0.00040831230580813194,-0.5278489589691162,1.2184696791468346e-07,0.0,0.0,0.0,1.2184696791468346e-07,0.0,0.0,0.0,1.2184696791468346e-07,0.93163175,1.1767980000000013,9.77723005,8.999999999999999e-08,0.0,0.0,0.0,8.999999999999999e-08,0.0,0.0,0.0,8.999999999999999e-08
137.335,459,137,335000000,base_link,-0.0016438718805080704,-0.00023900002467343263,-0.026497875022703232,-0.9996474894599144,1.0,0.0,0.0,0.0,1.0,0.0,0.0,0.0,1.0,5.673512350767851e-05,-0.0003150681732223392,-0.7790151834487915,1.2184696791468346e-07,0.0,0.0,0.0,1.2184696791468346e-07,0.0,0.0,0.0,1.2184696791468346e-07,1.02969825,0.3628460500000012,9.40457735,8.999999999999999e-08,0.0,0.0,0.0,8.999999999999999e-08,0.0,0.0,0.0,8.999999999999999e-08
137.595,460,137,595000000,base_link,-0.0014649731228499553,-0.00044677682898975257,-0.003110743092211654,-0.9999939887427468,1.0,0.0,0.0,0.0,1.0,0.0,0.0,0.0,1.0,0.00023227103520184755,-5.743617657572033e-05,-0.00018906017066910863,1.2184696791468346e-07,0.0,0.0,0.0,1.2184696791468346e-07,0.0,0.0,0.0,1.2184696791468346e-07,0.1372931,0.9806650000000011,9.4928372,8.999999999999999e-08,0.0,0.0,0.0,8.999999999999999e-08,0.0,0.0,0.0,8.999999999999999e-08
137.835,461,137,835000000,base_link,-0.0012445397776392926,-0.0006225042768714638,-0.0007326386431485421,-0.9999987634241283,1.0,0.0,0.0,0.0,1.0,0.0,0.0,0.0,1.0,0.00010505411773920059,0.0002343078376725286,-0.024510327726602554,1.2184696791468346e-07,0.0,0.0,0.0,1.2184696791468346e-07,0.0,0.0,0.0,1.2184696791468346e-07,-1.04931155,0.1274864500000012,9.87529655,8.999999999999999e-08,0.0,0.0,0.0,8.999999999999999e-08,0.0,0.0,0.0,8.999999999999999e-08
138.095,462,138,95000000,base_link,-0.0009812420912483025,-0.0007234915985629529,0.0021590136244414304,-0.9999969261872932,1.0,0.0,0.0,0.0,1.0,0.0,0.0,0.0,1.0,5.138595588505268e-05,-0.0002966206520795853,-0.025432810187339783,1.2184696791468346e-07,0.0,0.0,0.0,1.2184696791468346e-07,0.0,0.0,0.0,1.2184696791468346e-07,-0.32361945000000003,0.07845320000000121,9.80665,8.999999999999999e-08,0.0,0.0,0.0,8.999999999999999e-08,0.0,0.0,0.0,8.999999999999999e-08
138.335,463,138,335000000,base_link,-0.0007644241997297012,-0.0008664646819027609,0.004718847196484299,-0.9999881986182306,1.0,0.0,0.0,0.0,1.0,0.0,0.0,0.0,1.0,0.00036642723716795444,-7.967581041160119e-06,-0.02346625365316868,1.2184696791468346e-07,0.0,0.0,0.0,1.2184696791468346e-07,0.0,0.0,0.0,1.2184696791468346e-07,0.32361945000000003,-0.0196132999999988,9.79684335,8.999999999999999e-08,0.0,0.0,0.0,8.999999999999999e-08,0.0,0.0,0.0,8.999999999999999e-08
138.595,464,138,595000000,base_link,-0.0005983229212493954,-0.001005529522982431,0.004828216841572586,-0.9999876595449522,1.0,0.0,0.0,0.0,1.0,0.0,0.0,0.0,1.0,0.0004153260961174965,-0.00030654261354357015,-0.0010843613417819142,1.2184696791468346e-07,0.0,0.0,0.0,1.2184696791468346e-07,0.0,0.0,0.0,1.2184696791468346e-07,-0.196133,-0.2255529499999988,9.7085835,8.999999999999999e-08,0.0,0.0,0.0,8.999999999999999e-08,0.0,0.0,0.0,8.999999999999999e-08
138.835,465,138,835000000,base_link,-0.0005148405841641314,-0.0011906065699628966,0.008711547196230407,-0.9999612124180699,1.0,0.0,0.0,0.0,1.0,0.0,0.0,0.0,1.0,0.0002248195232823491,-0.0003724930575117498,-0.02404652163386345,1.2184696791468346e-07,0.0,0.0,0.0,1.2184696791468346e-07,0.0,0.0,0.0,1.2184696791468346e-07,1.1964113,1.2009682532858392e-15,9.80665,8.999999999999999e-08,0.0,0.0,0.0,8.999999999999999e-08,0.0,0.0,0.0,8.999999999999999e-08
139.095,466,139,95000000,base_link,-0.0005233577221884796,-0.0014143174347167882,0.012041289856536852,-0.9999263638595991,1.0,0.0,0.0,0.0,1.0,0.0,0.0,0.0,1.0,0.0008120093261823058,-0.00022591254673898553,-0.02720501460134983,1.2184696791468346e-07,0.0,0.0,0.0,1.2184696791468346e-07,0.0,0.0,0.0,1.2184696791468346e-07,0.3334261,0.16671305000000125,10.2381426,8.999999999999999e-08,0.0,0.0,0.0,8.999999999999999e-08,0.0,0.0,0.0,8.999999999999999e-08
139.335,467,139,335000000,base_link,-0.00048327975085286906,-0.0015781077963630268,0.019139074337689688,-0.9998154688991173,1.0,0.0,0.0,0.0,1.0,0.0,0.0,0.0,1.0,0.00038407614920288324,5.746120586990316e-05,-0.08114754408597946,1.2184696791468346e-07,0.0,0.0,0.0,1.2184696791468346e-07,0.0,0.0,0.0,1.2184696791468346e-07,0.3530394,0.06864655000000122,10.0223963,8.999999999999999e-08,0.0,0.0,0.0,8.999999999999999e-08,0.0,0.0,0.0,8.999999999999999e-08
139.595,468,139,595000000,base_link,-0.000454487891232424,-0.0016674981186733634,0.03873013511838108,-0.9992482121697754,1.0,0.0,0.0,0.0,1.0,0.0,0.0,0.0,1.0,0.0004725854378193617,-9.049475193026357e-05,-0.21849218010902405,1.2184696791468346e-07,0.0,0.0,0.0,1.2184696791468346e-07,0.0,0.0,0.0,1.2184696791468346e-07,0.5295591,-0.6178189499999989,9.93413645,8.999999999999999e-08,0.0,0.0,0.0,8.999999999999999e-08,0.0,0.0,0.0,8.999999999999999e-08
139.836,469,139,836000000,base_link,-0.00038239439655784487,-0.001723318647821511,0.0425275571329895,-0.9990937347574871,1.0,0.0,0.0,0.0,1.0,0.0,0.0,0.0,1.0,0.0003616489702835679,2.605374902486513e-05,-0.023509172722697258,1.2184696791468346e-07,0.0,0.0,0.0,1.2184696791468346e-07,0.0,0.0,0.0,1.2184696791468346e-07,0.1765197,0.6276256000000012,9.80665,8.999999999999999e-08,0.0,0.0,0.0,8.999999999999999e-08,0.0,0.0,0.0,8.999999999999999e-08
140.096,470,140,96000000,base_link,-0.0004649087694993801,-0.001673869978374725,0.046176887041106174,-0.9989317680013607,1.0,0.0,0.0,0.0,1.0,0.0,0.0,0.0,1.0,0.0009501060703769326,-0.0002881834516301789,-0.030906084924936295,1.2184696791468346e-07,0.0,0.0,0.0,1.2184696791468346e-07,0.0,0.0,0.0,1.2184696791468346e-07,0.00980665,-0.05883989999999873,10.3754357,8.999999999999999e-08,0.0,0.0,0.0,8.999999999999999e-08,0.0,0.0,0.0,8.999999999999999e-08
140.336,471,140,336000000,base_link,-0.0005037542828728418,-0.0016138866602414311,0.05006905745275281,-0.9987443271865242,1.0,0.0,0.0,0.0,1.0,0.0,0.0,0.0,1.0,0.0006172163411974907,-3.937282599512755e-06,-0.03260249271988869,1.2184696791468346e-07,0.0,0.0,0.0,1.2184696791468346e-07,0.0,0.0,0.0,1.2184696791468346e-07,0.1569064,0.2255529500000012,9.7870367,8.999999999999999e-08,0.0,0.0,0.0,8.999999999999999e-08,0.0,0.0,0.0,8.999999999999999e-08
140.596,472,140,596000000,base_link,-0.0005376466704746914,-0.0015485727945784076,0.05339669635253774,-0.9985720332940398,1.0,0.0,0.0,0.0,1.0,0.0,0.0,0.0,1.0,0.00020709261298179626,0.00029288546647876203,-0.02431591972708702,1.2184696791468346e-07,0.0,0.0,0.0,1.2184696791468346e-07,0.0,0.0,0.0,1.2184696791468346e-07,-0.14709975,-0.37265269999999884,9.5320638,8.999999999999999e-08,0.0,0.0,0.0,8.999999999999999e-08,0.0,0.0,0.0,8.999999999999999e-08
140.836,473,140,836000000,base_link,-0.000583692573189564,-0.0014961483621168763,0.055994827568608574,-0.9984297672488638,1.0,0.0,0.0,0.0,1.0,0.0,0.0,0.0,1.0,0.000255044549703598,0.00016383256297558272,-0.022369105368852615,1.2184696791468346e-07,0.0,0.0,0.0,1.2184696791468346e-07,0.0,0.0,0.0,1.2184696791468346e-07,0.0,-0.0882598499999988,9.75761675,8.999999999999999e-08,0.0,0.0,0.0,8.999999999999999e-08,0.0,0.0,0.0,8.999999999999999e-08
141.096,474,141,96000000,base_link,-0.0005578218151261519,-0.0014897482062049487,0.05864960588482554,-0.9982773628679853,1.0,0.0,0.0,0.0,1.0,0.0,0.0,0.0,1.0,-0.00011661206372082233,0.00037638586945831515,-0.021446572616696358,1.2184696791468346e-07,0.0,0.0,0.0,1.2184696791468346e-07,0.0,0.0,0.0,1.2184696791468346e-07,0.3138128,0.3726527000000013,10.4342756,8.999999999999999e-08,0.0,0.0,0.0,8.999999999999999e-08,0.0,0.0,0.0,8.999999999999999e-08
141.336,475,141,336000000,base_link,-0.0005918407102219261,-0.0014521792619662155,0.0611970230376257,-0.9981244738364535,1.0,0.0,0.0,0.0,1.0,0.0,0.0,0.0,1.0,0.0003357132663950324,7.727951742708405e-05,-0.022652611136436462,1.2184696791468346e-07,0.0,0.0,0.0,1.2184696791468346e-07,0.0,0.0,0.0,1.2184696791468346e-07,0.02941995,0.02941995000000121,9.89490985,8.999999999999999e-08,0.0,0.0,0.0,8.999999999999999e-08,0.0,0.0,0.0,8.999999999999999e-08
141.596,476,141,596000000,base_link,-0.0006329510407963839,-0.0013998482648634987,0.06307359467051638,-0.9980076960891409,1.0,0.0,0.0,0.0,1.0,0.0,0.0,0.0,1.0,0.0003425499889999628,7.051904685795116e-05,-0.015603997744619846,1.2184696791468346e-07,0.0,0.0,0.0,1.2184696791468346e-07,0.0,0.0,0.0,1.2184696791468346e-07,-0.196133,-0.05883989999999881,9.71839015,8.999999999999999e-08,0.0,0.0,0.0,8.999999999999999e-08,0.0,0.0,0.0,8.999999999999999e-08
141.836,477,141,836000000,base_link,-0.0006804130946526353,-0.0012991341542050057,0.06456670248830249,-0.997912315896671,1.0,0.0,0.0,0.0,1.0,0.0,0.0,0.0,1.0,0.00012963893823325634,-0.0003113119164481775,-0.012874524109065533,1.2184696791468346e-07,0.0,0.0,0.0,1.2184696791468346e-07,0.0,0.0,0.0,1.2184696791468346e-07,0.06864655,0.0588399000000012,9.7870367,8.999999999999999e-08,0.0,0.0,0.0,8.999999999999999e-08,0.0,0.0,0.0,8.999999999999999e-08
142.096,478,142,96000000,base_link,-0.000737534868986212,-0.0011776688573402379,0.06637813906151685,-0.9977935717337075,1.0,0.0,0.0,0.0,1.0,0.0,0.0,0.0,1.0,0.00044168788008391857,-0.000370400492101908,-0.002028876915574074,1.2184696791468346e-07,0.0,0.0,0.0,1.2184696791468346e-07,0.0,0.0,0.0,1.2184696791468346e-07,0.6472389000000001,-0.019613299999998817,9.67916355,8.999999999999999e-08,0.0,0.0,0.0,8.999999999999999e-08,0.0,0.0,0.0,8.999999999999999e-08
142.336,479,142,336000000,base_link,-0.000795699441241669,-0.0010614409405292952,0.06639253659256494,-0.9977926995575452,1.0,0.0,0.0,0.0,1.0,0.0,0.0,0.0,1.0,0.00044129672460258007,-0.00042871641926467435,-0.0013025798834860325,1.2184696791468346e-07,0.0,0.0,0.0,1.2184696791468346e-07,0.0,0.0,0.0,1.2184696791468346e-07,1.24544455,1.2009682532858392e-15,9.80665,8.999999999999999e-08,0.0,0.0,0.0,8.999999999999999e-08,0.0,0.0,0.0,8.999999999999999e-08
142.596,480,142,596000000,base_link,-0.0008562293994885057,-0.0009859298525540599,0.07147929206052434,-0.9974412291559176,1.0,0.0,0.0,0.0,1.0,0.0,0.0,0.0,1.0,2.948904875665903e-05,-0.00023757666349412054,-0.08518051356077194,1.2184696791468346e-07,0.0,0.0,0.0,1.2184696791468346e-07,0.0,0.0,0.0,1.2184696791468346e-07,1.1964113,1.2009682532858392e-15,9.80665,8.999999999999999e-08,0.0,0.0,0.0,8.999999999999999e-08,0.0,0.0,0.0,8.999999999999999e-08
142.836,481,142,836000000,base_link,-0.0008973690433406623,-0.0009525992605576468,0.0808320086392873,-0.9967268801746982,1.0,0.0,0.0,0.0,1.0,0.0,0.0,0.0,1.0,0.00015925790648907423,-0.00042645109351725454,-0.08720841258764267,1.2184696791468346e-07,0.0,0.0,0.0,1.2184696791468346e-07,0.0,0.0,0.0,1.2184696791468346e-07,0.0,-0.6962721499999989,9.4928372,8.999999999999999e-08,0.0,0.0,0.0,8.999999999999999e-08,0.0,0.0,0.0,8.999999999999999e-08
143.096,482,143,96000000,base_link,-0.000966508016451228,-0.0008335315960982669,0.09452625915352764,-0.9955215504537169,1.0,0.0,0.0,0.0,1.0,0.0,0.0,0.0,1.0,-2.1870946511626244e-06,-0.00042287516407670537,-0.1587849110364914,1.2184696791468346e-07,0.0,0.0,0.0,1.2184696791468346e-07,0.0,0.0,0.0,1.2184696791468346e-07,-0.77472535,0.3236194500000012,9.93413645,8.999999999999999e-08,0.0,0.0,0.0,8.999999999999999e-08,0.0,0.0,0.0,8.999999999999999e-08
143.336,483,143,336000000,base_link,-0.0010332938176316417,-0.0007395126080537032,0.10917994700788497,-0.9940211892089345,1.0,0.0,0.0,0.0,1.0,0.0,0.0,0.0,1.0,0.0002749927807599306,-9.353389032205652e-06,-0.16799630224704742,1.2184696791468346e-07,0.0,0.0,0.0,1.2184696791468346e-07,0.0,0.0,0.0,1.2184696791468346e-07,-0.87279185,1.1964113000000012,9.414384,8.999999999999999e-08,0.0,0.0,0.0,8.999999999999999e-08,0.0,0.0,0.0,8.999999999999999e-08
143.596,484,143,596000000,base_link,-0.0010047929195778989,-0.0006274548167546238,0.18028653107719783,-0.9836134217281667,1.0,0.0,0.0,0.0,1.0,0.0,0.0,0.0,1.0,-2.7607777155935764e-05,-0.0001371558755637195,-0.8002145886421204,1.2184696791468346e-07,0.0,0.0,0.0,1.2184696791468346e-07,0.0,0.0,0.0,1.2184696791468346e-07,-0.63743225,0.8433719000000013,9.8851032,8.999999999999999e-08,0.0,0.0,0.0,8.999999999999999e-08,0.0,0.0,0.0,8.999999999999999e-08
143.836,485,143,836000000,base_link,-0.000981866362326887,-0.0005366710588319319,0.27125737520422233,-0.9625061996267541,1.0,0.0,0.0,0.0,1.0,0.0,0.0,0.0,1.0,0.0002627904759719968,-0.00031315616797663443,-0.6224797368049622,1.2184696791468346e-07,0.0,0.0,0.0,1.2184696791468346e-07,0.0,0.0,0.0,1.2184696791468346e-07,0.0588399,-0.402072649999999,8.7671451,8.999999999999999e-08,0.0,0.0,0.0,8.999999999999999e-08,0.0,0.0,0.0,8.999999999999999e-08
144.096,486,144,96000000,base_link,-0.0010121316504226312,-0.0003886931988664017,0.3432555610959634,-0.9392414195955238,1.0,0.0,0.0,0.0,1.0,0.0,0.0,0.0,1.0,0.0002482268027961254,-0.0006721394602209991,-0.5399314761161804,1.2184696791468346e-07,0.0,0.0,0.0,1.2184696791468346e-07,0.0,0.0,0.0,1.2184696791468346e-07,0.57859235,-1.1571846999999988,9.79684335,8.999999999999999e-08,0.0,0.0,0.0,8.999999999999999e-08,0.0,0.0,0.0,8.999999999999999e-08
144.336,487,144,336000000,base_link,-0.0010467991407126034,-0.0003276364659317666,0.4272311101621822,-0.9041417894199419,1.0,0.0,0.0,0.0,1.0,0.0,0.0,0.0,1.0,0.0002539522247388959,-0.00036945554893473456,-0.7843618392944336,1.2184696791468346e-07,0.0,0.0,0.0,1.2184696791468346e-07,0.0,0.0,0.0,1.2184696791468346e-07,-0.1176798,-0.2353595999999988,9.71839015,8.999999999999999e-08,0.0,0.0,0.0,8.999999999999999e-08,0.0,0.0,0.0,8.999999999999999e-08
144.596,488,144,596000000,base_link,-0.0010851747287304566,-0.0002928479328534972,0.5036195863640227,-0.8639247935245445,1.0,0.0,0.0,0.0,1.0,0.0,0.0,0.0,1.0,0.0005595007678493857,-0.00038591667544106114,-0.7681761980056763,1.2184696791468346e-07,0.0,0.0,0.0,1.2184696791468346e-07,0.0,0.0,0.0,1.2184696791468346e-07,-0.06864655,-0.2843928499999988,9.81645665,8.999999999999999e-08,0.0,0.0,0.0,8.999999999999999e-08,0.0,0.0,0.0,8.999999999999999e-08
144.836,489,144,836000000,base_link,-0.0011507743067412722,-0.00024379715883970148,0.5758622805160075,-0.8175458703707965,1.0,0.0,0.0,0.0,1.0,0.0,0.0,0.0,1.0,0.0005964102456346154,-0.00023599574342378566,-0.6966447830200195,1.2184696791468346e-07,0.0,0.0,0.0,1.2184696791468346e-07,0.0,0.0,0.0,1.2184696791468346e-07,0.0784532,0.0686465500000012,9.71839015,8.999999999999999e-08,0.0,0.0,0.0,8.999999999999999e-08,0.0,0.0,0.0,8.999999999999999e-08
145.096,490,145,96000000,base_link,-0.0011816151572756177,-0.00020498775099846858,0.6156951479213605,-0.7879835319292756,1.0,0.0,0.0,0.0,1.0,0.0,0.0,0.0,1.0,0.000546386232599616,-0.0003554041031748101,-0.03651128336787224,1.2184696791468346e-07,0.0,0.0,0.0,1.2184696791468346e-07,0.0,0.0,0.0,1.2184696791468346e-07,0.77472535,0.27458620000000117,9.79684335,8.999999999999999e-08,0.0,0.0,0.0,8.999999999999999e-08,0.0,0.0,0.0,8.999999999999999e-08
145.336,491,145,336000000,base_link,-0.0011550559622465523,-0.00010105151195165059,0.6184445178562502,-0.7858276108459579,1.0,0.0,0.0,0.0,1.0,0.0,0.0,0.0,1.0,0.0004935502074658871,-0.0005885612918064034,-0.029398366808891296,1.2184696791468346e-07,0.0,0.0,0.0,1.2184696791468346e-07,0.0,0.0,0.0,1.2184696791468346e-07,-0.75511205,-0.08825984999999877,10.03220295,8.999999999999999e-08,0.0,0.0,0.0,8.999999999999999e-08,0.0,0.0,0.0,8.999999999999999e-08
145.596,492,145,596000000,base_link,-0.0010756231883861744,7.446541268062643e-06,0.6213438102258376,-0.7835373076461285,1.0,0.0,0.0,0.0,1.0,0.0,0.0,0.0,1.0,0.0003690146841108799,-0.0001222915016114746,-0.027927974238991737,1.2184696791468346e-07,0.0,0.0,0.0,1.2184696791468346e-07,0.0,0.0,0.0,1.2184696791468346e-07,0.14709975,0.04903325000000122,9.93413645,8.999999999999999e-08,0.0,0.0,0.0,8.999999999999999e-08,0.0,0.0,0.0,8.999999999999999e-08
145.837,493,145,837000000,base_link,-0.0009448234183025672,0.0001584644073610289,0.6242901861851674,-0.7811919390461148,1.0,0.0,0.0,0.0,1.0,0.0,0.0,0.0,1.0,0.00045626203063875437,-0.0005673823179677163,-0.028375888243317604,1.2184696791468346e-07,0.0,0.0,0.0,1.2184696791468346e-07,0.0,0.0,0.0,1.2184696791468346e-07,-0.85317855,1.150527586647834e-15,9.3947707,8.999999999999999e-08,0.0,0.0,0.0,8.999999999999999e-08,0.0,0.0,0.0,8.999999999999999e-08
146.097,494,146,97000000,base_link,-0.0007898364878689574,0.0003259255150055937,0.6275435750381044,-0.7785809728983082,1.0,0.0,0.0,0.0,1.0,0.0,0.0,0.0,1.0,0.0006558471359312534,-0.0006430164212361014,-0.028848741203546524,1.2184696791468346e-07,0.0,0.0,0.0,1.2184696791468346e-07,0.0,0.0,0.0,1.2184696791468346e-07,-0.81395195,-0.03922659999999881,9.75761675,8.999999999999999e-08,0.0,0.0,0.0,8.999999999999999e-08,0.0,0.0,0.0,8.999999999999999e-08
146.337,495,146,337000000,base_link,-0.0006593205535748569,0.0004619604319848923,0.6306226704398374,-0.7760891697584081,1.0,0.0,0.0,0.0,1.0,0.0,0.0,0.0,1.0,0.0004158944357186556,-0.0003227932611480395,-0.0321466363966465,1.2184696791468346e-07,0.0,0.0,0.0,1.2184696791468346e-07,0.0,0.0,0.0,1.2184696791468346e-07,-0.0784532,0.11767980000000124,10.1204628,8.999999999999999e-08,0.0,0.0,0.0,8.999999999999999e-08,0.0,0.0,0.0,8.999999999999999e-08
146.597,496,146,597000000,base_link,-0.0005518957701254304,0.0006256421920738741,0.6341430371570241,-0.7732153079241071,1.0,0.0,0.0,0.0,1.0,0.0,0.0,0.0,1.0,0.0007681128336116672,-0.0005969888297840994,-0.03401300311088562,1.2184696791468346e-07,0.0,0.0,0.0,1.2184696791468346e-07,0.0,0.0,0.0,1.2184696791468346e-07,-0.5295591,-0.09806649999999878,10.01258965,8.999999999999999e-08,0.0,0.0,0.0,8.999999999999999e-08,0.0,0.0,0.0,8.999999999999999e-08
146.837,497,146,837000000,base_link,-0.0005341043921910203,0.0006991801395459388,0.638018537540109,-0.7700205007886551,1.0,0.0,0.0,0.0,1.0,0.0,0.0,0.0,1.0,0.0004798108711838722,-0.0004253149963915398,-0.040810562670230865,1.2184696791468346e-07,0.0,0.0,0.0,1.2184696791468346e-07,0.0,0.0,0.0,1.2184696791468346e-07,-0.0196133,0.11767980000000129,10.48330885,8.999999999999999e-08,0.0,0.0,0.0,8.999999999999999e-08,0.0,0.0,0.0,8.999999999999999e-08
147.097,498,147,97000000,base_link,-0.0005923354697000337,0.0007412799257845917,0.6476517367125626,-0.7619359077875019,1.0,0.0,0.0,0.0,1.0,0.0,0.0,0.0,1.0,0.0004725933540612459,-0.0003232337767258447,-0.13092964887619019,1.2184696791468346e-07,0.0,0.0,0.0,1.2184696791468346e-07,0.0,0.0,0.0,1.2184696791468346e-07,-0.196133,-0.29419949999999884,9.414384,8.999999999999999e-08,0.0,0.0,0.0,8.999999999999999e-08,0.0,0.0,0.0,8.999999999999999e-08
