Time,header.seq,header.frame_id,child_frame_id,pose.x,pose.y,pose.z,orientation.x,orientation.y,orientation.z,orientation.w,linear.x,linear.y,linear.z,angular.x,angular.y,angular.z
114.829,369,map,base_link,-0.018178246379534357,-0.02219155373694548,583.673,-0.0008814851391224657,-5.389516292310549e-05,-0.6649281182796075,-0.746906833280029,0.02,-0.02,0.1
115.089,370,map,base_link,-0.018178245730240405,-0.022191553561754063,583.645,-0.0008797637122740334,-5.5201878786424817e-05,-0.6648365677441518,-0.746988327324289,0.01,-0.02,0.07
115.329,371,map,base_link,-0.018178246041287593,-0.022191553309369283,583.627,-0.0008753800833161781,-5.3831497546633464e-05,-0.6647536432298974,-0.7470621290257309,0.02,-0.02,0.11
115.589,372,map,base_link,-0.01817824587499217,-0.022191553353650306,583.605,-0.0008749306247503243,-5.0364901078763384e-05,-0.6646611921450785,-0.7471443847182831,0.02,-0.02,0.11
115.829,373,map,base_link,-0.018178245786231173,-0.02219155323933819,583.587,-0.0008737866884852357,-4.938859074378137e-05,-0.6645763659438768,-0.7472198390610493,0.02,-0.02,0.14
116.09,374,map,base_link,-0.01817824609727836,-0.022191553366724293,583.569,-0.000873308918508295,-4.738871440614244e-05,-0.6644830989129697,-0.7473027809026666,0.01,-0.02,0.1
116.33,375,map,base_link,-0.01817824601411644,-0.022191553388836383,583.55,-0.0008731129756298791,-4.7639801137379806e-05,-0.6643998332527502,-0.747376810570076,0.01,-0.02,0.11
116.59,376,map,base_link,-0.01817824552549041,-0.02219155341271062,583.533,-0.0008719055524524168,-4.616508025878384e-05,-0.664308066844508,-0.7474583800953771,0.01,-0.02,0.13
116.83,377,map,base_link,-0.018178245364822487,-0.022191552833930928,583.523,-0.0008675930576338175,-4.798599105742427e-05,-0.664224878045188,-0.7475323112518187,0.01,-0.02,0.1
117.09,378,map,base_link,-0.018178245281632144,-0.022191552856043018,583.513,-0.0008669007113275345,-4.8586188577560175e-05,-0.6641322400479148,-0.7476146158626634,0.01,-0.02,0.13
117.33,379,map,base_link,-0.0181782457534041,-0.02219155318243793,583.506,-0.0008686826455688531,-4.461369639692757e-05,-0.66404657560162,-0.7476907039891838,0.01,-0.02,0.12
117.59,380,map,base_link,-0.01817824593646833,-0.01109577760320235,583.507,-0.0008685419659601483,-4.251091872205264e-05,-0.6639781255314443,-0.7477514912345041,0.03,0.11,0.07
117.831,381,map,base_link,-0.009089121150481105,0.04438310811451629,583.512,-0.0008571411086123142,-5.289431524840583e-05,-0.6639466650409778,-0.7477794383989672,0.06,0.38,0.02
118.09,382,map,base_link,0.009089122481071854,0.21081976161480043,583.527,-0.0008157436370038322,-9.307385054037765e-05,-0.6639380532146215,-0.7477871270576643,0.1,0.73,-0.01
118.33,383,map,base_link,0.03635649232708715,0.44383107993172644,583.547,-0.0007282681488576077,-0.00016815538228390567,-0.6639628197998172,-0.7477652140028621,0.14,1.06,-0.03
118.59,384,map,base_link,0.07271298722378106,0.8099917234300165,583.575,-0.0005798774235751971,-0.00030657474353165866,-0.6640255917149772,-0.7477095581184414,0.18,1.42,-0.06
118.83,385,map,base_link,0.10906948430115904,1.2205354795772791,583.601,-0.00042777588795458673,-0.00044775535646602503,-0.6640507202029463,-0.7476872725417216,0.22,1.73,-0.05
119.091,386,map,base_link,0.17269336252729772,1.7531327815482882,583.618,-0.0002583747827540894,-0.0006079043575232034,-0.6641059680101407,-0.7476381657914996,0.25,2.06,-0.02
119.331,387,map,base_link,0.22722812209542553,2.3190174114919273,583.619,-9.875203142348246e-05,-0.0007497572348255942,-0.6641728294591744,-0.7475786786153811,0.28,2.34,-0.05
119.591,388,map,base_link,0.2999411456281109,2.9958598249414194,583.644,4.2568003338554974e-05,-0.0008760478993806333,-0.6642434013849926,-0.7475158422699406,0.31,2.63,-0.14
119.831,389,map,base_link,0.3726541783738355,3.6837980213566652,583.671,0.000159670355353257,-0.0009387800607616015,-0.6643358351926403,-0.7474336032560164,0.34,2.89,-0.06
120.091,390,map,base_link,0.4544563573167011,4.493789756485114,583.684,0.00024243487497278544,-0.000992506678632752,-0.6644319421149247,-0.747348078510418,0.37,3.16,-0.05
120.331,391,map,base_link,0.5453476788694616,5.2926857157816585,583.69,0.0003026489119836205,-0.0010117440896335685,-0.6645098449785136,-0.7472787637181756,0.39,3.42,-0.05
120.591,392,map,base_link,0.6362390252353975,6.213635214392923,583.698,0.00036344890629391583,-0.001018700648436073,-0.6645584130332757,-0.7472355357051585,0.4,3.55,-0.01
120.831,393,map,base_link,0.727130383528106,7.068010047417317,583.695,0.000401389933156618,-0.0010024892097977678,-0.6646488013210232,-0.7471551410544083,0.4,3.52,0.0
121.091,394,map,base_link,0.8180217606609972,7.95567219891376,583.681,0.00037464951137730287,-0.0009399681773555664,-0.6647065648798876,-0.747103847335261,0.38,3.43,0.06
121.331,395,map,base_link,0.8998240140712142,8.754568113418998,583.667,0.00026651375416461115,-0.000816546298498617,-0.6646376495173191,-0.7471653478759936,0.37,3.35,0.03
121.591,396,map,base_link,0.9816262844030064,9.575655607909255,583.661,9.436343105382494e-05,-0.0006074454815539128,-0.6645630936328165,-0.7472319028833754,0.36,3.27,0.02
121.831,397,map,base_link,1.0543394271851696,10.307976867978311,583.656,-7.836614835507027e-05,-0.00040634363171046793,-0.6645305149823123,-0.7472610142386278,0.35,3.19,0.07
122.092,398,map,base_link,1.1361417212006586,11.084681233109109,583.648,-0.00028344116430530786,-0.00016221486962529345,-0.6643139649301995,-0.7474535767164137,0.35,3.12,0.05
122.332,399,map,base_link,1.2088548846034826,11.772619395669835,583.643,-0.0004406743530541284,5.646529458197906e-06,-0.6640990667386255,-0.7476444578348173,0.34,3.05,0.07
122.592,400,map,base_link,1.2906571953524235,12.516036381953654,583.619,-0.00063810804814083,0.0002468797873844871,-0.6639858258427693,-0.7477448461530075,0.33,3.02,0.12
122.832,401,map,base_link,1.3633703729538809,13.203974477466204,583.589,-0.0008148968582866872,0.0004481063265205866,-0.6637773866913579,-0.7479296197243573,0.33,2.98,0.14
123.092,402,map,base_link,1.4360835722836214,13.947391448058113,583.557,-0.000991028909676754,0.0006093311239001521,-0.663498947152922,-0.7481763119106658,0.33,2.98,0.15
123.332,403,map,base_link,1.5087967734345682,14.635329527288945,583.527,-0.001105967209927466,0.0007089631327874632,-0.6632927775951909,-0.7483588480120106,0.32,2.95,0.14
123.592,404,map,base_link,1.5905991302869609,15.37874648068697,583.492,-0.0011984800952843844,0.0008011985497262571,-0.662988193759107,-0.7486284637003737,0.33,2.94,0.16
123.832,405,map,base_link,1.6724014901988369,16.07778029477828,583.459,-0.0012879344722712593,0.0008839020576270648,-0.6626541624081345,-0.7489239086750545,0.33,2.95,0.18
124.092,406,map,base_link,1.7542038843440935,16.84338883508832,583.44,-0.0013404514431263265,0.0009787412505053686,-0.6624854962863445,-0.7490729019699812,0.33,2.96,0.16
124.332,407,map,base_link,1.836006278982552,17.56461423848185,583.42,-0.0013608784891228501,0.0009934070363213214,-0.6621647724112496,-0.7493563740502619,0.34,2.96,0.19
124.592,408,map,base_link,1.9268978341010836,18.3302227114861,583.391,-0.0013808273462664,0.0010113558685459648,-0.6617288506995591,-0.7497412877966555,0.35,2.95,0.2
124.832,409,map,base_link,2.0087002557447704,19.05144810060483,583.375,-0.0014156352217711274,0.001025410709886827,-0.6615147603296085,-0.749930107660611,0.35,2.96,0.15
125.093,410,map,base_link,2.0995918483025946,19.82815239513019,583.365,-0.0014383184864068333,0.0010030709752922595,-0.661191250014179,-0.7502153397480201,0.34,2.96,0.16
125.333,411,map,base_link,2.181394299695853,20.54937780688539,583.356,-0.0014063940379028259,0.0010094341728749496,-0.6608303659430949,-0.750533297426554,0.35,2.96,0.15
125.593,412,map,base_link,2.2722859215926974,21.326082093575792,583.341,-0.0014132546588287588,0.0009883066622175401,-0.6605002464214954,-0.7508238478087619,0.35,2.95,0.14
125.833,413,map,base_link,2.3540884066119645,22.058403307336675,583.344,-0.001390035599839171,0.0009533482597354188,-0.6601682124976777,-0.7511158966070071,0.36,2.96,0.12
126.093,414,map,base_link,2.4449800612367483,22.835107622384726,583.348,-0.0013416110297290494,0.0008836014931655339,-0.6597788980841591,-0.7514580660097401,0.36,2.96,0.14
126.333,415,map,base_link,2.5358717233693824,23.567428868340528,583.351,-0.001309808647956445,0.0008552866308882029,-0.6594275939272889,-0.7517664539292449,0.37,2.96,0.12
126.593,416,map,base_link,2.6358525588303507,24.355228953162623,583.359,-0.0012557175597391924,0.0007963136752036891,-0.6591049444575948,-0.7520495071798745,0.37,2.97,0.11
126.833,417,map,base_link,2.717655101124109,25.08755016227832,583.359,-0.0012240979227186365,0.0007654446751859719,-0.6587729375526957,-0.7523404365225339,0.37,2.98,0.12
127.093,418,map,base_link,2.8176359755655653,25.886446021974848,583.355,-0.0011771682132365013,0.0007055130883911306,-0.6583998715742979,-0.7526670748991402,0.37,2.98,0.13
127.334,419,map,base_link,2.9085276951169874,26.618767224004273,583.353,-0.0011406410947898081,0.0006182105931918488,-0.6581028736845412,-0.7529269050855494,0.37,2.98,0.13
127.593,420,map,base_link,2.9994194517009305,27.41766308145486,583.353,-0.0010758058845623543,0.0005070049689225065,-0.6577272909128433,-0.7532552000325733,0.38,2.97,0.12
127.833,421,map,base_link,3.0903112020112076,28.149984280180774,583.355,-0.0010328726263713357,0.0004483046008129617,-0.6573302037824404,-0.7536018414205593,0.38,2.96,0.12
128.097,422,map,base_link,3.190292136607127,28.937784355636495,583.359,-0.0009944114964064352,0.00038508759730547374,-0.6569522669537449,-0.75393141717112,0.38,2.96,0.11
128.334,423,map,base_link,3.2811839221627395,29.670105597458758,583.36,-0.0009233494930772368,0.0002981164421575051,-0.6565353704748562,-0.7542946147678266,0.39,2.97,0.15
128.594,424,map,base_link,3.381164894171974,30.45790566975313,583.362,-0.0008466627691232538,0.00023114800558815155,-0.6561455622699369,-0.754633838922045,0.38,2.98,0.13
128.834,425,map,base_link,3.4720567056776304,31.19022686223127,583.368,-0.0007925746094169111,0.0001545175534998268,-0.6557736671387113,-0.7549571149656521,0.38,2.97,0.11
129.094,426,map,base_link,3.572037718456926,31.98912275753753,583.377,-0.0007408875160930734,0.00010104084966963907,-0.655317787968683,-0.7553529225787556,0.39,2.98,0.11
129.334,427,map,base_link,3.6720187216006934,32.72144399573796,583.385,-0.0006996723966815334,2.6748468974808568e-05,-0.6549190988137646,-0.7556986725885015,0.39,2.99,0.04
129.594,428,map,base_link,3.7719997720381,33.52033989072001,583.399,-0.0006651970684908782,-4.199092486127479e-05,-0.6544987144273614,-0.756062820513318,0.39,3.0,0.02
129.834,429,map,base_link,3.8628916588855873,34.252661187911,583.416,-0.0006440748560692975,-9.376541371870703e-05,-0.6540936748533924,-0.7564132738737543,0.39,2.99,0.04
130.094,430,map,base_link,3.9719618984982787,35.051557082074225,583.424,-0.0006008728795789196,-0.00014252887343084493,-0.6537110590257555,-0.7567439923413518,0.4,2.99,0.03
130.334,431,map,base_link,4.062853806260648,35.77278255036342,583.435,-0.0005621876221238438,-0.0001942522428480594,-0.653302759410456,-0.7570965267109786,0.41,2.98,0.02
130.594,432,map,base_link,4.171924076235598,36.54948689230457,583.444,-0.0005278458287715791,-0.00023797478269635628,-0.6529333327658381,-0.7574151620545229,0.42,2.96,0.05
130.834,433,map,base_link,4.271905175213277,37.270712358860976,583.451,-0.0005390985190862562,-0.0002586136482420112,-0.652555595930027,-0.7577406130808715,0.42,2.97,0.03
131.094,434,map,base_link,4.38097548106748,38.04741670041824,583.467,-0.0005361515586487738,-0.00028389454823773074,-0.6522762577563204,-0.7579810785981417,0.42,2.97,0.03
131.334,435,map,base_link,4.480956622128616,38.76864222838529,583.483,-0.000516382216101089,-0.00030954052692155865,-0.6518972626494958,-0.7583070594977757,0.42,2.97,0.0
131.594,436,map,base_link,4.590026974738265,39.55644241073409,583.506,-0.0005098734355868276,-0.0003220009060177428,-0.651448511863068,-0.7586926075400303,0.43,2.98,0.01
131.834,437,map,base_link,4.690008146272277,40.26657216751349,583.525,-0.00048517537749779855,-0.00036169868823929306,-0.6509092389902674,-0.7591553176893533,0.43,2.94,-0.03
132.094,438,map,base_link,4.799078519827162,41.021085026803775,583.54,-0.00047323105863282446,-0.0003925769218869297,-0.6486069857414912,-0.7611232488783026,0.43,2.83,0.0
132.334,439,map,base_link,4.908148858186195,41.68683161151915,583.55,-0.0005029051362337131,-0.0003894954196874066,-0.6418613175077126,-0.7668204773393871,0.46,2.73,0.0
132.594,440,map,base_link,5.035397553034215,42.385865450384216,583.558,-0.0005026618446949747,-0.0003900501957328548,-0.6340942894773295,-0.7732554734653714,0.55,2.65,-0.02
132.834,441,map,base_link,5.180824576594802,43.018324752472324,583.577,-0.0005644306095496528,-0.0003540170657084734,-0.6207653311402285,-0.7839961477866884,0.67,2.63,-0.05
133.094,442,map,base_link,5.34442998553601,43.68407144308077,583.606,-0.000597243486546414,-0.00033563087175534327,-0.6075465034997766,-0.7942838137198389,0.73,2.57,-0.06
133.338,443,map,base_link,5.5262137176239605,44.294339242948865,583.633,-0.000638926796910057,-0.00032432356711527657,-0.599625009990816,-0.8002807844627321,0.73,2.55,-0.05
133.594,444,map,base_link,5.6989083008603245,44.90460697974652,583.657,-0.0007003820169162775,-0.00033788568476771384,-0.5926163454488659,-0.8054844892393178,0.6,2.16,-0.09
133.835,445,map,base_link,5.853424485237014,45.37062970470069,583.686,-0.0007343894186490503,-0.00032083339020615317,-0.58972380037923,-0.807604604372954,0.57,1.81,-0.12
134.095,446,map,base_link,5.980673129885361,45.75898201348673,583.714,-0.0008241736579021331,-0.00021969049319713074,-0.5885783205298665,-0.8084397522859145,0.44,1.38,-0.12
134.336,447,map,base_link,6.053386682988759,46.01418504264154,583.74,-0.0010041773899549904,-2.5720806775621052e-05,-0.5824349563351225,-0.812876689667697,0.22,0.95,-0.07
134.595,448,map,base_link,6.098832611094309,46.136238554555575,583.745,-0.0012471935056352246,0.000263215043186972,-0.5759393003426257,-0.817491466345091,0.17,0.45,-0.04
134.835,449,map,base_link,6.098832626036028,46.15843010682647,583.748,-0.001434971991622004,0.0006053648496675107,-0.5726581354706815,-0.8197927995951321,0.02,0.09,-0.03
135.095,450,map,base_link,6.080654260431487,46.102951310436225,583.75,-0.001643412891920369,0.0009400238737395614,-0.5676881630583637,-0.8232414986336657,-0.01,-0.05,-0.04
135.335,451,map,base_link,6.062475873389474,46.04747236625019,583.748,-0.0018436493676324609,0.0012004179840618121,-0.5499860140141006,-0.8351709671334094,0.05,-0.14,0.0
135.595,452,map,base_link,6.0897433206203,45.96980183981046,583.734,-0.0020874211100289906,0.0012089237982837303,-0.4691233986549444,-0.8831293325503311,0.16,-0.24,0.02
135.835,453,map,base_link,6.14427826202504,45.89213122199217,583.717,-0.0023197858802777613,0.001004819659538279,-0.3579336433712448,-0.9337436028556811,0.24,-0.34,0.04
136.095,454,map,base_link,6.2260806946189575,45.79226903259945,583.699,-0.002503046983954685,0.0005853372524122202,-0.20657979572544377,-0.9784263795166864,0.24,-0.39,0.06
136.335,455,map,base_link,6.2624373300187415,45.74788582941562,583.681,-0.0025468812638426573,0.0003323597864835316,-0.17133253925957087,-0.9852099085594237,-0.02,-0.22,0.06
136.595,456,map,base_link,6.23516978019282,45.71459837599724,583.666,-0.002414347851071732,0.0002240750208295325,-0.16887740283736957,-0.9856340819623395,-0.22,-0.28,0.04
136.835,457,map,base_link,6.171545567017546,45.68131101792534,583.654,-0.0021857374104989487,0.00013094682342836456,-0.16179322920487788,-0.9868222516686376,-0.16,-0.24,0.03
137.095,458,map,base_link,6.153367196349336,45.64802362967714,583.641,-0.0019211123707206653,-1.5411988981678146e-05,-0.10955955117165173,-0.9939783769462975,-0.02,-0.31,0.06
137.335,459,map,base_link,6.153367146550266,45.603640379603604,583.627,-0.0016438718805080704,-0.00023900002467343263,-0.026497875022703232,-0.9996474894599144,0.0,-0.29,0.06
137.595,460,map,base_link,6.126099632770803,45.603640326715094,583.615,-0.0014649731228499553,-0.00044677682898975257,-0.003110743092211654,-0.9999939887427468,-0.19,-0.14,0.07
137.835,461,map,base_link,6.089742965322927,45.614736127607785,583.611,-0.0012445397776392926,-0.0006225042768714638,-0.0007326386431485421,-0.9999987634241283,-0.24,-0.13,0.05
138.095,462,map,base_link,6.026118789167413,45.63692765257633,583.606,-0.0009812420912483025,-0.0007234915985629529,0.0021590136244414304,-0.9999969261872932,-0.24,-0.1,0.04
138.335,463,map,base_link,5.980672953254015,45.648023458563415,583.6,-0.0007644241997297012,-0.0008664646819027609,0.004718847196484299,-0.9999881986182306,-0.19,-0.09,0.05
138.595,464,map,base_link,5.980672958548013,45.67021493895342,583.595,-0.0005983229212493954,-0.001005529522982431,0.004828216841572586,-0.9999876595449522,0.12,-0.07,0.05
138.835,465,map,base_link,6.017029648318726,45.69240646824957,583.591,-0.0005148405841641314,-0.0011906065699628966,0.008711547196230407,-0.9999612124180699,0.03,-0.03,0.02
139.095,466,map,base_link,6.0533863389666465,45.71459799673124,583.598,-0.0005233577221884796,-0.0014143174347167882,0.012041289856536852,-0.9999263638595991,0.12,0.0,-0.01
139.338,467,map,base_link,6.062475523995857,45.72569383783002,583.604,-0.00048327975085286906,-0.0015781077963630268,0.019139074337689688,-0.9998154688991173,0.03,-0.01,0.0
139.595,468,map,base_link,6.0897430559035115,45.74788544426772,583.615,-0.000454487891232424,-0.0016674981186733634,0.03873013511838108,-0.9992482121697754,0.09,0.01,-0.02
139.836,469,map,base_link,6.107921408521037,45.75898127956762,583.62,-0.00038239439655784487,-0.001723318647821511,0.0425275571329895,-0.9990937347574871,0.08,0.05,0.0
140.096,470,map,base_link,6.135188940428691,45.78117288638515,583.631,-0.0004649087694993801,-0.001673869978374725,0.046176887041106174,-0.9989317680013607,0.12,0.07,0.01
140.336,471,map,base_link,6.1624564559399175,45.792268644688704,583.638,-0.0005037542828728418,-0.0016138866602414311,0.05006905745275281,-0.9987443271865242,0.1,0.02,0.03
140.596,472,map,base_link,6.180634784535101,45.78117285527651,583.633,-0.0005376466704746914,-0.0015485727945784076,0.05339669635253774,-0.9985720332940398,0.09,0.02,0.03
140.836,473,map,base_link,6.198813111108478,45.78117277132074,583.628,-0.000583692573189564,-0.0014961483621168763,0.055994827568608574,-0.9984297672488638,0.11,0.03,0.0
141.096,474,map,base_link,6.216991451005612,45.781172758603645,583.628,-0.0005578218151261519,-0.0014897482062049487,0.05864960588482554,-0.9982773628679853,0.1,0.02,0.02
141.336,475,map,base_link,6.235169787149204,45.781172745168334,583.629,-0.0005918407102219261,-0.0014521792619662155,0.0611970230376257,-0.9981244738364535,0.11,0.02,0.01
141.596,476,map,base_link,6.253348118930859,45.770076957794004,583.621,-0.0006329510407963839,-0.0013998482648634987,0.06307359467051638,-0.9980076960891409,0.1,0.02,0.02
141.836,477,map,base_link,6.2715264454267015,45.77007687323729,583.619,-0.0006804130946526353,-0.0012991341542050057,0.06456670248830249,-0.997912315896671,0.15,0.02,0.02
142.096,478,map,base_link,6.298793961760225,45.7700769264988,583.621,-0.000737534868986212,-0.0011776688573402379,0.06637813906151685,-0.9977935717337075,0.25,0.0,0.02
142.336,479,map,base_link,6.371507302939591,45.7589810973609,583.623,-0.000795699441241669,-0.0010614409405292952,0.06639253659256494,-0.9977926995575452,0.48,-0.02,0.02
142.596,480,map,base_link,6.516933996432954,45.747885217341405,583.626,-0.0008562293994885057,-0.0009859298525540599,0.07147929206052434,-0.9974412291559176,0.53,-0.08,0.05
142.836,481,map,base_link,6.626004004195181,45.725693584602595,583.62,-0.0008973690433406623,-0.0009525992605576468,0.0808320086392873,-0.9967268801746982,0.35,-0.02,0.04
143.096,482,map,base_link,6.689628157613527,45.71459761793636,583.607,-0.000966508016451228,-0.0008335315960982669,0.09452625915352764,-0.9955215504537169,0.2,-0.01,0.1
143.336,483,map,base_link,6.707806456578226,45.69240590812825,583.582,-0.0010332938176316417,-0.0007395126080537032,0.10917994700788497,-0.9940211892089345,0.08,-0.02,0.14
143.596,484,map,base_link,6.698717223545515,45.64802259366493,583.559,-0.0010047929195778989,-0.0006274548167546238,0.18028653107719783,-0.9836134217281667,0.04,-0.25,0.18
143.836,485,map,base_link,6.689627985063737,45.58144779912868,583.532,-0.000981866362326887,-0.0005366710588319319,0.27125737520422233,-0.9625061996267541,0.04,-0.23,0.18
144.096,486,map,base_link,6.680538734057848,45.51487293497621,583.507,-0.0010121316504226312,-0.0003886931988664017,0.3432555610959634,-0.9392414195955238,0.0,-0.2,0.17
144.336,487,map,base_link,6.653271151884155,45.43720237865779,583.48,-0.0010467991407126034,-0.0003276364659317666,0.4272311101621822,-0.9041417894199419,-0.05,-0.31,0.19
144.596,488,map,base_link,6.635092715538946,45.35953167290148,583.449,-0.0010851747287304566,-0.0002928479328534972,0.5036195863640227,-0.8639247935245445,-0.11,-0.32,0.22
144.836,489,map,base_link,6.598735957083932,45.281861054464514,583.415,-0.0011507743067412722,-0.00024379715883970148,0.5758622805160075,-0.8175458703707965,-0.05,-0.42,0.2
145.096,490,map,base_link,6.589646701595967,45.19309470992056,583.393,-0.0011816151572756177,-0.00020498775099846858,0.6156951479213605,-0.7879835319292756,0.03,-0.25,0.19
145.336,491,map,base_link,6.598735826533726,45.15980723320118,583.377,-0.0011550559622465523,-0.00010105151195165059,0.6184445178562502,-0.7858276108459579,0.02,-0.16,0.15
145.596,492,map,base_link,6.598735826533726,45.15980723320118,583.371,-0.0010756231883861744,7.446541268062643e-06,0.6213438102258376,-0.7835373076461285,-0.03,0.0,0.16
145.837,493,map,base_link,6.589646680945918,45.19309456802932,583.37,-0.0009448234183025672,0.0001584644073610289,0.6242901861851674,-0.7811919390461148,-0.04,0.08,0.15
146.097,494,map,base_link,6.580557543916143,45.24857338360775,583.367,-0.0007898364878689574,0.0003259255150055937,0.6275435750381044,-0.7785809728983082,-0.05,0.16,0.12
146.337,495,map,base_link,6.571468426581674,45.30405234091123,583.373,-0.0006593205535748569,0.0004619604319848923,0.6306226704398374,-0.7760891697584081,-0.06,0.18,0.08
146.597,496,map,base_link,6.553290148407569,45.3706270806465,583.381,-0.0005518957701254304,0.0006256421920738741,0.6341430371570241,-0.7732153079241071,-0.02,0.14,0.04
146.837,497,map,base_link,6.553290172407259,45.40391440860532,583.385,-0.0005341043921910203,0.0006991801395459388,0.638018537540109,-0.7700205007886551,-0.04,0.14,0.09
147.097,498,map,base_link,6.544201037721621,45.44829751988695,583.381,-0.0005923354697000337,0.0007412799257845917,0.6476517367125626,-0.7619359077875019,-0.1,0.11,0.11
147.337,499,map,base_link,6.535111885784943,45.47048907794397,583.385,-0.0006317823975655899,0.0008486932737059875,0.6536855478238022,-0.756765541721493,0.0,0.14,0.11
147.597,500,map,base_link,6.5169335765401115,45.4926807145861,583.393,-0.0006995232012666409,0.0009643175711685619,0.6818750925634955,-0.7314676608712357,-0.1,0.06,0.1
147.837,501,map,base_link,6.507844414656063,45.50377649749498,583.398,-0.0007786847048197586,0.0011192692238772245,0.7012753180077405,-0.7128892405133335,0.02,0.01,0.11
148.097,502,map,base_link,6.516933560566173,45.4704891623075,583.397,-0.0008374255545167699,0.0012545980475587677,0.7027989309105557,-0.7113869463331186,0.0,-0.28,0.11
148.337,503,map,base_link,6.507844360562956,45.4150103618434,583.403,0.0009031926820993283,-0.0013136921752308225,-0.7113305939415446,0.702855777936425,0.0,-0.16,0.09
148.597,504,map,base_link,6.507844338340277,45.37062732824924,583.414,0.0009784334468652108,-0.0014231290625585859,-0.7133862302830298,0.7007689375352116,-0.01,-0.1,0.08
148.837,505,map,base_link,6.498755155332901,45.34843578283332,583.419,0.0009611694658820691,-0.001522068870454332,-0.7149613391383839,0.6991616715732207,-0.01,-0.07,0.07
149.097,506,map,base_link,6.489665996247709,45.35953156515501,583.415,0.0009355999722192061,-0.0016413039919916251,-0.7234347374947618,0.6903901877632551,-0.04,0.05,0.1
149.337,507,map,base_link,6.462398490516648,45.35953158432034,583.413,0.0009441878622691993,-0.0017249212224481362,-0.7443612197554074,0.6677742939648839,-0.06,0.0,0.08
149.597,508,map,base_link,6.43513098026861,45.348435828724405,583.417,0.0009219478044760536,-0.0018340775419918842,-0.7568678966762198,0.653564666389433,-0.26,-0.28,0.08
149.837,509,map,base_link,6.362417540972558,45.215286568158405,583.419,0.001065567204266258,-0.0018580716003451536,-0.804067417797123,0.5945342713196001,-0.42,-0.83,0.09
150.097,510,map,base_link,6.235168992025962,44.915700774582916,583.424,0.0011800489952811784,-0.0018810886143582608,-0.8207863443831064,0.5712309916874352,-0.48,-1.14,0.07
150.337,511,map,base_link,6.089742086185254,44.58282759285183,583.423,0.0013887353584385311,-0.0017793025304423534,-0.8387533690500932,0.5445068332020525,-0.8,-1.41,0.08
150.597,512,map,base_link,5.82615592528532,44.105709396843565,583.42,0.0016488687209271378,-0.0016355333204480758,-0.8667460402040099,0.4987443313496079,-1.29,-1.9,0.07
150.837,513,map,base_link,5.462588915007558,43.55092082152942,583.427,0.001888655343304438,-0.0015388278921606114,-0.8822051550805665,0.4708589272159825,-1.69,-2.34,0.08
151.097,514,map,base_link,4.96268437452207,42.829695666502744,583.427,0.0021337412851968394,-0.0014615788050963037,-0.886655896987181,0.46242256786772634,-1.94,-2.72,0.09
151.337,515,map,base_link,4.4264232493790985,42.097374724542135,583.426,0.0023935208484560217,-0.001384764402715692,-0.8927240600013155,0.45059527980246805,-2.31,-3.04,0.1
151.597,516,map,base_link,3.7720030180966546,41.22080871107269,583.422,0.0026079542240582065,-0.0013209178497834231,-0.8973619866590377,0.44128552961789314,-2.64,-3.37,0.09
151.838,517,map,base_link,3.0903154236829096,40.34424265779114,583.426,0.002744490216902697,-0.0012903085962221168,-0.8989328717874889,0.4380759008403379,-2.86,-3.61,0.06
152.098,518,map,base_link,2.3359146410977303,39.367814586210244,583.424,0.0028622435440254,-0.0012883007180125151,-0.8993016271868165,0.4373176547800224,-2.85,-3.6,0.06
152.338,519,map,base_link,1.6905839790717323,38.52453574399925,583.421,0.002870368308373498,-0.0012768151069470343,-0.8994736980436051,0.43696361090681046,-2.57,-3.25,0.06
152.598,520,map,base_link,1.0997884077073934,37.75892728060106,583.425,0.0027083136907106327,-0.0013241123366462208,-0.8994567653129111,0.4369993582332906,-2.16,-2.75,0.04
152.838,521,map,base_link,0.6725978259257204,37.181946961699964,583.429,0.0023676695688507627,-0.0014389422672766614,-0.8992944548608082,0.43733489117902025,-1.85,-2.39,0.06
153.1,522,map,base_link,0.2908530981037245,36.649349783029265,583.437,0.001755460390562404,-0.001604966688150779,-0.8987641763497466,0.43842593188714196,-1.66,-2.16,0.04
153.338,523,map,base_link,-0.027267476865915796,36.216614571878324,583.449,0.0011691170090407364,-0.0017722781339711555,-0.8982323756512534,0.43951574662068793,-1.54,-2.02,0.05
153.598,524,map,base_link,-0.3544771787460377,35.7616879091359,583.471,0.0005887805953697908,-0.0019472503623711502,-0.896913402999029,0.44220154802322664,-1.46,-1.95,0.0
153.838,525,map,base_link,-0.64533022284445,35.35114428153864,583.492,0.00012049264272475148,-0.0020807460442118647,-0.893060058892469,0.4499326473911427,-1.41,-1.94,0.0
154.099,526,map,base_link,-0.9543615512190797,34.89621753383901,583.519,-0.0002459287644479773,-0.00220703192165723,-0.890337842311227,0.45529506375286827,-1.3,-1.93,-0.04
154.338,527,map,base_link,-1.227036226311867,34.46348238567157,583.543,-0.0005504249546026651,-0.00227598729601472,-0.8813312534705232,0.4724931095479314,-1.21,-1.95,-0.06
154.598,528,map,base_link,-1.508800021872247,33.97526823417695,583.558,-0.000734024796687224,-0.0023414818229379095,-0.8771964984325118,0.48012527720191,-1.14,-1.9,-0.04
154.838,529,map,base_link,-1.7360288545928029,33.49814990898946,583.574,-0.0009751935454710288,-0.0023270485967965306,-0.8593459062365072,0.5113885482457866,-1.04,-2.01,-0.06
155.098,530,map,base_link,-1.9723468090320182,32.97664846952753,583.59,-0.001078885855499618,-0.002302032489677013,-0.8500277573124997,0.5267317613833532,-0.95,-1.99,-0.05
155.338,531,map,base_link,-2.1632189692645056,32.48843430926351,583.608,-0.0011481423298566281,-0.002274896847506956,-0.839027025183756,0.5440837781305561,-0.82,-2.0,-0.02
155.598,532,map,base_link,-2.354091100560396,31.96693286253563,583.624,-0.0012533759553022016,-0.0022854412906026457,-0.8302180043038898,0.55743275032643,-0.67,-2.08,-0.04
155.838,533,map,base_link,-2.5086065984451125,31.467622922840974,583.632,-0.0013367216400977805,-0.0023404962043371133,-0.8222175264027547,0.5691670005621456,-0.65,-2.06,0.0
156.098,534,map,base_link,-2.654032907195244,30.923929826198446,583.63,-0.0014143789976197414,-0.0023331821203409365,-0.8086777222514765,0.5882456096966714,-0.5,-1.98,0.0
156.338,535,map,base_link,-2.754013443525025,30.43571557577539,583.624,-0.0014952562934535112,-0.0023760308474026605,-0.7989378085069679,0.6014070974174752,-0.42,-1.99,0.01
156.598,536,map,base_link,-2.863083114327111,29.914213992697228,583.613,-0.0015020097821042784,-0.002459139782828737,-0.793213308473805,0.6089370606706273,-0.34,-2.01,0.02
156.838,537,map,base_link,-2.953974480089869,29.437095521517335,583.601,-0.0014820682055608216,-0.0025248588222177935,-0.7912743980992124,0.6114542137188121,-0.34,-1.96,0.03
157.098,538,map,base_link,-3.063044125502188,28.915593938781,583.591,-0.0014665647570953075,-0.0026570259840893802,-0.7879437790575728,0.6157397099791468,-0.34,-1.92,0.02
157.338,539,map,base_link,-3.1630246213010764,28.438475464618705,583.585,-0.001433848636656955,-0.002762097153185642,-0.7850043616539556,0.6194824187026371,-0.35,-1.94,0.02
157.598,540,map,base_link,-3.2720942494603094,27.928069701402308,583.583,-0.0013129461124106222,-0.0028599877377892156,-0.7775780646693923,0.62877853810992,-0.3,-1.91,0.01
157.839,541,map,base_link,-3.3448072825446786,27.462047058429846,583.584,-0.0011951955543181444,-0.002967100283964301,-0.7667488323372855,0.6419392462943055,-0.18,-1.89,0.0
158.1,542,map,base_link,-3.3993419901237303,26.95164131406517,583.588,-0.0010971938427630377,-0.0030240615091147584,-0.7547594369460985,0.6559937831705944,-0.09,-1.88,0.0
158.342,543,map,base_link,-3.4356984171205056,26.485618723071923,583.591,-0.0009748097206947345,-0.003064609764530252,-0.7493053411523972,0.6622168554435088,-0.08,-1.83,0.0
158.599,544,map,base_link,-3.4811439697140827,25.986308755637992,583.598,-0.0007888334624127463,-0.003124159346121925,-0.747001597170158,0.6648144336545211,-0.08,-1.78,0.01
158.839,545,map,base_link,-3.5265895351089966,25.53138189529477,583.59,-0.00065590116907942,-0.0031175826395599465,-0.7418607788033041,0.6705463707645407,-0.05,-1.84,0.06
159.099,546,map,base_link,-3.562945921206733,25.02097611444225,583.58,-0.000386664280388571,-0.003084338341095853,-0.7395832940497176,0.6730578641619908,-0.07,-1.87,0.04
159.339,547,map,base_link,-3.608391462729031,24.54385766215222,583.574,-0.00016579348618104336,-0.0030578977274867683,-0.7367129513244913,0.6761986757786249,-0.07,-1.9,0.05
159.599,548,map,base_link,-3.6447478350001745,24.022356107059352,583.566,3.916536201673164e-05,-0.003015560685232178,-0.7345275689769819,0.6785721444861946,-0.09,-1.94,0.09
159.839,549,map,base_link,-3.6811042173436306,23.5341418821489,583.552,0.00024732005601551605,-0.0029451081185809616,-0.7321761745041091,0.681108886052361,-0.07,-1.8,0.1
160.099,550,map,base_link,-3.70837143824005,23.023736111410813,583.542,0.0003948630244306472,-0.002904247802931526,-0.7287746518843164,0.6847473374893724,-0.07,-1.84,0.03
160.339,551,map,base_link,-3.7356386729846918,22.53552192752852,583.547,0.0005109465609584476,-0.0028478071838455763,-0.7264504220457315,0.6872127859967637,-0.09,-1.96,0.0
160.599,552,map,base_link,-3.7719950342215327,21.980733150027163,583.561,0.0006656538220153304,-0.0027829377674820476,-0.723461307969148,0.6903589993865085,-0.06,-2.03,-0.01
160.839,553,map,base_link,-3.7901731174918893,21.48142322638097,583.575,0.0007979138249750928,-0.002732717535880566,-0.721805337073224,0.6920902765976463,-0.06,-1.92,-0.03
161.1,554,map,base_link,-3.808351194314639,20.948826003580677,583.596,0.0008943188580887224,-0.002685343160443209,-0.7202891041533586,0.6936682172075085,-0.06,-1.93,-0.04
161.339,555,map,base_link,-3.8174401325611598,20.438420333215618,583.612,0.0009654065804448101,-0.0026040866322238217,-0.7188247363781751,0.6951857917807249,-0.07,-1.95,-0.04
161.599,556,map,base_link,-3.8356182078128427,19.916918879048808,583.635,0.0010427762652981567,-0.0025279723796589634,-0.7171464862344832,0.6969170964001689,-0.07,-1.94,-0.07
161.839,557,map,base_link,-3.8447071527742764,19.428704755556396,583.654,0.0010939513101738167,-0.0024389817977454892,-0.7153014250283054,0.6988109372289449,-0.06,-1.94,-0.07
162.099,558,map,base_link,-3.8447069467131882,18.918299078933615,583.678,0.0011278123965656876,-0.002363792129487404,-0.7142005818069594,0.6999361895719974,-0.07,-1.92,-0.12
162.339,559,map,base_link,-3.8537959090724883,18.452276532487303,583.708,0.00119877749923296,-0.0023108815226649546,-0.7115881600050352,0.7025919963248541,-0.04,-1.9,-0.12
162.599,560,map,base_link,-3.844706570446988,17.952966656553997,583.739,-0.0012859881544160583,0.002241060406215643,0.7064541519557369,-0.7077540922292311,0.01,-1.84,-0.15
162.839,561,map,base_link,-3.8265281059726988,17.464752584351004,583.77,-0.0012941561357417953,0.0021470727143167367,0.7016050521499577,-0.7125616226238337,0.02,-1.95,-0.18
163.099,562,map,base_link,-3.8174387682657596,16.95434692215963,583.804,-0.0013112002630508368,0.0020513129071772856,0.6948144200436926,-0.7191849515726634,0.12,-1.87,-0.16
163.339,563,map,base_link,-3.77199287588752,16.466132796755005,583.824,-0.0013384437674446663,0.0019741772442475754,0.6868620960149322,-0.7267838552489068,0.11,-2.09,-0.14
163.6,564,map,base_link,-3.6992795320275604,15.90024821414346,583.839,-0.001287939707751506,0.0019040060359543233,0.6671849755580235,-0.7448885315011661,0.33,-2.11,-0.12
163.84,565,map,base_link,-3.5992988029314006,15.36765099511473,583.851,-0.0012632651414320004,0.001817883933811343,0.6481540648273602,-0.7615060129158244,0.41,-2.14,-0.13
164.1,566,map,base_link,-3.4811397843897396,14.8017663998599,583.856,-0.001203680697680031,0.0017114254087382895,0.6394640408572037,-0.7688181596622344,0.5,-2.07,-0.12
164.34,567,map,base_link,-3.3448025331195197,14.2913607187391,583.862,-0.0011394997210881746,0.0016833731619963356,0.6198781778341698,-0.7846954265447025,0.48,-2.02,-0.11
164.6,568,map,base_link,-3.172108735890646,13.758763469298458,583.867,-0.0010196231427645206,0.0016149136775145767,0.6084233546759128,-0.7936103413561153,0.5,-1.99,-0.11
164.84,569,map,base_link,-2.999414982757685,13.281645124112117,583.877,-0.0008599964194605545,0.001644943010826671,0.5777723025459957,-0.8161958839514865,0.69,-2.02,-0.1
165.1,570,map,base_link,-2.781275554575018,12.76014367855413,583.889,-0.0007431651760319035,0.001670075657773069,0.563712921607998,-0.825968764884601,0.81,-2.01,-0.1
165.34,571,map,base_link,-2.5631361645324375,12.271929576759703,583.904,-0.0006003243192288666,0.0016422961245535401,0.5563173548455453,-0.8309680759041269,0.81,-2.06,-0.12
165.6,572,map,base_link,-2.299551112693621,11.76152390494633,583.911,-0.00044417913865958913,0.001601229902974816,0.5474954404720382,-0.8368070156434034,0.84,-1.97,-0.1
165.84,573,map,base_link,-2.0450552262620363,11.273309758426251,583.911,-0.0002335532242046454,0.0015418530105203304,0.5329573627734219,-0.8461406606515164,0.97,-2.08,-0.09
166.104,574,map,base_link,-1.7542028227770743,10.740712502154224,583.913,-7.166526214877152e-05,0.00148630985304283,0.5219337482271793,-0.8529847291766942,1.1,-2.22,-0.1
166.34,575,map,base_link,-1.436083055283973,10.208115240069162,583.91,8.132876957736237e-05,0.001422392946061331,0.5108525035638172,-0.8596671971097409,1.27,-2.36,-0.08
166.6,576,map,base_link,-1.0543393821579912,9.597847500402338,583.899,0.00021665916628464378,0.0013417665595580298,0.49893102190666533,-0.8666406337695436,1.42,-2.45,-0.06
166.84,577,map,base_link,-0.6453283723814423,8.998675543254706,583.885,0.00034259849138101753,0.0012105388047244689,0.4872204081690825,-0.8732781292839232,1.64,-2.61,-0.05
167.1,578,map,base_link,-0.14542609916591687,8.28854579528155,583.878,0.0005046888504642207,0.0010485168006844387,0.4734065818466239,-0.8808432631098331,1.97,-2.86,-0.05
167.34,579,map,base_link,0.39083261393966495,7.578416020074087,583.864,0.0006195280102111901,0.000864963302063299,0.4648170219232915,-0.8854061238515877,2.16,-3.05,-0.05
167.603,580,map,base_link,1.0361607828943136,6.746232639021855,583.849,0.0007215694227777128,0.0006450432187150579,0.45573220579184004,-0.8901164080393744,2.49,-3.3,-0.02
167.841,581,map,base_link,1.6814888361513738,5.936240781511117,583.833,0.0008113538917297871,0.00046511540970707344,0.4544287759926607,-0.8907825845414415,2.56,-3.35,-0.02
168.1,582,map,base_link,2.354084147196545,5.104057316619219,583.823,0.0008466933627947415,0.0002958010645771669,0.45376976269949376,-0.8911185095551122,2.33,-3.01,0.0
168.34,583,map,base_link,2.890342475847973,4.427214730999026,583.813,0.000866903153950868,0.000242357629309164,0.45355240378037376,-0.8912291550250956,2.05,-2.6,0.02
168.604,584,map,base_link,3.372065987337834,3.8169468010644323,583.801,0.0009004747256824257,0.0004047818103138127,0.4537943290383129,-0.8911059040482349,1.82,-2.3,0.02
168.84,585,map,base_link,3.771987351903988,3.3287324312368014,583.792,0.0009115512570720971,0.0007021083603048993,0.4545514182390504,-0.8907197563179028,1.69,-2.12,0.02
169.1,586,map,base_link,4.171908652443108,2.8183264861283988,583.778,0.000946689060870103,0.0011100561707837993,0.4555529571159814,-0.8902074897561829,1.62,-2.03,0.0
169.34,587,map,base_link,4.517295182307834,2.3633994409569823,583.754,0.0009497989492954541,0.0014551051693949793,0.45713361757482573,-0.8893963324827997,1.59,-2.0,0.03
169.601,588,map,base_link,4.8899490298262265,1.8751850367758038,583.733,0.0008708043425501523,0.001781135598452955,0.463865934842353,-0.8859031909574584,1.48,-1.95,0.04
169.841,589,map,base_link,5.21715724421901,1.4202579818641539,583.721,0.0007351061804112684,0.002000926797550543,0.473248333949308,-0.8809264840638285,1.44,-1.93,0.03
170.101,590,map,base_link,5.553454503184923,0.9209477982623753,583.699,0.0006177284496208361,0.0021518073517174073,0.4798444916413015,-0.8773507006768642,1.35,-1.92,0.05
170.341,591,map,base_link,5.844306150689107,0.46602074612968636,583.68,0.00048219137562049654,0.0022658286819950365,0.48886981120132667,-0.8723536789673327,1.29,-1.93,0.04
170.601,592,map,base_link,6.144246848086652,-0.05548098402704227,583.673,0.000304509765460553,0.002357738827041917,0.50092330635109,-0.865488410954022,1.2,-2.02,0.03
170.841,593,map,base_link,6.398741898817235,-0.5769826901099577,583.664,7.072724642988042e-05,0.002432852755015061,0.5272442003030883,-0.8497103209164203,1.02,-2.11,0.05
171.101,594,map,base_link,6.625969521265262,-1.1428674911088592,583.654,-0.00015565752061275074,0.002470527728354439,0.5461332226372924,-0.8376946791016912,0.88,-2.12,0.04
171.342,595,map,base_link,6.825929798000317,-1.6643691700129466,583.651,-0.0003721220088858646,0.0024927057732198905,0.5539375146254316,-0.8325544293520624,0.86,-2.16,0.04
171.601,596,map,base_link,7.0258899866220474,-2.252445511756207,583.645,-0.0005636016180164893,0.002501652170347334,0.5701884550284733,-0.8215099207203025,0.77,-2.11,0.03
171.841,597,map,base_link,7.198582825925627,-2.796138727641562,583.636,-0.0007039174046715268,0.0023822868042826543,0.5792309914778994,-0.8151596700778314,0.71,-2.18,0.06
172.101,598,map,base_link,7.371275607339982,-3.3842150554750674,583.627,-0.0008460857210072807,0.0022580467290021083,0.5966339463617846,-0.8025098874236289,0.57,-2.17,0.05
172.341,599,map,base_link,7.516701075873641,-3.9390040478148762,583.641,-0.0009855585189840024,0.0022746319157440943,0.6134094711295612,-0.7897611508884226,0.5,-2.29,-0.05
172.601,600,map,base_link,7.625769994549643,-4.560367678383841,583.664,-0.0010879255113618693,0.0022270964908057073,0.6407512736252989,-0.767744528998325,0.42,-2.34,-0.07
172.841,601,map,base_link,7.734838949238252,-5.126252429546923,583.687,-0.001131255876427712,0.0022759748143664385,0.6439717034091491,-0.7650450871727139,0.39,-2.36,-0.07
173.101,602,map,base_link,7.81664050848687,-5.7143287080884875,583.692,-0.0011998208763711624,0.002314014019518255,0.6559272522160977,-0.7548196112775699,0.25,-2.34,-0.02
173.341,603,map,base_link,7.8439073608501815,-6.269117589915368,583.682,-0.0012629872796091049,0.0023721798814611405,0.6833497798146125,-0.7300861976870003,0.07,-2.29,0.01
173.601,604,map,base_link,7.862085059233863,-6.868289571988782,583.673,-0.001302215592918486,0.0024440733581886074,0.6880041804693457,-0.7257014388828736,0.03,-2.28,0.02
173.841,605,map,base_link,7.862084593929069,-7.400886884320187,583.67,-0.0013403905892806825,0.002432201964628381,0.6995153092074263,-0.7146122164720601,-0.05,-2.21,0.01
174.101,606,map,base_link,7.852994985846806,-7.977867311260582,583.68,-0.0013619539097206577,0.0025180943323353092,0.7025402383125277,-0.711638263329241,-0.05,-2.21,-0.01
174.341,607,map,base_link,7.862083659206007,-8.499368869013892,583.691,-0.001340493395856352,0.0025161283615780855,0.7050854307589776,-0.7091166388591871,-0.08,-2.26,-0.02
174.601,608,map,base_link,7.852994041865486,-9.087445078408905,583.702,0.0012766057436519786,-0.0024675712523245137,-0.7092221174726491,0.7049796234342536,-0.1,-2.23,-0.04
174.841,609,map,base_link,7.843904466722421,-9.63113817874256,583.713,0.0012337726304747667,-0.0024029981850362016,-0.7116649055590492,0.7025138899697633,-0.12,-2.18,-0.05
175.101,610,map,base_link,7.83481487438101,-10.197022838705607,583.723,0.0011978855274307524,-0.002283240329884469,-0.7133022009753616,0.7008518545081864,-0.13,-2.1,-0.04
175.341,611,map,base_link,7.825725318543476,-10.70742859417635,583.723,0.0011578941957898375,-0.0022153855618820017,-0.715682423344443,0.6984213772957332,-0.12,-2.13,-0.03
175.602,612,map,base_link,7.82572481144058,-11.262217433143974,583.708,0.0010768868242780024,-0.00210348835281814,-0.7176359492491479,0.6964144312094573,-0.13,-2.2,0.0
175.842,613,map,base_link,7.816635216402176,-11.805910503109146,583.698,0.0010350196395163438,-0.0019783181458796783,-0.717643197386015,0.6964073924343688,-0.13,-2.21,-0.01
176.102,614,map,base_link,7.816634709870357,-12.360699337988649,583.677,0.0009948703837626648,-0.0018316850329990109,-0.7175672070847002,0.6964861509603204,-0.1,-1.95,0.06
176.342,615,map,base_link,7.816634309530599,-12.793434616243928,583.657,0.0009415542507805657,-0.0017307401672836044,-0.7177507591382657,0.6962973256953594,-0.09,-1.62,0.05
176.602,616,map,base_link,7.825723075472666,-13.159595237822202,583.639,0.0008431111574464232,-0.0016514690639932992,-0.717600274030384,0.6964527324413513,-0.08,-1.24,0.06
176.842,617,map,base_link,7.834811969054442,-13.392606549354753,583.627,0.0006879190359469179,-0.0016135323398838095,-0.7174533070324403,0.6966043895275159,-0.07,-0.9,0.09
177.102,618,map,base_link,7.843900907170195,-13.559043175306385,583.609,0.00047022429575942123,-0.0016496384688734398,-0.7175589235893227,0.6964956918455175,-0.05,-0.54,0.12
177.342,619,map,base_link,7.852989935958618,-13.636713602855991,583.591,0.00024329914707508864,-0.0017748146704043742,-0.718294265117396,0.6957371195630363,-0.03,-0.25,0.11
177.602,620,map,base_link,7.862079010050252,-13.636713547100669,583.569,3.432352599980011e-05,-0.0018208119888995851,-0.7185345360690518,0.6954888956278374,-0.02,0.04,0.1
177.842,621,map,base_link,7.871168163869328,-13.570138870185133,583.555,-0.00014512833369972582,-0.0018910823916232149,-0.7185931235342279,0.6954281598802834,0.0,0.31,0.09
178.102,622,map,base_link,7.889346474956994,-13.448085314311129,583.541,-0.0002659834898376961,-0.0019639720306430367,-0.7187919355532995,0.695222428759449,0.01,0.46,0.15
178.342,623,map,base_link,7.898435653465981,-13.326031710253915,583.512,-0.00035532761236458423,-0.0020013094943263747,-0.7189187812309331,0.6950911123701882,0.0,0.48,0.17
178.602,624,map,base_link,7.907524846620561,-13.203978127940957,583.49,-0.00037591744032223286,-0.002012733816242683,-0.7187171989161845,0.6952995006259796,0.0,0.42,0.17
178.842,625,map,base_link,7.916613999156539,-13.126307653801518,583.472,-0.00039472427093107277,-0.001977203141739556,-0.718556811886826,0.695465342739325,-0.01,0.34,0.15
179.102,626,map,base_link,7.916614023291544,-13.070828727723551,583.456,-0.0002768161916736809,-0.001908926037366057,-0.7184287385063385,0.6955978917897689,-0.02,0.26,0.15
179.342,627,map,base_link,7.9075249310151605,-13.037541369177745,583.449,-0.00011726020377747144,-0.0018232815006143186,-0.7184616425974039,0.6955641810867308,-0.02,0.21,0.14
179.602,628,map,base_link,7.9075249310151605,-13.037541369177745,583.44,2.6780293260454026e-06,-0.0016875657385871854,-0.7185301393813097,0.6954937748933355,-0.03,0.14,0.13
179.842,629,map,base_link,7.907524918613518,-13.037541348324964,583.439,0.00013182919013061048,-0.0015675682796394209,-0.7185723706786081,0.6954504104881083,-0.04,0.11,0.11
180.102,630,map,base_link,7.907524908939308,-13.048637124931759,583.438,0.00032468285566905896,-0.0014350786890195068,-0.7186303555964213,0.6953907154582671,-0.03,0.1,0.11
180.342,631,map,base_link,7.898435798120147,-13.048637116906548,583.438,0.00039019011432737293,-0.0013144289454113062,-0.7186521434945946,0.695368403566661,-0.03,0.08,0.11
180.602,632,map,base_link,7.898435790850982,-13.070828691372924,583.445,0.0004127356626580749,-0.0011773609745079296,-0.7186472445995545,0.6953736990279948,-0.05,0.05,0.09
180.842,633,map,base_link,7.889346684758465,-13.081924481118222,583.451,0.00047711272375007373,-0.0010719991239299237,-0.7186273511111375,0.6953943869606061,-0.05,0.04,0.09
181.102,634,map,base_link,7.8893466751617325,-13.09302025864298,583.458,0.000513348825953742,-0.0009778103226499384,-0.7185831352840911,0.6954401901279803,-0.04,0.03,0.09
181.342,635,map,base_link,7.889346677566834,-13.104116056122848,583.464,0.0005180832916811927,-0.0008991784026025818,-0.7185189858275873,0.6955065708339488,-0.04,0.02,0.08
181.603,636,map,base_link,7.889346677566834,-13.104116056122848,583.466,0.0004949488871043337,-0.0008122362983172971,-0.7184331886426839,0.6955953196755285,-0.05,0.01,0.08
181.843,637,map,base_link,7.880257569224227,-13.10411604832558,583.462,0.0004909806773454147,-0.0007550933353409833,-0.7183478367442167,0.6956835302182548,-0.05,0.01,0.08
182.103,638,map,base_link,7.880257559627552,-13.115211824331368,583.461,0.00045508409529869913,-0.0006903017162621792,-0.7182426531474801,0.695792215809918,-0.05,0.0,0.07
182.343,639,map,base_link,7.88025755035315,-13.126307601456062,583.465,0.0003486500956554863,-0.0006305664675628707,-0.7181299762126622,0.6959086276903323,-0.06,-0.01,0.05
182.603,640,map,base_link,7.871168443860768,-13.137403391822602,583.473,0.0003619936097783854,-0.0005777307247410712,-0.7180080605249125,0.6960344533204443,-0.05,0.0,0.05
182.843,641,map,base_link,7.871168443860768,-13.137403391822602,583.476,0.0003117057549031652,-0.0005417058302987454,-0.7178872678637762,0.6961590910369543,-0.04,0.0,0.05
183.103,642,map,base_link,7.88025756508236,-13.137403420009889,583.481,0.0003229531543147354,-0.0005026359175457581,-0.7177523434448825,0.6962982238507965,-0.03,0.02,0.04
183.343,643,map,base_link,7.88025756508236,-13.137403420009889,583.489,0.0002408021323790208,-0.0004722099539461179,-0.7176234444513263,0.6964311243805138,-0.03,0.02,0.03
183.603,644,map,base_link,7.8893466955007625,-13.126307671673487,583.494,0.00020936594654124316,-0.00044380953000916777,-0.717497175706021,0.6965612407052841,-0.02,0.03,0.01
183.843,645,map,base_link,7.898435816245012,-13.126307700323594,583.507,0.00015508520082006016,-0.00040951903609652606,-0.7173840076600567,0.6966778263992153,-0.01,0.03,0.02
184.103,646,map,base_link,7.8984358411257745,-13.126307741428093,583.524,0.00010952963496907556,-0.0003749226407638015,-0.7172718160153279,0.6967933620423963,-0.01,0.02,0.03
184.343,647,map,base_link,7.898435853527417,-13.126307761901103,583.538,5.9760633139915906e-05,-0.0003328876534321746,-0.7171718199677188,0.6968963095458797,-0.01,0.02,0.03
184.603,648,map,base_link,7.89843586545166,-13.126307782836932,583.549,-3.6426120944522776e-06,-0.00029130324536399304,-0.717069812290505,0.6970012908386974,-0.02,0.0,0.04
184.843,649,map,base_link,7.898435877930808,-13.126307803468478,583.552,-5.145413545073875e-05,-0.00026969465550026687,-0.7169829869831823,0.6970906117528327,-0.02,0.0,0.03
185.103,650,map,base_link,7.898435868179064,-13.137403581055935,583.553,-2.7300018894294156e-05,-0.0002783659386063197,-0.7168964714830933,0.6971795829929355,-0.02,0.0,0.06
185.343,651,map,base_link,7.898435868179064,-13.137403581055935,583.552,-7.773312163714774e-05,-0.00026321170283011785,-0.7167940773867909,0.6972848595089244,-0.02,-0.01,0.04
185.603,652,map,base_link,7.89843585858236,-13.14849935858075,583.556,-0.00015256527172953746,-0.00026764401088817663,-0.7166835127956601,0.6973984854997853,-0.02,-0.01,0.03
185.843,653,map,base_link,7.898435870984002,-13.14849937905376,583.563,-0.0002049932268872845,-0.0002585123965347358,-0.7165802525541236,0.6975045754678503,-0.02,-0.01,0.02
186.103,654,map,base_link,7.89843587331157,-13.159595177514404,583.578,-0.0002976325473651951,-0.0002581316673674738,-0.7164640826939406,0.6976238692823226,-0.03,-0.02,0.0
186.343,655,map,base_link,7.898435886190526,-13.15959519790431,583.584,-0.00032440160029897214,-0.0002725169841030972,-0.7163423982229726,0.6977488007916998,-0.02,-0.01,0.01
186.603,656,map,base_link,7.898435886190526,-13.15959519790431,583.584,-0.0004208697848209848,-0.0003036363251616067,-0.7162072062777012,0.6978875040789144,-0.03,-0.03,0.02
186.844,657,map,base_link,7.898435886190526,-13.15959519790431,583.582,-0.0004879852253613274,-0.0003242106564804379,-0.7160860538438418,0.6980117622563565,-0.03,-0.02,0.02
187.103,658,map,base_link,7.898435886190526,-13.15959519790431,583.587,-0.0004981529085242018,-0.00035607209006329935,-0.7159664555933964,0.6981344136492452,-0.02,0.0,0.02
187.343,659,map,base_link,7.898435898592169,-13.159595218377262,583.592,-0.0005559027187547049,-0.0003790523165161191,-0.7158478378892498,0.6982559847797905,-0.01,0.0,0.02
187.604,660,map,base_link,7.898435908188901,-13.148499441611989,583.593,-0.000595895891126027,-0.00041083156206912763,-0.7157261135025521,0.6983807031813282,-0.01,0.01,0.02
187.844,661,map,base_link,7.898435908188901,-13.148499441611989,583.594,-0.0006554534957675323,-0.0004327905276284926,-0.7156098674108311,0.6984997499908837,0.0,0.01,0.03
188.104,662,map,base_link,7.907525019485377,-13.148499449174324,583.592,-0.0007027939712106258,-0.00045466810156198265,-0.7154887706830148,0.6986237316210064,0.0,0.01,0.02
188.344,663,map,base_link,7.907525019485377,-13.148499449174324,583.593,-0.0007404718838127754,-0.00046956128829979394,-0.7153765694351274,0.6987385742298862,0.0,0.02,0.02
188.604,664,map,base_link,7.907525029082109,-13.137403672029336,583.599,-0.0007459545062145149,-0.00047875975989245776,-0.7152449425681553,0.6988732978671052,0.0,0.02,0.01
188.844,665,map,base_link,7.907525041561257,-13.137403691901397,583.603,-0.0007549784006590624,-0.0004889027750722906,-0.7151167892526613,0.6990044125115776,0.0,0.03,0.01
189.104,666,map,base_link,7.916614150303673,-13.137403700216623,583.609,-0.000748443956860187,-0.000504678401692628,-0.7149681885714388,0.6991564020033212,0.0,0.04,0.01
189.344,667,map,base_link,7.916614160055417,-13.126307922249396,583.609,-0.0007838006749222246,-0.0005228903904886397,-0.7148228871313188,0.6993049065145958,0.0,0.03,0.02
189.604,668,map,base_link,7.916614172457031,-13.126307943102177,583.61,-0.0007622222335011948,-0.0005334847258466922,-0.7146800628219887,0.6994508862072247,0.0,0.04,0.02
189.844,669,map,base_link,7.9257032904738765,-13.115212173912994,583.613,-0.0007042124176015705,-0.0005499742062481727,-0.7145553018186799,0.6995783889286881,0.01,0.05,0.02
190.104,670,map,base_link,7.9257032904738765,-13.115212173912994,583.61,-0.0007123213127088842,-0.0005532586161106826,-0.7144166806016524,0.6997199389622735,0.0,0.04,0.01
190.344,671,map,base_link,7.9257032904738765,-13.115212173912994,583.613,-0.0006836576607256783,-0.0005661135236431011,-0.7142811946392935,0.6998582621590924,0.0,0.04,0.02
190.604,672,map,base_link,7.9257032904738765,-13.115212173912994,583.619,-0.000639016248935001,-0.0005811536658720188,-0.714135416182668,0.7000070437304597,0.0,0.04,0.01
190.844,673,map,base_link,7.925703300547951,-13.104116397064558,583.616,-0.0005995065658374803,-0.0005908559354676882,-0.7139869399499117,0.700158511383031,0.0,0.04,0.02
191.104,674,map,base_link,7.925703300547951,-13.104116397064558,583.611,-0.0005449463807195353,-0.0005936245780539432,-0.7138162306327357,0.7003325920793457,0.0,0.04,0.02
191.344,675,map,base_link,7.925703288146337,-13.104116376591605,583.605,-0.0004931009098444744,-0.0005932497603968041,-0.7136615980625133,0.700490205753852,0.0,0.05,0.02
191.604,676,map,base_link,7.925703288146337,-13.104116376591605,583.608,-0.00040529771039021306,-0.0005830823190858035,-0.7134952458813777,0.7006597104539746,0.0,0.05,0.0
191.844,677,map,base_link,7.925703300547951,-13.104116397064558,583.61,-0.0003591169861051115,-0.0005792362807476245,-0.7133329411946941,0.7008249785266281,0.0,0.06,0.01
192.104,678,map,base_link,7.925703310144655,-13.093020620299342,583.611,-0.0003303896750732184,-0.0005749063020321205,-0.7131597348898264,0.7010012502537203,0.0,0.04,0.0
192.344,679,map,base_link,7.925703300547951,-13.104116397064558,583.616,-0.000288961531703071,-0.0005596174105551034,-0.7129918434354988,0.7011720434558386,-0.01,0.03,-0.01
192.604,680,map,base_link,7.925703300547951,-13.104116397064558,583.616,-0.0001903896776874907,-0.000552040034098587,-0.7128042573773962,0.7013627803556659,0.0,0.04,0.0
192.844,681,map,base_link,7.925703300547951,-13.104116397064558,583.619,-0.0001649478113464689,-0.0005330099627511723,-0.7126356960075559,0.7015340714950525,-0.01,0.03,0.0
193.104,682,map,base_link,7.925703312872031,-13.104116418518345,583.62,-0.00010136988676410314,-0.0005183607108719539,-0.7124611508309698,0.7017113577411509,0.0,0.04,0.0
193.345,683,map,base_link,7.925703312872031,-13.104116418518345,583.62,-5.736447165122226e-05,-0.0005149390459867913,-0.7122846285052212,0.7018905466967591,0.0,0.04,0.0
193.605,684,map,base_link,7.9257032904738765,-13.115212173912994,583.619,-1.7508681099230115e-05,-0.0005012152569277952,-0.712092166517816,0.7020858173048898,0.0,0.04,0.0
193.845,685,map,base_link,7.9257032904738765,-13.115212173912994,583.614,1.979658004033461e-05,-0.0004994906827778412,-0.7119140417261689,0.7022664361268193,-0.01,0.03,0.02
194.105,686,map,base_link,7.925703278072234,-13.115212153439984,583.608,6.96468573350402e-05,-0.00048685230007222257,-0.7117178747810547,0.7024652481377938,0.0,0.03,0.02
194.348,687,map,base_link,7.925703278072234,-13.115212153439984,583.605,0.00010555668549856483,-0.0004767409527040264,-0.711536727667591,0.7026487363939015,0.0,0.03,0.02
194.605,688,map,base_link,7.925703278072234,-13.115212153439984,583.601,0.00017670038176539546,-0.00046710790145066756,-0.711339529896875,0.7028483647226308,0.0,0.04,0.02
194.845,689,map,base_link,7.925703266070457,-13.11521213272539,583.593,0.00021038729288440578,-0.00046612961248167385,-0.7111586967433194,0.7030313268316816,0.0,0.03,0.03
195.105,690,map,base_link,7.925703253668843,-13.115212111872609,583.585,0.00024304815732917242,-0.00045837778299788766,-0.7109603002916516,0.7032319547820659,-0.01,0.02,0.03
195.345,691,map,base_link,7.925703253668843,-13.115212111872609,583.585,0.0002979484869669035,-0.00045038485696314554,-0.7107795406427605,0.7034146380221598,-0.01,0.03,0.03
195.605,692,map,base_link,7.9166141325247565,-13.115212083084373,583.579,0.000353155061242497,-0.000444608117278437,-0.7105843897008812,0.703611755671088,-0.01,0.03,0.03
195.845,693,map,base_link,7.9166141325247565,-13.115212083084373,583.572,0.0003761797742253209,-0.0004302020248527958,-0.7103963207889128,0.7038016345708297,-0.01,0.02,0.03
196.105,694,map,base_link,7.916614120123143,-13.115212062231592,583.567,0.000399850076083684,-0.00042208548386824587,-0.7101978745979051,0.7040018756227706,-0.02,0.01,0.02
196.345,695,map,base_link,7.916614120123143,-13.115212062231592,583.565,0.0004289478455414856,-0.00041700314582571505,-0.7100135570607679,0.7041877525930411,-0.02,0.01,0.02
196.605,696,map,base_link,7.907525001628954,-13.126307831883594,583.561,0.0004546630173689664,-0.00041354007631360924,-0.7098134877097179,0.704389405749059,-0.02,0.01,0.03
196.845,697,map,base_link,7.9075249892273405,-13.12630781141064,583.557,0.00044511833414625146,-0.00040356216832001233,-0.7096241159286364,0.7045801963579066,-0.02,0.01,0.03
197.105,698,map,base_link,7.9075249892273405,-13.12630781141064,583.558,0.0004549401421827174,-0.00040031899655149544,-0.7094232627895003,0.7047824252826312,-0.02,0.01,0.03
197.345,699,map,base_link,7.9075249892273405,-13.12630781141064,583.557,0.0004730103626040681,-0.00039574778411749067,-0.7092379841448061,0.7049688656182627,-0.02,0.01,0.03
197.605,700,map,base_link,7.9075249892273405,-13.12630781141064,583.556,0.000460418253296157,-0.0003935385682465924,-0.7090303786287216,0.7051776764220765,-0.02,0.01,0.02
197.845,701,map,base_link,7.9075249892273405,-13.12630781141064,583.556,0.00048541210557727767,-0.0003944298232542993,-0.7088408728177619,0.7053681491413939,-0.02,0.02,0.02
198.105,702,map,base_link,7.9075249892273405,-13.12630781141064,583.559,0.00046675215648446045,-0.0003909244461856291,-0.7086351691324269,0.7055748198378103,-0.02,0.02,0.02
198.345,703,map,base_link,7.907525001628954,-13.126307831883594,583.562,0.00046875038455957465,-0.0003895940241010197,-0.7084463150617925,0.7057644416977529,-0.02,0.02,0.02
198.605,704,map,base_link,7.907525001628954,-13.126307831883594,583.563,0.00042012090917270637,-0.00038131764499210307,-0.7082415083062051,0.7059700022008206,-0.03,0.0,0.02
198.845,705,map,base_link,7.8984358903324505,-13.126307823941488,583.566,0.0004643958942377757,-0.00037688050438102177,-0.7080530552196053,0.7061589858464747,-0.02,0.01,0.01
199.105,706,map,base_link,7.898435880658241,-13.137403601307767,583.569,0.00043227247405520886,-0.0003688187714962213,-0.707844091881236,0.7063684723301644,-0.03,0.0,0.01
199.346,707,map,base_link,7.8984359049840975,-13.13740364271655,583.582,0.0004185293396928891,-0.00036685119605667384,-0.7076493824196934,0.7065635440740047,-0.03,0.0,0.0
199.606,708,map,base_link,7.898435917863111,-13.137403663486225,583.593,0.0004164286418137424,-0.00036027746272970454,-0.7074349905203997,0.7067782049375451,-0.03,0.0,0.01
199.846,709,map,base_link,7.898435917863111,-13.137403663486225,583.599,0.0003794681650871167,-0.00035658750846629436,-0.7072390733856325,0.7069742724639225,-0.03,0.0,0.0
200.106,710,map,base_link,7.898435920590515,-13.148499462084999,583.609,-0.00035058403328755774,0.0003560900789392236,0.7070239411717109,-0.7071894349470391,-0.04,0.0,0.0
200.346,711,map,base_link,7.889346824172208,-13.148499475223446,583.618,-0.00033150013912171337,0.0003614006009833881,0.7068296763831772,-0.7073836074445862,-0.03,0.0,0.0
200.606,712,map,base_link,7.8893468365738215,-13.148499495696512,583.623,-0.0002891044600179781,0.00037486550997368383,0.7066145192351068,-0.7075985423250951,-0.03,0.0,0.0
200.846,713,map,base_link,7.8893468365738215,-13.148499495696512,583.627,-0.0002680576607088132,0.00038196889796372806,0.7064165128429888,-0.707796222529905,-0.03,0.0,0.0
201.106,714,map,base_link,7.8893468365738215,-13.148499495696512,583.629,-0.00022632221890382922,0.00039107841501219296,0.7062019074945832,-0.7080103542229721,-0.03,0.0,0.0
