Time,header.seq,header.frame_id,child_frame_id,pose.x,pose.y,pose.z,orientation.x,orientation.y,orientation.z,orientation.w,linear.x,linear.y,linear.z,angular.x,angular.y,angular.z
114.829,368,map,base_link,0.027267505030607708,-0.02219155384085525,583.92,0.00047056724792880815,-0.0009297877934753608,-0.9306398858091309,0.3659348534948431,-0.04,0.0,0.01
115.089,369,map,base_link,0.018178337172741976,-0.022191553455058965,583.917,0.00046688099449717523,-0.000925961871648,-0.9306313394395068,0.3659566021672222,-0.03,0.0,0.01
115.329,370,map,base_link,0.018178337172741976,-0.022191553455058965,583.916,0.0003583037347645154,-0.0009540666222757222,-0.930621672996732,0.3659812332949293,-0.03,0.0,0.01
115.589,371,map,base_link,0.009089170401381352,-0.022191553746665704,583.92,0.00028108842887725237,-0.0009734728300581494,-0.9306113964271254,0.36600737995278193,-0.03,0.0,0.01
115.829,372,map,base_link,0.009089170401381352,-0.022191553746665704,583.92,0.00019347466855082823,-0.0009972222158760855,-0.9306016311957992,0.36603220094839023,-0.04,0.0,0.01
116.09,373,map,base_link,0.0090891699356348,-0.02219155318675803,583.915,0.00017977967538558307,-0.0009958157758978186,-0.9305909400187591,0.36605939188226205,-0.02,0.01,0.01
116.334,374,map,base_link,0.009089169714712853,-0.02219155358716307,583.905,8.412253756071765e-05,-0.0010236238935692219,-0.9305791515593622,0.36608931669823486,-0.01,0.01,0.01
116.59,375,map,base_link,0.018178337106832032,-0.022191553412994836,583.906,-7.5976968468469405e-06,-0.0010473924488813644,-0.930566879620262,0.36612045212626665,-0.02,0.01,0.01
116.83,376,map,base_link,0.018178337172741976,-0.022191553455058965,583.912,-6.317827885339694e-05,-0.0010574856891440191,-0.9305542360190986,0.3661525523049568,0.0,0.02,0.01
117.092,377,map,base_link,0.027267505030607708,-0.02219155384085525,583.92,-0.0001482354826132198,-0.0010809670271799859,-0.9305413855597975,0.3661851161598192,-0.01,0.02,0.01
117.33,378,map,base_link,0.02726750506735698,-0.01109577763577363,583.925,-0.00016784350945094916,-0.0010823151579642492,-0.930529807559645,0.3662145241050187,0.0,0.02,0.01
117.59,379,map,base_link,0.027267505210744503,-0.011095777456603173,583.931,-0.0001321009554747798,-0.001062608111358107,-0.9305175356430099,0.36624577714179746,0.01,0.04,0.0
117.83,380,map,base_link,0.03635667262798847,-2.01339389604982e-10,583.942,-0.00010084729968782792,-0.0010459932916073089,-0.9305057794819567,0.3662757022770306,0.03,0.05,0.0
118.09,381,map,base_link,0.045445840885690814,-3.454942998359911e-10,583.951,-8.074107632445456e-05,-0.0010332221336871216,-0.9304935323430206,0.3663068552466758,0.05,0.07,0.0
118.33,382,map,base_link,0.05453501111344394,0.011095775446506195,583.953,-8.153778045725476e-05,-0.001026685515887787,-0.9304825792810554,0.3663346952213459,0.04,0.07,0.0
118.59,383,map,base_link,0.06362417838727197,0.022191552142771798,583.959,-7.906689011906457e-05,-0.0010209451807012871,-0.9304716254351975,0.3663625331271562,0.03,0.06,0.0
118.83,384,map,base_link,0.06362417809410204,0.011095775115791184,583.965,-7.994026521222428e-05,-0.0010156712318817526,-0.9304515839127216,0.36641344409807114,-0.03,0.0,0.0
119.091,385,map,base_link,0.027267505086115307,-0.01109577760303182,583.96,-6.87254533956324e-05,-0.00100903420845753,-0.9304051563672566,0.36653133854010195,-0.24,-0.19,0.02
119.331,386,map,base_link,-0.06362417487082439,-0.09986199179883215,583.948,1.3747129181418162e-05,-0.0009881979157871535,-0.9304474942642287,0.3664239125566372,-0.47,-0.4,-0.03
119.591,387,map,base_link,-0.2454075302766796,-0.26629864501785505,583.965,0.00014857909842915014,-0.0009369853716548538,-0.9305230399716022,0.36623212866250876,-0.73,-0.65,-0.05
119.831,388,map,base_link,-0.4635475493758463,-0.4771184151497323,583.985,0.00033251398259750064,-0.0008510157316480416,-0.9305554425855473,0.3661498784392696,-0.96,-0.86,-0.16
120.091,389,map,base_link,-0.7725792303754133,-0.7545128607270044,584.024,0.0005197777016291065,-0.0007443430832042431,-0.9304317636072463,0.36646406243344587,-1.21,-1.1,-0.16
120.331,390,map,base_link,-1.1088783922788537,-1.0762904286609114,584.05,0.0007153289969317046,-0.0006480290844743992,-0.9304051302445117,0.36653152930876914,-1.42,-1.3,-0.13
120.591,391,map,base_link,-1.5269800167098708,-1.4757384622328686,584.066,0.000917529720478213,-0.0005191736612791151,-0.9303233355954423,0.3667388441990998,-1.65,-1.52,-0.1
120.831,392,map,base_link,-1.9541707672595976,-1.8973780707256651,584.071,0.0010987422036858915,-0.00039938254663755406,-0.9302490566602388,0.36692686715732203,-1.85,-1.71,-0.13
121.091,393,map,base_link,-2.472253113704596,-2.396688166557851,584.085,0.001264325609153002,-0.00026678421828098313,-0.930137234630233,0.3672098242985307,-2.05,-1.91,-0.14
121.331,394,map,base_link,-2.999424576430812,-2.907094077678039,584.102,0.0014006191315321698,-0.00016298415868735817,-0.9301019091904279,0.36729885682170776,-2.23,-2.1,-0.16
121.591,395,map,base_link,-3.6083984221074843,-3.5062662673645377,584.118,0.0014856939876707188,-6.276039023584928e-05,-0.9299784071325607,0.36761114107395276,-2.42,-2.29,-0.13
121.831,396,map,base_link,-4.217372200104251,-4.094342729584298,584.137,0.0015499097182864025,2.594381244572178e-05,-0.9298946695753769,0.3678226482995366,-2.57,-2.44,-0.15
122.092,397,map,base_link,-4.8899700052218975,-4.760089711703813,584.157,0.0016219256528348614,0.00011708045780315324,-0.9298630142787001,0.3679023380271901,-2.59,-2.47,-0.17
122.332,398,map,base_link,-5.508032778503747,-5.359262052786278,584.17,0.0016370996895742644,0.00015531639106999723,-0.9298496847236004,0.3679359449698356,-2.54,-2.43,-0.11
122.592,399,map,base_link,-6.135184613420421,-5.980625991226191,584.183,0.0015694659681135706,0.00016726814119341423,-0.9298065439673565,0.36804524123186816,-2.45,-2.35,-0.14
122.832,400,map,base_link,-6.689623115723975,-6.535415258009948,584.194,0.0013535934451844411,0.00011159494556308619,-0.9298565858364898,0.3679196720859867,-2.4,-2.31,-0.16
123.092,401,map,base_link,-7.271329040773622,-7.101300372300841,584.213,0.0011291111314930826,3.3742079620995164e-05,-0.9299135548249617,0.3677764327989597,-2.33,-2.25,-0.15
123.332,402,map,base_link,-7.798499965412361,-7.611706581687258,584.222,0.0009047112812800094,-3.632901272197459e-05,-0.9299334124435243,0.3677268396498172,-2.28,-2.21,-0.13
123.592,403,map,base_link,-8.34384909507196,-8.155400146856266,584.214,0.0005981198362251896,-0.00012090938493565615,-0.9299867792078953,0.3675924620175275,-2.24,-2.16,-0.08
123.832,404,map,base_link,-8.85284158810029,-8.64361483482935,584.213,0.00037731547936522165,-0.00021524979077026344,-0.9302009599299178,0.36705038543232166,-2.21,-2.12,-0.08
124.092,405,map,base_link,-9.389101453271678,-9.165116899284897,584.204,0.00013013996964177755,-0.0003207092043002626,-0.9302947844395224,0.36681261463289,-2.18,-2.1,-0.09
124.332,406,map,base_link,-9.889004673876173,-9.653331635746326,584.202,-6.994534641578416e-05,-0.00040952646380878235,-0.9303696171578371,0.36662269824071614,-2.16,-2.09,-0.08
124.592,407,map,base_link,-10.425264446169564,-10.163737999102466,584.201,-0.0002166390047937682,-0.0005122914440325311,-0.9305326265593723,0.36620857654284095,-2.14,-2.06,-0.1
124.832,408,map,base_link,-10.91607839396329,-10.640856988969574,584.193,-0.0003862259431644462,-0.000586916951108954,-0.9306734941117598,0.36585017933003805,-2.14,-2.06,-0.04
125.093,409,map,base_link,-11.461427140057765,-11.173454943901731,584.179,-0.0004961988953935493,-0.0006493839050300732,-0.9307743614988255,0.36559324400712545,-2.14,-2.05,-0.05
125.333,410,map,base_link,-11.970419290650852,-11.661669807790872,584.177,-0.0005957150919224667,-0.0006779197987021888,-0.9310039917329915,0.3650078806348043,-2.15,-2.05,-0.07
125.593,411,map,base_link,-12.524857120936531,-12.183172095239115,584.17,-0.0006473828297111604,-0.0007024199862340569,-0.9311890047832244,0.36453549192426044,-2.15,-2.05,-0.01
125.833,412,map,base_link,-13.042938251560884,-12.682482770877243,584.151,-0.0006609873024496558,-0.0007382839848580305,-0.9312805351783275,0.3643014999015401,-2.14,-2.04,0.0
126.093,413,map,base_link,-13.60646502807154,-13.215080852819654,584.124,-0.0006741268795544217,-0.0007709941960694535,-0.931553609232326,0.36360256358712145,-2.15,-2.04,0.02
126.333,414,map,base_link,-14.12454603047405,-13.703295785839146,584.099,-0.0006692948686243637,-0.0007980826628727724,-0.9318075287351938,0.36295129769826245,-2.16,-2.05,0.04
126.593,415,map,base_link,-14.697161827030726,-14.24698974008544,584.078,-0.000636263421421835,-0.0008100634842501571,-0.9319808455557268,0.36250605854694673,-2.16,-2.04,0.05
126.833,416,map,base_link,-15.224331861641787,-14.746300543500979,584.051,-0.0005984246896492653,-0.000820652232922865,-0.9324095790994251,0.36140191646065756,-2.16,-2.05,0.07
127.093,417,map,base_link,-15.796947493668654,-15.289994538744054,584.021,-0.0005386058352998154,-0.0007927937389390117,-0.9328079354600785,0.36037263620389925,-2.17,-2.03,0.07
127.337,418,map,base_link,-16.333206522655644,-15.789305391431412,583.996,-0.0004787337943590082,-0.0008055123391191439,-0.9330324109165444,0.35979110903840594,-2.17,-2.03,0.06
127.593,419,map,base_link,-16.914911188196612,-16.332999491631313,583.977,-0.00042422367907915694,-0.0008112069255312388,-0.9333984054655811,0.35884060340477697,-2.19,-2.05,0.04
127.833,420,map,base_link,-17.45117011978016,-16.843406232522625,583.962,-0.00038087922823516117,-0.000829619706911092,-0.9338226581244842,0.35773511127016616,-2.2,-2.05,0.03
128.094,421,map,base_link,-18.041963821454573,-17.387100445214003,583.951,-0.0003203981115873292,-0.000828538522097034,-0.9341059003675694,0.356994926809136,-2.21,-2.05,0.04
128.334,422,map,base_link,-18.596400943059535,-17.886411509607058,583.943,-0.00025792355139824533,-0.0008436035632947876,-0.9344247583702479,0.3561595046508984,-2.21,-2.04,0.0
128.594,423,map,base_link,-19.187194566694217,-18.430105853223836,583.951,-0.00017266736385158292,-0.0008549161292493132,-0.9348655762871148,0.35500083602402177,-2.21,-2.02,-0.03
128.834,424,map,base_link,-19.73254250099862,-18.929417058769104,583.97,-0.00012612536414015628,-0.0008420235489824503,-0.9352007378900237,0.35411700741236735,-2.22,-2.01,-0.05
129.094,425,map,base_link,-20.323336016627252,-19.462015703835334,583.989,-7.383015293573073e-05,-0.000829479285376927,-0.9355759864782951,0.35312445403623444,-2.22,-1.99,-0.04
129.334,426,map,base_link,-20.868683857976748,-19.9502312080715,584.009,-1.871381836355752e-05,-0.0008577703739634253,-0.9359599201002052,0.3521055123763274,-2.23,-1.98,-0.06
129.594,427,map,base_link,-21.459477304154717,-20.471734187313018,584.029,1.0437514017287945e-05,-0.0008874299828713189,-0.9364625882791444,0.350766351169278,-2.24,-1.97,-0.08
129.834,428,map,base_link,-22.00482502897094,-20.95994976683039,584.048,5.3570325430901604e-05,-0.0008878158134014964,-0.9369509588596723,0.34945973960564125,-2.25,-1.97,-0.12
130.094,429,map,base_link,-22.604707468589794,-21.492548629105784,584.062,0.00015302553524477279,-0.0008391050551304191,-0.9373541127168344,0.34837700822345913,-2.24,-1.96,-0.1
130.334,430,map,base_link,-23.15005503447057,-21.969668438428016,584.065,0.0001999196716543863,-0.0007915306233746296,-0.9378490760010254,0.3470424241435328,-2.26,-1.96,-0.08
130.594,431,map,base_link,-23.74084818884282,-22.491171546083024,584.074,0.0002713263799685504,-0.0006965124567809508,-0.9382732872602935,0.3458940295323925,-2.25,-1.92,-0.12
130.834,432,map,base_link,-24.295284817764667,-22.968291485601412,584.085,0.00033223574491997234,-0.0006383844328244449,-0.9386403947035331,0.34489663888695876,-2.25,-1.9,-0.14
131.095,433,map,base_link,-24.895167029543472,-23.489794734435463,584.101,0.00039728202820068684,-0.0005812318959027847,-0.9389714579270347,0.3439943393936185,-2.29,-1.92,-0.17
131.334,434,map,base_link,-25.458692724203274,-23.96691481342475,584.129,0.0004582073914297544,-0.0005077726536744845,-0.9392166760200334,0.34332428940987886,-2.31,-1.93,-0.18
131.594,435,map,base_link,-26.067663960344646,-24.499513989692105,584.152,0.0005867365701450342,-0.00040698671877615857,-0.9395879578509007,0.3423068207961714,-2.29,-1.91,-0.14
131.834,436,map,base_link,-26.63118946322018,-24.987729887670355,584.164,0.0006648344826277059,-0.00032176003678655507,-0.9398577148532132,0.3415654114463078,-2.32,-1.94,-0.2
132.094,437,map,base_link,-27.2492496698286,-25.520329139278886,584.185,0.0007615060753820827,-0.00021604017502163838,-0.9400937047964728,0.34091523820032216,-2.32,-1.95,-0.18
132.334,438,map,base_link,-27.812775048716702,-26.008545117229346,584.198,0.0008429415652742918,-0.0001340610152381021,-0.9404059513737424,0.3400528166300175,-2.3,-1.94,-0.14
132.594,439,map,base_link,-28.41265675113621,-26.54114431523857,584.199,0.0008778710943516513,-7.170983909465651e-05,-0.9407060607642481,0.33922165532502696,-2.31,-1.96,-0.15
132.834,440,map,base_link,-28.96709286161115,-27.029360339052005,584.204,0.0008838759712765609,6.465808550593256e-06,-0.9408134394672281,0.33892372422022243,-2.3,-1.96,-0.13
133.094,441,map,base_link,-29.566974465633024,-27.550863838508235,584.205,0.0008862941553215416,6.210716023488178e-05,-0.9410653165138304,0.3382237139529029,-2.3,-1.97,-0.1
133.338,442,map,base_link,-30.121410409693226,-28.03907989290275,584.201,0.0009386917665265877,9.164504590114673e-05,-0.9413255758937968,0.33749854907416243,-2.28,-1.96,-0.09
133.594,443,map,base_link,-30.72129183130673,-28.560583423149126,584.193,0.0009525170032007298,0.0001191385913261784,-0.9415224964729167,0.3369487604262126,-2.28,-1.96,-0.06
133.835,444,map,base_link,-31.26663844922308,-29.037703648638058,584.172,0.0009455141437344269,0.000114200935022337,-0.9416953000289616,0.3364655329517637,-2.28,-1.97,-0.03
134.095,445,map,base_link,-31.857430583753995,-29.548111397099603,584.15,0.0009433706827480379,8.60191560752365e-05,-0.9419877565569619,0.3356458984543707,-2.26,-1.95,-0.01
134.336,446,map,base_link,-32.402777024186605,-30.025231638231276,584.129,0.0009477582175883148,3.42281236288232e-05,-0.9421673290121514,0.3351414995563888,-2.27,-1.96,0.0
134.595,447,map,base_link,-32.99356911430178,-30.52454372501421,584.111,0.0009353228829004458,5.518997291581299e-06,-0.9423214201941703,0.3347080312509504,-2.26,-1.95,0.01
134.835,448,map,base_link,-33.538915520016815,-30.99056829926451,584.094,0.0009031321612762551,-2.628289678673553e-05,-0.9424954064276905,0.33421788181396217,-2.25,-1.92,0.02
135.095,449,map,base_link,-34.111529195596546,-31.478784563824547,584.079,0.0009126374383897995,-7.592987127328966e-05,-0.9426649341804352,0.3337393941298457,-2.1,-1.81,0.03
135.335,450,map,base_link,-34.593251795840615,-31.8893301179167,584.065,0.0008984825743115558,-0.0001235762057510723,-0.9427395218990258,0.3335286663955313,-1.88,-1.62,0.06
135.595,451,map,base_link,-35.0477069635474,-32.2665881568488,584.038,0.0008443523874169289,-0.00017171343183573074,-0.9427337520294494,0.3335450949542196,-1.61,-1.39,0.08
135.835,452,map,base_link,-35.39309282838144,-32.56617539717479,584.015,0.0007246457853747569,-0.000286800835663344,-0.9427027885684861,0.33363279973492815,-1.37,-1.19,0.04
136.095,453,map,base_link,-35.702122303115374,-32.821379393456425,583.995,0.0005290972766533159,-0.0004320221750170562,-0.9425932005131434,0.33394249768380924,-1.1,-0.96,0.08
136.335,454,map,base_link,-35.91117158727704,-32.99891255875991,583.974,0.0003708308319086947,-0.0005443050563543599,-0.942660202029751,0.3337533666133257,-0.85,-0.76,0.11
136.595,455,map,base_link,-36.083864513937186,-33.143158302885524,583.962,0.00015863593676785186,-0.0007040559072054291,-0.9425416806308053,0.3340878019526846,-0.6,-0.55,0.09
136.835,456,map,base_link,-36.1838445236686,-33.23192481838197,583.947,-7.71105281750471e-06,-0.0008210769977259301,-0.9425483266045447,0.33406882193355836,-0.39,-0.37,0.09
137.095,457,map,base_link,-36.247468186861454,-33.2874039081691,583.933,-0.00016184836758453537,-0.000945606316530532,-0.9424186130780515,0.33443420482636305,-0.17,-0.18,0.07
137.335,458,map,base_link,-36.25655726368217,-33.28740389275083,583.925,-0.0002693956316017589,-0.001057469509312862,-0.9422212030687325,0.33498957248239947,0.02,-0.01,0.07
137.595,459,map,base_link,-36.22020080281507,-33.25411636167894,583.911,-0.0003669372134113311,-0.0011512767665435588,-0.9420296681638246,0.335527412021794,0.21,0.16,0.06
137.835,460,map,base_link,-36.147487936845636,-33.18754135440889,583.904,-0.00046162042620259724,-0.0012005268668760756,-0.9418665956448702,0.33598461519862294,0.37,0.32,0.05
138.095,461,map,base_link,-36.04750775756352,-33.09877468364243,583.896,-0.0004449494192118453,-0.001301992547034871,-0.9416891648689014,0.33648123811578673,0.42,0.37,0.06
138.335,462,map,base_link,-35.95661671086694,-33.01000805119213,583.884,-0.000436875987016317,-0.0013548982702614159,-0.9418164103183772,0.33612471293413587,0.38,0.34,0.08
138.595,463,map,base_link,-35.88390384200889,-32.94343304591189,583.876,-0.0003580489601927471,-0.0014037832410098165,-0.9419848713002303,0.3356522060631256,0.3,0.28,0.09
138.835,464,map,base_link,-35.838458288695335,-32.899049704480774,583.868,-0.00021475539859356146,-0.0013687850682197842,-0.9421653334817798,0.3351455873090416,0.23,0.23,0.09
139.095,465,map,base_link,-35.82028009667542,-32.865762249019156,583.858,-3.568259544652237e-05,-0.001348399474925873,-0.9423288192350205,0.3346857884415474,0.16,0.17,0.09
139.335,466,map,base_link,-35.81119095078569,-32.85466638387544,583.847,0.0002225964551856012,-0.0012609330137718958,-0.9424225817088184,0.3344219460263311,0.12,0.15,0.09
139.595,467,map,base_link,-35.82027998425633,-32.865762145128144,583.837,0.00047015879568503726,-0.0011772506913412747,-0.9424602953479284,0.3343156961977882,0.07,0.11,0.08
139.836,468,map,base_link,-35.83845819710615,-32.8657621663404,583.827,0.0006508912508557064,-0.0011091532101494327,-0.9424697996297253,0.33428883155983746,0.03,0.07,0.09
140.096,469,map,base_link,-35.856636423415154,-32.876858015961886,583.822,0.00090742000105134,-0.0010020406754150308,-0.9424639343640532,0.3343051075386915,0.02,0.07,0.08
140.336,470,map,base_link,-35.8748146476475,-32.887953864913584,583.821,0.0011111906604739067,-0.0009141814855978713,-0.9424464520027681,0.3343540258990782,0.03,0.08,0.07
140.596,471,map,base_link,-35.88390373800496,-32.89904967926498,583.824,0.00131992662425139,-0.000819394017951285,-0.942418713403258,0.33443168960865194,0.04,0.09,0.06
140.836,472,map,base_link,-35.89299281810193,-32.89904966334262,583.816,0.001400004918019972,-0.0007745603670907088,-0.9423864185949321,0.33452246275890735,0.02,0.07,0.07
141.096,473,map,base_link,-35.89299276169248,-32.899049611845896,583.803,0.001528035956224111,-0.0007118056170982785,-0.9419832838678881,0.33565555462758195,0.03,0.08,0.07
141.336,474,map,base_link,-35.902081795562935,-32.9101453725807,583.798,0.0016297762709532736,-0.0006639812297791808,-0.9395785773338583,0.342328789285266,0.04,0.1,0.04
141.596,475,map,base_link,-35.902081795562935,-32.9101453725807,583.794,0.0016918948553740992,-0.0006069824587340383,-0.9318450857409417,0.3628519053891684,0.01,0.06,0.04
141.839,476,map,base_link,-35.902081695003716,-32.921241097651375,583.788,0.001797592136718588,-0.0005687758596346884,-0.9241970706686465,0.38191127205677494,0.01,0.06,0.07
142.096,477,map,base_link,-35.902081695003716,-32.921241097651375,583.785,0.0018633024779151344,-0.0005238569286308619,-0.9191450999080273,0.39391438028187875,0.0,0.06,0.06
142.336,478,map,base_link,-35.902081695003716,-32.921241097651375,583.789,0.0018923568436839736,-0.00048060753503800395,-0.916519558162852,0.3999851091065066,0.0,0.04,0.07
142.596,479,map,base_link,-35.902081706863584,-32.932336926233404,583.792,0.001954574214225813,-0.00044965557129932006,-0.9127756889071004,0.4084562634966892,0.01,0.03,0.07
142.836,480,map,base_link,-35.89299257283372,-32.93233689005149,583.797,0.0019823177953172174,-0.0003989921835448785,-0.9089958955933809,0.4168001595678479,0.01,0.02,0.07
143.096,481,map,base_link,-35.89299252883899,-32.94343266744107,583.793,0.0019997302039757555,-0.0003855411468135814,-0.9019051747097246,0.43192928619040916,-0.03,0.02,0.08
143.336,482,map,base_link,-35.89299237194783,-32.954528340856484,583.779,0.0019378199294358368,-0.0003731136189106057,-0.8885101872928212,0.45885264815300375,0.0,-0.02,0.1
143.596,483,map,base_link,-35.89299227146611,-32.96562406614839,583.767,0.0018578102628040408,-0.00044529540608918746,-0.852435536324644,0.5228288502597627,0.01,-0.04,0.1
143.836,484,map,base_link,-35.883902990250704,-32.987815531072954,583.756,0.0017815246174257891,-0.0005169352315178121,-0.820590387774351,0.571513757000078,0.0,-0.03,0.1
144.096,485,map,base_link,-35.87481375581663,-32.99891122002441,583.745,0.0017016500637864877,-0.000563494066019138,-0.8037650295257013,0.5949441689545721,-0.09,0.02,0.13
144.337,486,map,base_link,-35.87481369932968,-32.99891116792668,583.735,0.0016301318913400267,-0.0005232844755451801,-0.8023860905836623,0.5968028405438777,-0.08,0.02,0.12
144.596,487,map,base_link,-35.87481374387926,-32.98781539084143,583.735,0.0015392489073905431,-0.0005198482960557874,-0.8008486645197024,0.598864573177909,-0.05,0.12,0.11
144.836,488,map,base_link,-35.86572474262098,-32.95452802459795,583.739,0.0014205109683311202,-0.00047140405084893533,-0.7989421969777504,0.601405957582044,-0.01,0.25,0.07
145.097,489,map,base_link,-35.83845774790717,-32.86576175237832,583.745,0.0013183878067802132,-0.0004744033319548009,-0.7966720570657746,0.6044101838037287,0.03,0.38,0.07
145.336,490,map,base_link,-35.8111906991829,-32.77699542859261,583.746,0.0011813654584885047,-0.0004791328358054467,-0.7943318241205181,0.6074827800001819,0.04,0.38,0.09
145.596,491,map,base_link,-35.774834545275155,-32.666037463642226,583.739,0.001066034425492135,-0.0005619143401101836,-0.7906611351526769,0.6122528212935883,0.06,0.37,0.11
145.837,492,map,base_link,-35.73847837021523,-32.588366933300506,583.741,0.0009360586669041926,-0.0005476700679898618,-0.7798968389086529,0.6259071372911156,0.1,0.33,0.1
146.097,493,map,base_link,-35.71121131637054,-32.49960060925338,583.744,0.0008258292020497162,-0.0005225596965550089,-0.7708620950006094,0.6370013150918636,0.04,0.37,0.1
146.337,494,map,base_link,-35.68394422100772,-32.42193006274772,583.749,0.000780739616856906,-0.0004732566589905238,-0.7678892275608185,0.6405820015188025,0.05,0.37,0.06
146.597,495,map,base_link,-35.665766413767074,-32.33316387731725,583.761,0.0007666088325277899,-0.000384619591910852,-0.7639938042760114,0.6452230090492239,0.05,0.37,0.04
146.837,496,map,base_link,-35.64758845123461,-32.25549336702812,583.762,0.000770888955646712,-0.00029535837918190404,-0.7604789644972234,0.6493620431245398,0.03,0.37,0.04
147.097,497,map,base_link,-35.629410487102774,-32.17782285577266,583.769,0.0007398731462732879,-0.00023675135475540127,-0.7580064442722543,0.6522465998211545,0.03,0.39,0.04
147.337,498,map,base_link,-35.62032175963677,-32.08905665553863,583.77,0.0007015688889558513,-0.00013221440129653075,-0.756175186431623,0.6543688392226101,0.03,0.48,0.08
147.597,499,map,base_link,-35.602144004536655,-31.944811433411417,583.761,0.0007146809162690861,-4.666925554794254e-05,-0.7546768876509484,0.6560962446917723,0.06,0.73,0.1
147.837,500,map,base_link,-35.58396619166027,-31.800566161383358,583.748,0.0007148935583957522,-7.092663033689956e-05,-0.7365063921271082,0.6764302020552627,0.12,0.56,0.07
148.097,501,map,base_link,-35.5566993994012,-31.645225176472252,583.749,0.0006503282620776433,-9.709656190682667e-05,-0.7192487596316194,0.6947523223522079,0.01,0.6,0.03
148.337,502,map,base_link,-35.54761088986061,-31.500980090021073,583.758,0.0006433677580899572,-8.225041862131079e-05,-0.7175300210078753,0.6965272774739224,0.01,0.63,-0.02
148.597,503,map,base_link,-35.53852243313091,-31.356735054411104,583.775,0.0006270900907808082,-6.462409813125731e-05,-0.7150890478520089,0.6990330866445816,0.02,0.61,-0.01
148.837,504,map,base_link,-35.53852312581202,-31.22358587868291,583.8,0.000599457760253464,-4.977817525440713e-05,-0.7125515910308657,0.701619461169592,0.01,0.6,-0.02
149.097,505,map,base_link,-35.538523794993694,-31.06824504959718,583.814,0.0006389397652706593,-5.341487942660281e-05,-0.708549560029847,0.70566076119077,0.04,0.65,0.02
149.337,506,map,base_link,-35.52943537140658,-30.901808406714224,583.826,-0.0006597881338804122,8.061861336249752e-05,0.6978423724312798,-0.7162510603271319,0.04,0.77,0.01
149.597,507,map,base_link,-35.511258042697705,-30.690988668550062,583.844,-0.0006566096161532093,0.0001641956474992714,0.6625033606303872,-0.7490586352596466,0.11,0.83,-0.02
149.837,508,map,base_link,-35.4930806659182,-30.49126470589772,583.868,-0.0007384502908551794,0.0002760071140576632,0.5761803184174081,-0.8173222248169051,-0.03,0.87,-0.02
150.097,509,map,base_link,-35.5021708479855,-30.26934934416164,583.892,-0.0007253342593141399,0.00047814399462044194,0.4262286863415656,-0.9046150298375968,-0.05,0.85,-0.03
150.337,510,map,base_link,-35.52943911469657,-30.08072133479584,583.911,-0.0007004947216963487,0.0006762234907098672,0.23480448322674685,-0.9720421321555746,-0.18,0.81,-0.05
150.597,511,map,base_link,-35.647598543740486,-29.947572569736337,583.93,-0.0007548028862869878,0.0007882540480425961,0.07741563365894155,-0.9969983092229109,-0.43,0.38,-0.05
150.837,512,map,base_link,-35.756668385046225,-29.91428571859649,583.945,-0.0008709811543853116,0.0008396256001322198,0.021925591261683697,-0.9997588733632254,-0.42,0.17,-0.05
151.097,513,map,base_link,-35.91118368556158,-29.925382111332624,583.947,-0.0012264639173228755,0.0008388972376298455,0.01867763993175675,-0.9998244534938441,-0.58,0.1,-0.02
151.337,514,map,base_link,-36.06569889666764,-29.958670061152077,583.944,-0.001626027817557782,0.00083370954290189,0.011800234892904382,-0.9999287051677267,-0.55,0.06,-0.03
151.597,515,map,base_link,-36.21112496710157,-29.991957976440972,583.942,-0.0020098381083742908,0.000851415857953942,0.007829692429987656,-0.9999669652334855,-0.55,0.03,0.0
151.838,516,map,base_link,-36.34746189966225,-30.025245858131257,583.943,-0.002264635907701712,0.0008200149521601333,0.004167683016408741,-0.9999884146418689,-0.56,-0.01,0.0
152.098,517,map,base_link,-36.49288802433918,-30.058533826029645,583.95,-0.0024249965045381426,0.0008047004278191266,-0.017423816599276942,-0.9998449292086695,-0.65,0.03,0.0
152.338,518,map,base_link,-36.62922504540745,-30.069630156977553,583.952,-0.002434359236112084,0.0008799930804632078,-0.08806658210510832,-0.9961112270342163,-0.58,-0.09,0.0
152.598,519,map,base_link,-36.765561932684136,-30.114013821672017,583.951,-0.0023550983741714637,0.0009251817540626909,-0.1155252270795874,-0.9933013235965105,-0.52,-0.19,0.04
152.838,520,map,base_link,-36.87463134332614,-30.15839732933449,583.943,-0.0023576728990030334,0.0008654097388091315,-0.13303480047084043,-0.991108184966792,-0.55,-0.19,0.02
153.098,521,map,base_link,-36.98370072288998,-30.224972440108104,583.942,-0.002278159066264441,0.0008860093311346887,-0.1548095608056408,-0.9879413063851004,-0.51,-0.27,0.02
153.338,522,map,base_link,-37.10185932588075,-30.269356035781527,583.948,-0.0022279910572647115,0.0008547512606058954,-0.16857551667046944,-0.9856858529143124,-0.62,-0.31,0.01
153.598,523,map,base_link,-37.26546368892238,-30.324835692355578,583.96,-0.0021062819228185228,0.0008663530763124681,-0.20484591070582547,-0.9787915844938134,-0.79,-0.13,0.0
153.838,524,map,base_link,-37.438157175141754,-30.369219565860874,583.97,-0.0019249538334299644,0.0010932305739512966,-0.3183621454429113,-0.9479665836666598,-0.71,-0.4,-0.01
154.098,525,map,base_link,-37.60176127844338,-30.457986466047373,583.978,-0.0017793873152752249,0.0012893653402327493,-0.3948003619637582,-0.9187643035681607,-0.64,-0.33,-0.02
154.338,526,map,base_link,-37.69265257181718,-30.491274226193752,583.982,-0.0015435566613839098,0.00144639245653996,-0.5114332194864222,-0.8593204218377728,-0.31,0.02,-0.02
154.598,527,map,base_link,-37.68356380627313,-30.402507971291698,583.981,-0.0013600794876329678,0.0014183362263756503,-0.5819448715394102,-0.8132258634568355,0.1,0.43,-0.02
154.838,528,map,base_link,-37.59267326716133,-30.20278359963595,583.982,-0.0012180131216052079,0.0012156343241281876,-0.5909828393598632,-0.8066822932601035,0.3,0.97,-0.02
155.098,529,map,base_link,-37.438159634459,-29.792239196486662,583.983,-0.0010500033979462817,0.000920062129467537,-0.5928883387755371,-0.8052834710352164,0.56,1.67,-0.02
155.338,530,map,base_link,-37.238200892457314,-29.23744950254178,583.982,-0.0008522110019252915,0.0006574208081984072,-0.5919627702942042,-0.8059645898672598,0.79,2.36,0.0
155.598,531,map,base_link,-36.98370814776581,-28.4607440012407,583.971,-0.0005404908629979536,0.00041788372111683836,-0.5921443637747461,-0.8058316112517699,0.93,2.79,0.02
155.838,532,map,base_link,-36.72921529996913,-27.68403846538871,583.959,-0.00028847736720081054,0.000264378164761847,-0.5918850769030263,-0.8060222717918488,1.0,3.03,0.02
156.098,533,map,base_link,-36.456544645062166,-26.807470959124203,583.958,-2.33227318151447e-05,0.00013592704131931894,-0.5912401409114495,-0.8064955528426048,1.05,3.17,0.0
156.338,534,map,base_link,-36.21114111147841,-26.008574053530708,583.961,0.0001390915467740681,0.00012196182981561216,-0.5907740062788784,-0.8068370586952843,1.05,3.11,-0.01
156.598,535,map,base_link,-35.96573747350013,-25.20967711368445,583.969,0.00013742008932720974,0.00019224722715513887,-0.5890347106280185,-0.8081076994015642,1.01,2.96,-0.02
156.838,536,map,base_link,-35.75668997033185,-24.51064231937221,583.969,5.7088070809573116e-05,0.0003304038819756249,-0.5873869248246432,-0.8093061769931549,0.96,2.86,-0.03
157.098,537,map,base_link,-35.52946419090705,-23.800511682425395,583.967,-0.00013347594950675952,0.000512148429878295,-0.58194093411578,-0.813230883014541,1.0,2.79,0.01
157.338,538,map,base_link,-35.32041635935934,-23.168051563233348,583.963,-0.0003320781756733722,0.0007061263981253688,-0.5774617230549168,-0.8164173868286009,1.0,2.72,0.03
157.598,539,map,base_link,-35.07501195075403,-22.513399717780885,583.954,-0.0005385754626344766,0.0009119418228114524,-0.5640459058964555,-0.8257427531259539,1.09,2.71,0.04
157.839,540,map,base_link,-34.83869644691825,-21.92532261338198,583.951,-0.0006612041090466832,0.0010866387085395302,-0.5558108667700319,-0.8313078024449121,1.09,2.52,0.0
158.099,541,map,base_link,-34.584202662941806,-21.326149669535084,583.956,-0.000820948747633453,0.0012672356034291183,-0.5491378072025528,-0.8357304522738485,1.05,2.38,-0.03
158.339,542,map,base_link,-34.34788685563032,-20.815743051777645,583.965,-0.0009547123228078551,0.0014441657800462555,-0.5407090722722643,-0.8412078827923856,1.06,2.31,-0.03
158.599,543,map,base_link,-34.084303745087766,-20.260953227345908,583.971,-0.0011313191115263112,0.0016335147729581285,-0.5248147555164606,-0.8512141470504069,1.18,2.19,-0.06
158.839,544,map,base_link,-33.82072034003471,-19.76164226282532,583.979,-0.0012751132539989426,0.0017962060340288172,-0.5093708236802998,-0.8605443113014724,1.19,2.15,-0.1
159.099,545,map,base_link,-33.52078053882133,-19.229043901327998,583.995,-0.001354224839841288,0.0018805300730535674,-0.4983464340359681,-0.8669748908505724,1.26,2.06,-0.11
159.339,546,map,base_link,-33.220840414373555,-18.77411598658648,584.016,-0.001476123031323041,0.0019033787490267688,-0.4756653137507513,-0.879623048529615,1.37,1.91,-0.14
159.599,547,map,base_link,-32.83909800094639,-18.308092031830824,584.049,-0.0016450685631329242,0.0019264338711537739,-0.43202033195593437,-0.9018603081290621,1.51,1.8,-0.14
159.839,548,map,base_link,-32.466444497014095,-17.897547009074003,584.074,-0.001820360455561928,0.0019109515802510466,-0.407175403845584,-0.9133461693438338,1.51,1.69,-0.17
160.099,549,map,base_link,-32.03925612916311,-17.46481024791433,584.105,-0.0019274742832164138,0.0018671987784036196,-0.3948692382515094,-0.9187334124185764,1.61,1.68,-0.16
160.339,550,map,base_link,-31.62115657238644,-17.087552368220486,584.119,-0.0020867194173890802,0.0017611315339407948,-0.3608650327952291,-0.9326140531449714,1.81,1.42,-0.15
160.599,551,map,base_link,-31.130343779504784,-16.72139005921548,584.139,-0.0021817622346230604,0.0016040977811508587,-0.3285811110265015,-0.9444718737265022,1.9,1.28,-0.14
160.84,552,map,base_link,-30.648619905714213,-16.41070669218516,584.153,-0.0022935948143120682,0.001481167939063931,-0.3014559459737846,-0.9534761969768385,1.96,1.2,-0.15
161.1,553,map,base_link,-30.121450262708294,-16.07783161656863,584.164,-0.002401241015993029,0.0013786692945285802,-0.2867011808789153,-0.9580160573785781,1.92,1.22,-0.12
161.339,554,map,base_link,-29.648815346928586,-15.789339860701602,584.171,-0.002480360053625389,0.0013039338992347754,-0.26169131615455427,-0.9651475548431379,1.93,1.11,-0.1
161.599,555,map,base_link,-29.14891289717778,-15.500848016009172,584.173,-0.0024184630006333263,0.0012866148058989317,-0.25090278408284794,-0.9680084134957359,1.99,1.05,-0.07
161.839,556,map,base_link,-28.658099388909108,-15.267835114669708,584.176,-0.0024246158883767565,0.0012546087970827411,-0.22638823011872483,-0.9740333241005008,2.03,0.93,-0.06
162.099,557,map,base_link,-28.112750973143136,-15.023726293178072,584.178,-0.0024520151376381414,0.0012273478394815283,-0.21810321029716917,-0.9759218569624899,2.03,0.84,-0.08
162.339,558,map,base_link,-27.5946697825496,-14.846192250246304,584.179,-0.002511673917548808,0.0011162022472577743,-0.1833892211465708,-0.9830365400909211,2.13,0.69,-0.07
162.599,559,map,base_link,-27.040231890151517,-14.690849684996124,584.176,-0.0025622369997938014,0.0010907381332222652,-0.16907595949646387,-0.9855990894639829,2.06,0.59,-0.06
162.839,560,map,base_link,-26.540328903365662,-14.535507313721496,584.178,-0.0025866505100786705,0.0011028058876926237,-0.1591642261646446,-0.9872481158086464,2.11,0.55,-0.08
163.099,561,map,base_link,-25.9949801352455,-14.391260638084589,584.181,-0.002556476563862435,0.0010720460413414432,-0.14469300773813065,-0.9894727124365568,2.05,0.47,-0.08
163.339,562,map,base_link,-25.485987822070285,-14.269205609110031,584.177,-0.0024833697589819563,0.0010560675260850394,-0.1307264391280859,-0.9914148050684491,2.06,0.45,-0.06
163.6,563,map,base_link,-24.940638952113687,-14.136054752913708,584.171,-0.0024352236815934365,0.0010682445258929244,-0.11586011299965371,-0.9932619809269663,2.06,0.41,-0.08
163.84,564,map,base_link,-24.44073577514635,-14.02509560756323,584.179,-0.0023051346358376884,0.001064835728541423,-0.10507970807477562,-0.9944605610229607,2.13,0.38,-0.11
164.1,565,map,base_link,-23.89538685363405,-13.914136391498118,584.187,-0.0021582146835652997,0.0011174027466612636,-0.09865933289137907,-0.9951182992759753,2.14,0.32,-0.12
164.34,566,map,base_link,-23.386394503839256,-13.814273079724558,584.193,-0.002104783684597296,0.001187865134520305,-0.09390344538151191,-0.9955783755222612,2.12,0.34,-0.11
164.6,567,map,base_link,-22.83195633267431,-13.714409659461865,584.19,-0.00203918637122136,0.0011933209666843277,-0.0816853736926556,-0.9966553654241295,2.12,0.29,-0.08
164.84,568,map,base_link,-22.322963862389997,-13.625642141810431,584.187,-0.0019214761795897338,0.0011999006674430635,-0.07052240443620217,-0.9975076233494238,2.14,0.25,-0.08
165.1,569,map,base_link,-21.759436460870205,-13.54797032074839,584.183,-0.001846900663952347,0.0012763918920591772,-0.06585477886807728,-0.9978266923077934,2.15,0.23,-0.07
165.34,570,map,base_link,-21.25953310556136,-13.481394461671641,584.183,-0.0018007742366208358,0.0013302699432921417,-0.06248444677546977,-0.9980434266629835,2.12,0.22,-0.09
165.6,571,map,base_link,-20.714183940183972,-13.414818504391292,584.177,-0.0017146967988570419,0.0013909337791923179,-0.05442861479888783,-0.9985152232235541,2.14,0.19,-0.07
165.84,572,map,base_link,-20.214280539057228,-13.348242682723196,584.166,-0.0016680130598576803,0.0014578006118028482,-0.05140688065348775,-0.9986753352172499,2.09,0.19,-0.05
166.101,573,map,base_link,-19.668931335009404,-13.292762565774126,584.15,-0.0016030468048965011,0.0014648094967173242,-0.046083357877999886,-0.9989352374907832,2.06,0.15,-0.03
166.34,574,map,base_link,-19.15084959046095,-13.23728254169879,584.14,-0.0015925831045461797,0.0014923962748674773,-0.038003474229102774,-0.9992752235390067,2.07,0.16,-0.07
166.6,575,map,base_link,-18.59641121995932,-13.181802471083813,584.13,-0.001521778446299111,0.001432746158519913,-0.030718509316734532,-0.9995258899168962,2.07,0.13,-0.02
166.84,576,map,base_link,-18.087418575242026,-13.148514081183578,584.121,-0.0014899947710020427,0.0014421534640536653,-0.021957653777637143,-0.9997567511897831,2.08,0.1,-0.04
167.1,577,map,base_link,-17.532980128612024,-13.115225610597633,584.109,-0.0014616778382100185,0.0014178326992493628,-0.017384059536307395,-0.9998468121279239,2.09,0.07,0.0
167.34,578,map,base_link,-17.01489830482555,-13.093033040609328,584.098,-0.0014700556223710935,0.0013944924459774102,-0.01373293088100419,-0.999903645826288,2.13,0.05,-0.01
167.6,579,map,base_link,-16.460459884742733,-13.070840456037729,584.091,-0.0014871197144442805,0.0013793877438105586,-0.01083434621097601,-0.999939249507983,2.0,0.05,-0.02
167.84,580,map,base_link,-15.978734654265793,-13.048647991563143,584.077,-0.0014966382566465519,0.0013743926679972989,-0.007392692422800384,-0.9999706091768221,2.03,0.04,-0.02
168.1,581,map,base_link,-15.442474480035798,-13.048647035529712,584.061,-0.0015123008981587772,0.0013420746401483104,-0.004489976940668106,-0.9999878758708658,1.98,0.01,0.0
168.34,582,map,base_link,-14.951660075854846,-13.037550387989882,584.045,-0.001524875610078273,0.001342388266807696,-0.0017681666983679345,-0.9999963731607439,2.01,0.0,0.0
168.6,583,map,base_link,-14.415399882314716,-13.037549471638215,584.026,-0.0015486159481043406,0.0013662420113523257,0.0011920829370837827,-0.9999971570508002,1.98,-0.01,0.02
168.84,584,map,base_link,-13.933674683643943,-13.02645293566701,584.022,-0.0015289737768749328,0.0013744160524976022,0.003401869884332387,-0.999992100219294,2.09,0.0,-0.01
169.1,585,map,base_link,-13.361057874403542,-13.026452026737616,584.009,-0.001506702664795974,0.0013525101495336159,0.005936350502344201,-0.9999803299595891,2.22,-0.02,0.0
169.34,586,map,base_link,-12.78844112458296,-13.015355417075284,584.006,-0.0014955976016950074,0.0013277147999521462,0.007611312127693115,-0.9999690336650023,2.36,-0.03,0.0
169.601,587,map,base_link,-12.11584365039829,-13.015354486457909,584.004,-0.0014906098648161592,0.0012433284340283986,0.00996072971005052,-0.9999485067143605,2.6,-0.05,0.0
169.841,588,map,base_link,-11.44324614791114,-13.026449362330595,583.998,-0.0014630223156025333,0.0011308924191635482,0.013099559870962563,-0.999912487260374,2.79,-0.08,0.03
170.101,589,map,base_link,-10.65248963112711,-13.037544148490838,583.984,-0.0014713287732841859,0.0010119247535101857,0.015360900540398514,-0.9998804198175508,3.02,-0.1,0.03
170.341,590,map,base_link,-9.84355479996276,-13.059734760634342,583.973,-0.00143582015410137,0.0008261155217307529,0.01816855127258321,-0.9998335659990044,3.34,-0.14,0.04
170.601,591,map,base_link,-8.880104330082276,-13.093021067609584,583.962,-0.0014054077693316236,0.000634123869414157,0.02257230337883892,-0.9997440241562305,3.69,-0.19,0.04
170.841,592,map,base_link,-7.916653847182886,-13.137403236321234,583.949,-0.0013627277636946355,0.0004171119231734462,0.02637677245100356,-0.999651056552112,4.0,-0.24,0.04
171.101,593,map,base_link,-6.835044380165556,-13.181785436087637,583.935,-0.0012886755583869998,0.00011850056391649318,0.02781891619586374,-0.9996121413701462,3.89,-0.24,0.09
171.342,594,map,base_link,-5.898861400033013,-13.226167860487124,583.92,-0.001187645329074272,-0.0001435560179074095,0.02859253640271109,-0.999590434003998,3.5,-0.23,0.1
171.601,595,map,base_link,-5.017213360377156,-13.259454615367815,583.9,-0.0010731264080850156,-0.00022058877761735971,0.02859301465788211,-0.9995905357960715,3.15,-0.19,0.09
171.841,596,map,base_link,-4.29917011812671,-13.281645755545753,583.889,-0.0009393106739622135,-0.00011786385185043356,0.028034912627335318,-0.9996064963161992,2.92,-0.17,0.07
172.101,597,map,base_link,-3.5811268986290656,-13.303836994090432,583.887,-0.0007991946101707832,9.363400386325668e-05,0.02701158076761101,-0.9996347968258624,2.77,-0.16,0.05
172.341,598,map,base_link,-2.963064385383774,-13.326028344291672,583.899,-0.0006830406095904547,0.000326064885756336,0.02564903915691763,-0.9996707227520185,2.63,-0.13,0.02
172.601,599,map,base_link,-2.308645261925136,-13.337123970343612,583.913,-0.0005335086343882928,0.0005557968286130776,0.02441820767334768,-0.9997015342553215,2.58,-0.13,0.02
172.841,600,map,base_link,-1.717850211623329,-13.348219616236975,583.919,-0.00044372597979971224,0.0007191792489061584,0.022577737120927865,-0.9997447332569255,2.56,-0.11,0.01
173.101,601,map,base_link,-1.0725202354148848,-13.359315292712381,583.918,-0.00035307879821311263,0.00081787236762405,0.020335059619694895,-0.9997928244243484,2.46,-0.08,0.03
173.341,602,map,base_link,-0.49081434430493687,-13.35931522045405,583.902,-0.0002170690979460254,0.0009273249129365239,0.01789924943213489,-0.9998393420041436,2.4,-0.08,0.08
173.601,603,map,base_link,0.11815900903766874,-13.359315165992825,583.887,-0.00014823068994524485,0.0009757419619728483,0.01506287013105706,-0.9998860614583549,2.36,-0.04,0.07
173.841,604,map,base_link,0.6725974340345431,-13.359315169505464,583.873,-7.021828762882713e-05,0.0010335274452859264,0.012845747300140986,-0.9999169533849863,2.32,-0.02,0.09
174.101,605,map,base_link,1.2724816289985483,-13.359315213264324,583.869,-2.6531472890172462e-05,0.0010790304583360587,0.010286899873002908,-0.9999465059093678,2.32,-0.02,0.04
174.341,606,map,base_link,1.8360092090667024,-13.348219535911937,583.869,3.7899948411041715e-05,0.001107059458358814,0.00781056269061936,-0.9999688835625863,2.28,0.0,0.05
174.601,607,map,base_link,2.426804249560746,-13.34821967559094,583.865,4.977252826471852e-05,0.0010592101848533096,0.005016014379597589,-0.9999868575117492,2.25,0.0,0.04
174.841,608,map,base_link,2.9812426828742105,-13.337124084633729,583.876,8.693632937016411e-05,0.0010280849775543535,-0.001060909171015978,-0.9999989049769429,2.25,0.01,0.0
175.101,609,map,base_link,3.572037745475086,-13.314932787927773,583.893,0.0001244432455273543,0.0009526813544123357,-0.009294282703399825,-0.9999563456577215,2.22,0.07,-0.03
175.341,610,map,base_link,4.117387042314789,-13.281645712949285,583.9,0.00017405566639295717,0.000906670281131477,-0.018437211706394285,-0.9998295939199437,2.24,0.19,0.0
175.602,611,map,base_link,4.699092965784558,-13.226167112058988,583.909,0.00025779282761388515,0.0008984836421156214,-0.036987986681218055,-0.9993152731301934,2.19,0.27,-0.02
175.842,612,map,base_link,5.235353141952942,-13.17068856629561,583.927,0.00030595404276190956,0.0008696447230484834,-0.04288028209957462,-0.9990797923675767,2.08,0.22,-0.05
176.102,613,map,base_link,5.762524182985118,-13.081922693505874,583.937,0.0003255309858155312,0.0008552241579950732,-0.07654293767064896,-0.9970658660860697,1.96,0.46,0.0
176.342,614,map,base_link,6.235160330301824,-12.959869482615318,583.943,0.00033353190176361075,0.000848657323848678,-0.12049134280672552,-0.9927139592278579,1.91,0.58,-0.02
176.605,615,map,base_link,6.735063986893522,-12.782337412285926,583.949,0.0003892673312592078,0.0008185013117720381,-0.14296092035272884,-0.9897279190658654,1.85,0.65,-0.02
176.842,616,map,base_link,7.189521919096478,-12.582613799434682,583.95,0.0005425615309314799,0.0008242707008902833,-0.1835533953730703,-0.9830092457611038,1.82,0.93,-0.01
177.102,617,map,base_link,7.671247359231472,-12.327411309061233,583.945,0.0006428665962151224,0.0007430097882836988,-0.21141630040764225,-0.9773956121146337,1.79,0.97,-0.01
177.342,618,map,base_link,8.0984379230284,-12.050017260432867,583.943,0.0007742714633339548,0.0006706899387936738,-0.24549001122460723,-0.9693985790518003,1.72,1.12,-0.02
177.602,619,map,base_link,8.534717711533347,-11.728240133202746,583.946,0.0008861228535595966,0.0006152463102706192,-0.27335267960942894,-0.9619132750974024,1.68,1.23,0.01
177.842,620,map,base_link,8.943730042260512,-11.4286545539955,583.946,0.0009252369890394907,0.0005742544427816817,-0.2874729716913217,-0.9577881314337267,1.62,1.3,0.0
178.102,621,map,base_link,9.343653309802818,-11.062494321867916,583.943,0.0008935045292710343,0.0004849663047966676,-0.3309920703354201,-0.9436329878890477,1.45,1.46,0.04
178.342,622,map,base_link,9.698130796022781,-10.707429820033326,583.931,0.0008877909083069814,0.000541333249849933,-0.3439689289365966,-0.9389804549147049,1.44,1.43,0.03
178.602,623,map,base_link,10.034430057536923,-10.296886430174993,583.921,0.0008520787039675451,0.000518277579838359,-0.39549419581992323,-0.9184679343466404,1.21,1.73,0.05
178.842,624,map,base_link,10.352551082207157,-9.841959923317347,583.911,0.0007936050554417893,0.00047677914416863296,-0.4342287648046248,-0.9008021551311439,1.45,2.27,0.02
179.102,625,map,base_link,10.79792057100505,-9.209501154363068,583.908,0.0007309637823896716,0.0004557031671645272,-0.43672299274790405,-0.8995956233952488,1.79,2.59,0.0
179.342,626,map,base_link,11.25237929995859,-8.577042434091197,583.908,0.0007079068152985463,0.0002880097112391724,-0.4362788892713647,-0.8998111727993219,1.71,2.49,-0.03
179.602,627,map,base_link,11.706838098016476,-7.966775315455209,583.922,0.000684350719170239,8.13215739038017e-05,-0.4358362719503107,-0.9000257046903437,1.47,2.18,-0.06
179.842,628,map,base_link,12.052226855099946,-7.489657392038055,583.946,0.0005787989304729923,-8.567408419641157e-05,-0.43527122966583776,-0.9002991804266729,1.22,1.85,-0.07
180.102,629,map,base_link,12.343080579184857,-7.09020984278726,583.968,0.00031182103210498755,-0.00012849418782959773,-0.4347098245104628,-0.9005705162456574,0.95,1.49,-0.03
180.342,630,map,base_link,12.533953349086289,-6.823911473262967,583.974,8.99449557319657e-06,-4.8614849432411446e-05,-0.4342050735060129,-0.9008140494560093,0.68,1.13,-0.01
180.604,631,map,base_link,12.670291036461322,-6.635283458077879,583.977,-0.000373535100416475,0.00012359817700732133,-0.43425987642037644,-0.9007875470533429,0.41,0.78,-0.04
180.842,632,map,base_link,12.743004470377684,-6.546517355872368,583.983,-0.0007770902605197972,0.00030424724778197,-0.4339758739069307,-0.9009241058108364,0.2,0.49,-0.01
181.102,633,map,base_link,12.761182847541619,-6.524325838472407,583.99,-0.00118767826648367,0.00046245248824422047,-0.4335065653272755,-0.9011495066725499,0.0,0.19,0.0
181.342,634,map,base_link,12.743004475229412,-6.557613142721152,583.991,-0.0015225215180701922,0.0005567190211882394,-0.4335879861857564,-0.9011097770125118,-0.17,-0.04,0.03
181.604,635,map,base_link,12.688469362225419,-6.646379270413377,583.989,-0.0018479059756670298,0.0006161005884220875,-0.43372183121041064,-0.9010447152028904,-0.33,-0.29,0.02
181.843,636,map,base_link,12.606666737188277,-6.76843270224208,583.983,-0.0021225608823217277,0.0006297985668961923,-0.43364023007272157,-0.9010833751388064,-0.35,-0.36,0.03
182.103,637,map,base_link,12.533953256437655,-6.890486134605624,583.973,-0.00231922587786758,0.0005862604128880605,-0.43357011197690076,-0.9011166603111906,-0.31,-0.37,0.03
182.343,638,map,base_link,12.488507276925077,-7.00144382997928,583.965,-0.002363782175698229,0.00044145566537916257,-0.4334555320765049,-0.9011717479831439,-0.24,-0.35,0.02
182.603,639,map,base_link,12.470328849214667,-7.079114241760237,583.965,-0.0024211139272318043,0.0002589707636556866,-0.43383171804833187,-0.900990627896166,-0.16,-0.28,0.04
182.843,640,map,base_link,12.470328806832242,-7.123497361287207,583.971,-0.002377935678742174,2.7072101901976536e-05,-0.43445300606869686,-0.9006913623472148,-0.09,-0.24,0.0
183.103,641,map,base_link,12.488507096491759,-7.145688939618367,583.975,-0.002251936563661255,-0.00014690893202041512,-0.43542852338135674,-0.9002204775639189,-0.01,-0.18,0.02
183.343,642,map,base_link,12.51577458061422,-7.145688977544353,583.977,-0.002122162100872078,-0.0004070565686608273,-0.4362699241252517,-0.8998132495338765,0.0,-0.15,0.01
183.603,643,map,base_link,12.533952901126696,-7.1456890028929365,583.977,-0.0019395851394620367,-0.0006120359136717623,-0.4371237863794729,-0.8993990542594541,0.02,-0.13,0.02
183.843,644,map,base_link,12.552131259188059,-7.134593263240788,583.98,-0.0017831030057801184,-0.0008263912296366107,-0.43784571396687955,-0.8990479789099355,0.01,-0.13,0.0
184.103,645,map,base_link,12.570309596004222,-7.123497511393566,583.989,-0.0016145387589187469,-0.0009832014766344456,-0.4385855757328143,-0.8986874425174571,0.01,-0.13,0.0
184.343,646,map,base_link,12.579398775583968,-7.123497534971307,583.993,-0.0014737095587586035,-0.0011134262084533763,-0.4392375436100258,-0.8983690604343215,0.01,-0.12,-0.01
184.603,647,map,base_link,12.57939879133275,-7.112401758079898,583.998,-0.0013289793099459995,-0.0012438344675009144,-0.43993631066995253,-0.8980271316858539,0.0,-0.12,-0.03
184.843,648,map,base_link,12.579398826327576,-7.101305993452286,584.004,-0.0012013031445626198,-0.001336098729310926,-0.4405827256507318,-0.897710216923653,0.0,-0.11,-0.03
185.103,649,map,base_link,12.579398826327576,-7.101305993452286,584.005,-0.001058335635481833,-0.0013788846032547224,-0.44129260599029696,-0.8973615851490557,0.0,-0.09,-0.03
185.343,650,map,base_link,12.579398841754056,-7.090210215821742,584.001,-0.000946294715438545,-0.0014843092464461429,-0.4419391621512331,-0.8970432979011875,0.0,-0.08,-0.03
185.603,651,map,base_link,12.588488020790521,-7.079114451148371,584.003,-0.000830185135236684,-0.0016161733443351104,-0.4426416341252386,-0.8966967617401663,0.0,-0.07,-0.04
185.843,652,map,base_link,12.588488036139495,-7.068018674878317,584.006,-0.0007280740815990201,-0.0017151346793721006,-0.44328692178435286,-0.8963778406431723,0.0,-0.06,-0.04
186.103,653,map,base_link,12.588488071611636,-7.056922909028401,584.016,-0.0006362935837426228,-0.0018461688017297224,-0.44397256482011094,-0.896038251682529,0.0,-0.06,-0.06
186.343,654,map,base_link,12.597577251991083,-7.05692293250263,584.023,-0.0005492519689292801,-0.0019007259389740424,-0.4446034359850056,-0.8957253319369207,0.01,-0.04,-0.05
186.603,655,map,base_link,12.597577287540759,-7.045827166431479,584.031,-0.0004702809810554041,-0.001995797846830059,-0.4452704310268779,-0.8953937898376847,0.0,-0.04,-0.07
186.843,656,map,base_link,12.597577287540759,-7.045827166431479,584.039,-0.00040723342899845087,-0.0020603560320629423,-0.44587351404948306,-0.8950935138649598,0.0,-0.03,-0.07
187.103,657,map,base_link,12.597577322613091,-7.034731400823205,584.042,-0.000335874584754902,-0.0020643180373057586,-0.44651952168621684,-0.894771447092729,0.02,-0.01,-0.05
187.343,658,map,base_link,12.606666498295795,-7.02363563548721,584.042,-0.00029010982735949156,-0.0021031592046373442,-0.4471020574971335,-0.8944804317252995,0.03,0.0,-0.04
187.604,659,map,base_link,12.615755694424024,-7.012539883209229,584.05,-0.00024368208730232775,-0.0021095385436753424,-0.4477289657175768,-0.8941667986028345,0.04,0.0,-0.04
187.844,660,map,base_link,12.624844870506593,-7.001444118770792,584.058,-0.00021358742430686636,-0.002129813168222595,-0.448300910665547,-0.8938801439637877,0.05,0.01,-0.04
188.104,661,map,base_link,12.63393406918891,-6.990348365360262,584.066,-0.00018936675348600447,-0.0021320988838573873,-0.4489169196700471,-0.8935709359242493,0.05,0.01,-0.04
188.344,662,map,base_link,12.633934089234572,-6.990348376761119,584.072,-0.00017297797671040092,-0.00211480338810569,-0.4494833210384147,-0.893286203740731,0.05,0.01,-0.04
188.604,663,map,base_link,12.633934105060916,-6.979252599268705,584.07,-0.00015743139889843745,-0.0020581279689622567,-0.4500951741982037,-0.8929782043746123,0.04,0.01,-0.04
188.844,664,map,base_link,12.633934084937692,-6.979252588468739,584.065,-0.00014866989108888932,-0.002005317317177788,-0.4506547315061733,-0.8926960678589436,0.04,0.02,-0.04
189.104,665,map,base_link,12.643023241374436,-6.9681568135270595,584.059,-0.00014646522216601066,-0.0019387641158952142,-0.45125785735134627,-0.892391486916092,0.06,0.02,-0.02
189.344,666,map,base_link,12.643023241374436,-6.9681568135270595,584.053,-0.00015779911624256435,-0.0019141425893711714,-0.45180464485240784,-0.8921148323211401,0.05,0.02,-0.03
189.604,667,map,base_link,12.64302322125124,-6.968156802727151,584.045,-0.00016379862696202653,-0.0018319493352480197,-0.452400860498694,-0.8918128046578407,0.05,0.02,-0.02
189.844,668,map,base_link,12.65211237848763,-6.957061027302245,584.038,-0.0001652712911964863,-0.0017165603942352044,-0.4529528096556379,-0.8915328251561333,0.06,0.03,-0.01
190.104,669,map,base_link,12.65211237848763,-6.957061027302245,584.03,-0.00018659705466407027,-0.0016645708099473299,-0.45353717670038196,-0.8912357845913752,0.05,0.02,-0.02
190.344,670,map,base_link,12.652112358286928,-6.957061016723458,584.024,-0.0002041978523598522,-0.0015802598471622007,-0.45407789497708195,-0.8909605638720688,0.05,0.02,-0.02
190.604,671,map,base_link,12.652112358286928,-6.957061016723458,584.028,-0.00022317756102649454,-0.001482230046584613,-0.4546645183782117,-0.8906615119751016,0.04,0.02,-0.01
190.844,672,map,base_link,12.652112358286928,-6.957061016723458,584.029,-0.00024045947469242976,-0.0013900341717195956,-0.4552027917697685,-0.8903866735016035,0.04,0.01,-0.01
191.104,673,map,base_link,12.652112358286928,-6.957061016723458,584.024,-0.0002564515129975157,-0.0012845811238460592,-0.4557830120869217,-0.8900899561150718,0.04,0.01,-0.01
191.344,674,map,base_link,12.652112323214595,-6.968156782331789,584.014,-0.0002744425619653488,-0.0011918055353153172,-0.4563187748881108,-0.889815531425171,0.04,0.01,0.0
191.604,675,map,base_link,12.652112303091428,-6.968156771531767,584.0,-0.00028940723457916386,-0.0010712071474917124,-0.45689926052923446,-0.8895177538905779,0.05,0.01,0.0
191.844,676,map,base_link,12.65211228384544,-6.968156760407169,583.996,-0.00030756896408527877,-0.0009893513417941634,-0.45742775455754664,-0.8892461841052205,0.05,0.01,0.0
192.104,677,map,base_link,12.65211226364471,-6.968156749828438,583.989,-0.00033107002066936405,-0.0009164412390927672,-0.45799371462531735,-0.888954896432772,0.03,0.0,0.0
192.344,678,map,base_link,12.643023102266483,-6.9681567365185515,583.989,-0.000351031761768745,-0.0008379536613629205,-0.4585173292725532,-0.888685002330482,0.02,0.0,0.0
192.604,679,map,base_link,12.643023106885664,-6.979252524410811,583.993,-0.00036425377834089216,-0.0007121287335032973,-0.4590905806810227,-0.8883891033335638,0.03,0.0,0.0
192.844,680,map,base_link,12.643023106885664,-6.979252524410811,583.992,-0.0003834819602879218,-0.0006557076689900271,-0.45960906138923235,-0.8881210129694872,0.02,0.0,0.0
193.104,681,map,base_link,12.633933946706946,-6.979252511135542,583.994,-0.00039579111358013064,-0.0005702838421776283,-0.46017239193425136,-0.887829312327118,0.02,0.0,0.0
193.345,682,map,base_link,12.633933946706946,-6.979252511135542,583.992,-0.00041084286013820466,-0.000493739614981037,-0.4606914550288424,-0.8875601222974954,0.03,0.0,0.01
193.605,683,map,base_link,12.633933926583751,-6.979252500335576,583.982,-0.00042554922892109313,-0.000425018100493927,-0.46124853311440983,-0.8872707754497907,0.02,0.0,0.01
193.845,684,map,base_link,12.633933926583751,-6.979252500335576,583.981,-0.00043795678978902095,-0.00036625124856940594,-0.461760797256953,-0.8870043067372876,0.01,-0.01,0.01
194.105,685,map,base_link,12.633933926583751,-6.979252500335576,583.98,-0.00044928488341840217,-0.00029073679197217544,-0.4623157513259475,-0.8867152077703054,0.01,-0.01,0.01
194.345,686,map,base_link,12.633933907337763,-6.979252489210921,583.977,-0.0004586674782654609,-0.0002364691508189567,-0.4628284769726343,-0.8864477055132337,0.01,-0.01,0.01
194.605,687,map,base_link,12.633933907337763,-6.979252489210921,583.973,-0.0004601050186687525,-0.0001471209905149683,-0.463385560298335,-0.8861566391816879,0.02,0.0,0.02
194.845,688,map,base_link,12.633933887137061,-6.979252478632247,583.969,-0.00046787835182181644,-9.58503603470703e-05,-0.46389549790102286,-0.885889800669202,0.02,-0.01,0.03
195.106,689,map,base_link,12.633933887137061,-6.979252478632247,583.962,-0.0004817768509835052,-4.853071595915721e-05,-0.46444613538378504,-0.885601238065362,0.01,-0.01,0.02
195.345,690,map,base_link,12.633933852142235,-6.990348244399058,583.959,-0.00048515295915647243,2.014243974335899e-05,-0.4649562528097505,-0.8853335231391635,0.01,-0.01,0.02
195.605,691,map,base_link,12.62484468853225,-6.990348231821599,583.95,-0.0004901232941015643,9.180932802836858e-05,-0.465506673004109,-0.8850442298206624,0.01,-0.01,0.03
195.845,692,map,base_link,12.624844649085532,-6.990348210118157,583.939,-0.0004972989838248061,0.000125608829652881,-0.46601268566146437,-0.8847778894834183,0.0,-0.02,0.02
196.105,693,map,base_link,12.624844649085532,-6.990348210118157,583.933,-0.0005062163640273964,0.00016133943948511725,-0.4665581119076969,-0.8844903876966119,0.0,-0.02,0.02
196.345,694,map,base_link,12.615755452957302,-7.001443963535394,583.928,-0.0005144810975104664,0.000199236753835449,-0.46706333136019823,-0.8842236934806882,0.0,-0.03,0.02
196.605,695,map,base_link,12.615755452957302,-7.001443963535394,583.929,-0.0005214546879822029,0.00022862607548829823,-0.4676115476240853,-0.883933886862436,0.0,-0.03,0.02
196.845,696,map,base_link,12.606666312424409,-7.001443961522966,583.931,-0.0005319034058373913,0.00021950339661926615,-0.4681143678238379,-0.883667701986394,-0.01,-0.03,0.02
197.105,697,map,base_link,12.606666312424409,-7.001443961522966,583.934,-0.0005384662269060204,0.0002281355058177881,-0.46865865856355604,-0.8833791483625373,-0.01,-0.03,0.02
197.345,698,map,base_link,12.606666292301213,-7.001443950723058,583.927,-0.0005421885575248635,0.00022763786026910713,-0.4691638194621223,-0.8831109583287288,-0.01,-0.03,0.02
197.605,699,map,base_link,12.606666257228909,-7.0125397159515614,583.919,-0.000552195513517964,0.00020944500687064443,-0.4697110302374947,-0.8828200265547531,-0.01,-0.03,0.02
197.845,700,map,base_link,12.606666257228909,-7.0125397159515614,583.913,-0.00055177922681244,0.00022154608241619082,-0.4702215515291136,-0.8825482077113815,0.0,-0.03,0.02
198.105,701,map,base_link,12.606666257228909,-7.0125397159515614,583.915,-0.0005575650045041294,0.00019714234753616765,-0.4707685170730171,-0.8822565690257187,0.0,-0.03,0.02
198.345,702,map,base_link,12.606666257228909,-7.0125397159515614,583.915,-0.0005612865958602039,0.00018642674867703964,-0.47127366592959496,-0.8819868377723703,0.0,-0.03,0.02
198.605,703,map,base_link,12.606666257228909,-7.0125397159515614,583.914,-0.0005727297610581295,0.00014385574989838598,-0.47181542051010394,-0.8816971476958613,-0.01,-0.03,0.01
198.845,704,map,base_link,12.606666257228909,-7.0125397159515614,583.916,-0.0005697886281784349,0.00016730621726949156,-0.4723286295692616,-0.8814223238826959,0.0,-0.03,0.02
199.105,705,map,base_link,12.606666276952268,-7.0125397269930545,583.92,-0.0005786813627305967,0.00012454538538511187,-0.47287484093961213,-0.8811294084427462,-0.01,-0.03,0.01
199.346,706,map,base_link,12.606666276952268,-7.0125397269930545,583.927,-0.0005832086811248975,9.846114514151925e-05,-0.4733840134563645,-0.8808559621055996,-0.02,-0.04,0.0
199.606,707,map,base_link,12.59757713681924,-7.012539725498584,583.939,-0.0005794329947982692,9.989949706989153e-05,-0.4739407138200662,-0.8805565592630727,-0.02,-0.04,0.0
199.846,708,map,base_link,12.597577176188423,-7.012539747423148,583.95,-0.0005831084754173554,5.505437383504789e-05,-0.4744506521398828,-0.880281906912531,-0.03,-0.04,0.0
200.106,709,map,base_link,12.597577176188423,-7.012539747423148,583.959,-0.0005907835691811902,1.1628845006371129e-05,-0.47500540718428097,-0.8799826782302251,-0.03,-0.04,-0.01
